     2.10           OBSERVATION DATA    G (GPS)             RINEX VERSION / TYPE
teqc  2004Apr5                          20041208 15:58:21UTCPGM / RUN BY / DATE
OBSERVATION MODE: Permanent                                 COMMENT
CHUM Chumysh (CHUM)                                         MARKER NAME
25601M001                                                   MARKER NUMBER
T136                ROGUE SNR-8000       3.20               REC # / TYPE / VERS
113                 AOAD/M_T        NONE                    ANT # / TYPE
        0.0900        0.0000        0.0000                  ANTENNA: DELTA H/E/N
  1228950.8688  4508079.8949  4327868.4945                  APPROX POSITION XYZ
  74.75109758  42.99850107  716.3296  LonLatAlt  S/W        COMMENT
Linux 2.0.36|Pentium II|gcc -static|Linux|486/DX+           COMMENT
BIT 2 OF LLI FLAGS DATA COLLECTED UNDER A/S CONDITION       COMMENT
Konovalov           IVTAN                                   OBSERVER / AGENCY
     1     1                                                WAVELENGTH FACT L1/2
     5    L1    L2    C1    P2    P1                        # / TYPES OF OBSERV
    30.0000                                                 INTERVAL
    P1 =    P1  TurboRogue; =    Y1  Benchmark              COMMENT
    L1 = L1(P1) TurboRogue; = L1(Y1) Benchmark              COMMENT
    P2 =    P2  TurboRogue; =    Y2  Benchmark              COMMENT
    L2 = L2(P2) TurboRogue; = L2(Y2) Benchmark              COMMENT
 SNR is mapped to RINEX snr flag value [1,4-9]              COMMENT
    SNR:  >=316 >=100 >=31.6 >=10 >=3.2    >0 bad=0         COMMENT
L1 & L2:      9     8     7     6     5     4     1         COMMENT
  2002     1     9     0     0    0.0000000     GPS         TIME OF FIRST OBS
  2002     1     9    23    59   30.0000000     GPS         TIME OF LAST OBS
                                                            END OF HEADER
 02  1  9  0  0  0.0000000  0  8G 1G25G20G30G29G14G11G22
  -8299579.44248  -6467201.17045  23495990.221    23495992.096
 -23408269.91949 -18240203.76347  20636915.654    20636915.317
 -15966243.82549 -12441225.44846  21364717.655    21364717.759
   1219448.02448    950219.62144  23932593.699    23932596.891
 -10147317.92149  -7906998.75246  21901299.829    21901299.959
  -1757435.48448  -1369429.57245  23248148.895    23248148.939
 -10543166.43448  -8215454.71444  23341647.574    23341646.046
 -11235453.69048  -8754897.77545  22743588.518    22743590.265
 02  1  9  0  0 30.0000000  0  8G 1G25G20G30G29G14G11G22
  -8378494.41348  -6528693.35745  23480972.588    23480974.970
 -23379877.36849 -18218079.70047  20642318.838    20642318.337
 -16029182.26249 -12490268.37746  21352741.479    21352741.431
   1285501.77348   1001690.09644  23945163.244    23945164.852
 -10087626.62549  -7860486.05946  21912658.371    21912658.616
  -1679365.03148  -1308595.47645  23263005.458    23263005.414
 -10470262.07848  -8158646.13044  23355521.636    23355519.640
 -11343032.99948  -8838725.76545  22723116.797    22723119.221
 02  1  9  0  1  0.0000000  0  8G 1G25G20G30G29G14G11G22
  -8457328.31448  -6590122.34645  23465971.212    23465972.597
 -23351091.31549 -18195649.00947  20647796.624    20647796.115
 -16091693.77249 -12538978.63246  21340845.604    21340845.354
   1352030.65948   1053530.75544  23957823.364    23957824.646
 -10027741.79949  -7813822.57746  21924054.105    21924054.325
  -1601169.28248  -1247663.73545  23277885.397    23277884.856
 -10397076.76848  -8101618.66744  23369447.654    23369448.213
 -11450403.19448  -8922390.80445  22702685.026    22702686.272
 02  1  9  0  1 30.0000000  0  8G 1G25G20G30G29G14G11G22
  -8536077.60048  -6651485.43245  23450986.395    23450987.520
 -23321909.97549 -18172910.30247  20653349.782    20653349.296
 -16153772.88249 -12587351.95346  21329031.746    21329031.635
   1419035.80948   1105742.56944  23970573.636    23970574.845
  -9967660.27049  -7767005.79546  21935487.076    21935487.389
  -1522845.24848  -1186632.03545  23292789.735    23292790.013
 -10323610.17748  -8044371.98944  23383427.641    23383427.617
 -11557557.95748  -9005887.97645  22682293.814    22682295.518
 02  1  9  0  2  0.0000000  0  8G 1G25G20G30G29G14G11G22
  -8614743.89548  -6712783.84145  23436015.761    23436018.070
 -23292336.59949 -18149866.11547  20658977.518    20658977.048
 -16215419.28349 -12635388.09846  21317301.450    21317301.308
   1486513.07648   1158322.27444  23983414.260    23983414.420
  -9907384.19049  -7720037.43546  21946957.755    21946957.963
  -1444395.48848  -1125502.35945  23307718.556    23307717.944
 -10249867.15148  -7986909.94944  23397460.761    23397460.780
 -11664495.93348  -9089216.23545  22661944.768    22661946.234
 02  1  9  0  2 30.0000000  0  8G 1G25G20G30G29G14G11G22
  -8693336.98648  -6774025.19845  23421060.524    23421061.915
 -23262383.04449 -18126525.68647  20664677.290    20664676.783
 -16276640.78749 -12683093.15746  21305651.346    21305651.162
   1554450.05248   1211260.16444  23996342.678    23996343.699
  -9846923.89049  -7672925.52446  21958462.585    21958463.073
  -1365830.21548  -1064282.68445  23322669.411    23322668.784
 -10175860.73548  -7929242.68044  23411544.074    23411543.355
 -11771224.01848  -9172380.95345  22641634.599    22641635.969
 02  1  9  0  3  0.0000000  0  8G 1G25G20G30G29G14G11G22
  -8771867.97048  -6835218.17145  23406116.582    23406117.257
 -23232061.95249 -18102898.87347  20670447.220    20670446.831
 -16337446.80049 -12730474.45646  21294079.784    21294079.462
   1622833.05848   1264545.62844  24009354.661    24009354.746
  -9786291.26049  -7625679.32346  21970000.642    21970001.241
  -1287161.63048  -1002982.49545  23337638.709    23337638.539
 -10101605.36448  -7871381.35444  23425673.965    23425672.547
 -11877750.40348  -9255388.49245  22621362.753    22621364.340
 02  1  9  0  3 30.0000000  0  8G 1G25G20G30G29G14G11G22
  -8850312.83148  -6896344.03245  23391189.316    23391191.554
 -23201351.41349 -18078968.58947  20676291.356    20676290.901
 -16397811.24649 -12777511.67646  21282593.331    21282593.065
   1691683.57048   1318195.40444  24022457.752    24022458.852
  -9725463.00749  -7578280.69446  21981576.071    21981576.490
  -1208366.27748   -941583.52845  23352633.564    23352633.571
 -10027080.38448  -7813309.96544  23439855.209    23439858.132
 -11984048.24848  -9338217.94945  22601135.808    22601137.928
 02  1  9  0  4  0.0000000  0  8G 1G25G20G30G29G14G11G22
  -8928681.91848  -6957410.86945  23376276.201    23376276.320
 -23170264.07949 -18054744.69247  20682206.891    20682206.578
 -16457742.85249 -12824211.62046  21271188.765    21271188.573
   1760988.28948   1372199.08844  24035644.648    24035646.201
  -9664449.89149  -7530738.00646  21993186.401    21993186.441
  -1129455.67848   -880094.77545  23367649.784    23367649.240
  -9952299.51448  -7755039.18244  23454086.228    23454085.065
 -12090125.18848  -9420875.27645  22580949.389    22580951.088
 02  1  9  0  4 30.0000000  0  8G 1G25G20G30G29G14G11G22
  -9006969.65148  -7018414.29945  23361378.198    23361381.305
 -23138795.75649 -18030223.92347  20688195.059    20688194.694
 -16517233.89549 -12870568.26547  21259868.074    21259867.998
   1830750.45748   1426559.17844  24048919.836    24048920.926
  -9603247.06849  -7483047.50446  22004832.669    22004832.811
  -1050424.79648   -818512.29145  23382688.709    23382688.321
  -9877260.42848  -7696567.21444  23468365.247    23468363.964
 -12195972.52648  -9503353.69845  22560808.042    22560808.764
 02  1  9  0  5  0.0000000  0  8G 1G25G20G30G29G14G11G22
  -9085177.10648  -7079355.20245  23346495.317    23346497.763
 -23106949.54049 -18005408.69247  20694255.194    20694254.860
 -16576283.75549 -12916581.13347  21248630.841    21248630.435
   1900966.30248   1481272.88944  24062282.551    24062283.086
  -9541855.87949  -7435210.22446  22016515.248    22016515.231
   -971275.43748   -756837.46445  23397750.076    23397749.495
  -9801967.25948  -7637897.25644  23482693.204    23482694.497
 -12301588.34148  -9585651.70945  22540709.908    22540711.809
 02  1  9  0  5 30.0000000  0  8G 1G25G20G30G29G14G11G22
  -9163304.21048  -7140233.46145  23331628.957    23331629.780
 -23074727.24949 -17980300.41247  20700386.876    20700386.561
 -16634890.65349 -12962248.83247  21237478.449    21237478.511
   1971633.16248   1536337.95744  24075729.897    24075731.473
  -9480277.31649  -7387226.93546  22028233.363    22028233.844
   -892008.25248   -695070.83445  23412834.363    23412833.391
  -9726423.51248  -7579032.02844  23497069.062    23497068.511
 -12406970.06948  -9667767.31645  22520656.362    22520659.014
 02  1  9  0  6  0.0000000  0  8G 1G25G20G30G29G14G11G22
  -9241353.06548  -7201050.75745  23316776.574    23316778.229
 -23042132.68449 -17954902.05147  20706589.335    20706589.220
 -16693054.83449 -13007571.56047  21226410.192    21226410.071
   2042746.15148   1591750.69444  24089262.609    24089259.792
  -9418513.79449  -7339099.52446  22039986.072    22039986.612
   -812626.07948   -633214.61245  23427940.333    23427940.349
  -9650634.65848  -7519975.80944  23511491.046    23511490.736
 -12512116.70449  -9749699.74345  22500647.858    22500649.623
 02  1  9  0  6 30.0000000  0  8G 1G25G20G30G29G14G11G22
  -9319318.56748  -7261803.11845  23301939.912    23301941.836
 -23009163.04149 -17929211.41947  20712863.291    20712863.285
 -16750769.22249 -13052543.79847  21215427.610    21215427.292
   2114307.57348   1647512.82744  24102879.341    24102879.522
  -9356560.91949  -7290824.56646  22051775.936    22051775.995
   -733124.84748   -571265.61145  23443068.823    23443068.376
  -9574599.03848                  23525959.476
 -12617020.31648  -9831442.79745  22480684.744    22480686.450
 02  1  9  0  7  0.0000000  0  8G 1G25G20G30G29G14G11G22
  -9397205.99948  -7322494.61845  23287118.829    23287122.021
 -22975825.54149 -17903234.14347  20719207.357    20719207.199
 -16808037.57649 -13097168.48247  21204529.696    21204529.348
   2186309.54148   1703618.27044  24116581.284    24116581.724
  -9294424.71149  -7242406.74846  22063600.140    22063600.334
   -653510.67448   -509228.60645  23458218.682    23458218.725
  -9498325.23648  -7401293.19944  23540474.457    23540471.309
 -12721683.38048  -9912998.40545  22460767.741    22460769.444
 02  1  9  0  7 30.0000000  0  8G 1G25G20G30G29G14G11G22
  -9475011.06848  -7383121.92245  23272312.896    23272314.140
 -22942117.49449 -17876968.12847  20725621.415    20725621.357
 -16864853.57849 -13141440.67647  21193718.073    21193718.048
   2258753.60448   1760068.22544  24130366.689    24130368.022
  -9232101.36949  -7193843.10846  22075459.487    22075459.764
   -573779.67248   -447100.56245  23473391.782    23473391.381
  -9421812.31048                  23555033.586
 -12826098.65449  -9994360.93545  22440898.802    22440899.546
 02  1  9  0  8  0.0000000  0  8G 1G25G20G30G29G14G11G22
  -9552735.64248  -7443686.51145  23257522.399    23257522.666
 -22908042.86549 -17850416.46147  20732105.304    20732105.405
 -16921217.48449 -13185360.59347  21182992.362    21182992.172
   2331635.08148   1816858.97844  24144235.138    24144237.339
  -9169593.56349  -7145135.73746  22087354.295    22087354.352
   -493935.20648   -384884.11245  23488584.775    23488586.115
  -9345065.48148                  23569639.332
 -12930265.40248 -10075529.79945  22421076.218    22421077.507
 02  1  9  0  8 30.0000000  0  8G 1G25G20G30G29G14G11G22
  -9630372.45048  -7504182.71645  23242747.982    23242750.210
 -22873596.49549 -17823575.12547  20738660.613    20738660.522
 -16977120.15849 -13228921.10347  21172354.149    21172354.052
   2404958.57448   1873994.16944  24158188.504    24158189.134
  -9106894.35849  -7096279.22346  22099285.916    22099286.251
   -413970.11248   -322573.66945  23503802.357    23503802.517
  -9268080.77248                  23584287.138
 -13034173.14848 -10156496.85045  22401303.001    22401305.301
 02  1  9  0  9  0.0000000  0  8G 1G25G20G30G29G14G11G22
  -9707927.84948  -7564615.45445  23227989.933    23227992.400
 -22838786.43049 -17796450.40047  20745284.876    20745284.581
 -17032566.23649 -13272125.82747  21161803.167    21161803.002
   2478714.97948   1931466.67744  24172223.350    24172223.663
  -9044010.83949  -7047279.09046  22111251.797    22111252.305
   -333891.87148   -260175.05645  23519040.512    23519041.244
  -9190867.89648                  23598981.792
 -13137825.53149 -10237264.93645  22381578.946    22381580.399
 02  1  9  0  9 30.0000000  0  8G20G 1G25G30G29G14G11G22
 -17087547.88249 -13314968.66147  21151340.567    21151340.580
  -9785395.65348  -7624979.95445  23213248.842    23213250.259
 -22803608.50649 -17769039.02047  20751978.895    20751978.735
   2552907.53748   1989279.11144  24186343.357    24186344.410
  -8980937.51749  -6998131.05446  22123254.912    22123254.615
   -253695.14848   -197684.13245  23534301.353    23534299.155
  -9113424.24347                  23613716.974
 -13241213.59349 -10317827.03845  22361904.581    22361905.876
 02  1  9  0 10  0.0000000  0  8G 1G25G20G30G29G14G11G22
  -9862791.27248  -7685288.19845  23198521.011    23198523.464
 -22768079.98949 -17741354.45747  20758739.891    20758739.680
 -17142078.62349 -13357460.13547  21140963.724    21140963.753
   2627517.91248   2047417.03444  24200539.344    24200541.313
  -8917690.58849  -6948847.73946  22135289.948    22135290.399
   -173396.08648   -135113.43545  23549582.044    23549581.440
  -9035768.58548  -7040859.61744  23628494.881    23628494.738
 -13344349.86249 -10398192.94845  22342278.696    22342280.528
 02  1  9  0 10 30.0000000  0  8G20G 1G25G30G29G14G11G22
 -17196146.48249 -13399590.92347  21130675.115    21130675.077
  -9940103.99148  -7745531.84445  23183808.296    23183810.956
 -22732192.82849 -17713390.42547  20765569.179    20765568.967
   2702554.01048   2105886.70044  24214818.733    24214819.217
  -8854260.04649  -6899421.36346  22147360.305    22147360.773
    -92984.97048    -72455.44345  23564883.845    23564882.514
  -8957893.86348                  23643315.111
 -13447221.01749 -10478352.25545  22322702.687    22322705.397
 02  1  9  0 11  0.0000000  0  8G20G 1G25G30G29G14G11G22
 -17249740.57549 -13441352.54147  21120476.317    21120476.215
 -10017324.90148  -7805703.95045  23169114.397    23169115.024
 -22695939.79049 -17685141.28847  20772467.564    20772467.396
   2778021.79948   2164692.81844  24229180.799    24229180.447
  -8790637.52749  -6849845.37346  22159467.787    22159467.659
    -12453.51548     -9703.68145  23580208.573    23580207.839
  -8879794.38548                  23658176.689
 -13549815.20249 -10558295.75645  22303179.953    22303180.902
 02  1  9  0 11 30.0000000  0  8G20G 1G25G30G29G14G11G22
 -17302871.45049 -13482753.21247  21110366.227    21110365.907
 -10094466.37548  -7865814.15545  23154434.211    23154436.309
 -22659335.31049 -17656618.30047  20779433.308    20779433.176
   2853906.41648   2223823.67744  24243620.992    24243624.472
  -8726835.97949  -6800129.89946  22171608.444    22171608.927
     68184.95548     53131.45845  23595552.989    23595553.229
  -8801485.73448                  23673079.318
 -13652141.75649 -10638030.70045  22283707.379    22283708.449
 02  1  9  0 12  0.0000000  0  8G20G 1G25G30G29G14G11G22
 -17355533.17349 -13523788.30947  21100344.760    21100344.678
 -10171523.90448  -7925858.95745  23139770.454    23139773.272
 -22622376.77849 -17627819.42947  20786466.364    20786466.089
   2930209.13448   2283280.34244  24258141.619    24258144.112
  -8662851.57749  -6750271.92746  22183784.353    22183784.028
    148934.27948    116053.00145  23610919.168    23610918.995
  -8722967.00048                  23688019.457
 -13754193.66049 -10717551.64545  22264287.550    22264289.708
 02  1  9  0 12 30.0000000  0  8G20G 1G25G30G29G14G11G22
 -17407724.06849 -13564456.52747  21090412.971    21090412.647
 -10248497.49548  -7985838.35545  23125123.545    23125124.994
 -22585066.22049 -17598746.25747  20793566.280    20793566.175
   3006927.19148   2343060.64744  24272739.041    24272739.405
  -8598685.14349  -6700272.12246  22195995.005    22195995.229
    229793.63848    179060.28245  23626306.873    23626307.202
  -8644241.46148                  23703001.924
 -13855968.00149 -10796856.30345  22244920.614    22244922.424
 02  1  9  0 13  0.0000000  0  8G20G 1G25G30G29G14G11G22
 -17459443.00249 -13604756.98247  21080571.213    21080571.027
 -10325387.51448  -8045752.63445  23110491.077    23110492.590
 -22547406.39349 -17569400.92347  20800732.783    20800732.671
   3084057.12448   2403161.90044  24287417.932    24287416.856
  -8534337.72649  -6650131.28746  22208239.689    22208239.697
    310761.51348    242152.12245  23641714.046    23641714.590
  -8565313.21448                  23718021.409
 -13957462.42349 -10875942.82345  22225607.101    22225608.998
 02  1  9  0 13 30.0000000  0  8G20G 1G25G30G29G14G11G22
 -17510688.32049 -13644688.38547  21070819.607    21070819.712
 -10402194.00048  -8105601.84245  23095875.932    23095877.088
 -22509399.09849 -17539784.83547  20807965.235    20807965.289
   3161596.03648   2463581.86344  24302173.084    24302173.685
  -8469809.96349  -6599849.93146  22220519.093    22220518.809
    391837.05748    305327.83245  23657142.208    23657141.896
  -8486185.84548  -6612613.57144  23733079.246    23733077.681
 -14058674.07949 -10954809.03045  22206346.786    22206348.916
 02  1  9  0 14  0.0000000  0  8G20G 1G25G30G29G14G11G22
 -17561436.15049 -13684232.13247  21061162.683    21061162.376
 -10478894.75648  -8165368.63945  23081280.314    23081282.056
 -22471024.11949 -17509882.24147  20815267.538    20815267.305
   3239563.30348   2524335.55344  24317008.832    24317009.175
  -8405080.31449  -6549411.24846  22232836.531    22232837.055
    473041.57548    368604.07745  23672595.624    23672593.851
  -8406840.35048                  23748176.836
 -14159578.06649 -11033435.47445  22187145.880    22187147.302
 02  1  9  0 14 30.0000000  0  8G20G 1G25G30G29G14G11G22
 -17611698.89449 -13723397.89247  21051597.698    21051597.704
 -10555503.66848  -8225063.87245  23066701.026    23066702.564
 -22432297.60349 -17479705.72447  20822636.747    20822636.713
   3317941.80148   2585409.76244  24331924.423    24331921.798
  -8340163.57449  -6498826.78846  22245190.113    22245189.863
    554360.61748    431969.54545  23688069.105    23688068.602
  -8327294.26648                  23763315.267
 -14260185.46349 -11111830.80946  22168000.745    22168002.311
 02  1  9  0 15  0.0000000  0  8G20G 1G25G30G29G14G11G22
 -17661473.07549 -13762182.95347  21042126.310    21042126.353
 -10632018.91748  -8284686.13145  23052141.264    23052141.903
 -22393219.43249 -17449255.19447  20830073.207    20830073.368
   3396730.61348   2646803.62144  24346916.538    24346914.589
  -8275058.51249  -6448095.57046  22257578.812    22257579.134
    635795.01548    495424.90845  23703565.518    23703566.396
  -8247548.92348                  23778490.441
 -14360491.73449 -11189991.50446  22148913.321    22148915.164
 02  1  9  0 15 30.0000000  0  8G20G 1G25G30G29G14G11G22
 -17710783.24449 -13800606.44447  21032742.790    21032742.690
 -10708466.59549  -8344255.73246  23037593.732    23037594.699
 -22353818.07249 -17418552.82847  20837571.234    20837571.155
   3475900.76548   2708494.64044  24361982.804    24361986.043
  -8209791.73549  -6397238.35546  22269998.621    22269999.200
    717317.75948    558949.09345  23719079.687    23719077.785
  -8167634.02648                  23793696.602
 -14460520.20349 -11267935.73846  22129878.368    22129879.521
 02  1  9  0 16  0.0000000  0  8G20G 1G25G30G29G14G11G22
 -17759607.63649 -13838651.40747  21023451.545    21023451.618
 -10784826.51048  -8403756.92645  23023062.781    23023065.033
 -22314075.37149 -17387584.48147  20845133.614    20845133.637
   3555469.28348   2770496.10944  24377124.003    24377123.330
  -8144343.79649  -6346239.97046  22282453.366    22282453.587
    798948.35848    622557.35745  23734613.065    23734612.241
  -8087532.79548                  23808941.200
 -14560247.70049 -11345645.44546  22110900.556    22110901.836
 02  1  9  0 16 30.0000000  0  8G20G 1G25G30G29G14G11G22
 -17807931.54549 -13876306.38147  21014256.029    21014255.831
 -10861085.46849  -8463179.46745  23008552.535    23008552.012
 -22273980.28749 -17356341.55347  20852763.579    20852763.547
   3635446.30548   2832815.83644  24392343.275    24392346.186
  -8078702.38349  -6295090.82946  22294944.118    22294944.171
    880698.96248    686259.11745  23750169.503    23750170.310
  -8007235.78748                  23824219.730
 -14659658.41749 -11423108.30846  22091983.401    22091984.793
 02  1  9  0 17  0.0000000  0  8G20G 1G25G30G29G14G11G22
 -17855759.04249 -13913574.53847  21005154.966    21005155.032
 -10937248.89448  -8522527.57345  22994057.441    22994058.928
 -22233540.09649 -17324829.71247  20860459.102    20860458.828
   3715823.42048   2895447.37644  24407638.993    24407636.679
  -8012873.56249  -6243795.64846  22307470.956    22307471.313
    962563.35348    750049.53345  23765748.489    23765748.685
  -7926751.85748                  23839536.228
 -14758755.16549 -11500326.52446  22073125.873    22073127.467
 02  1  9  0 17 30.0000000  0  8G20G 1G25G30G29G14G11G22
 -17903097.10549 -13950461.32547  20996146.781    20996146.477
 -11013325.30449  -8581807.84145  22979581.557    22979582.663
 -22192765.57849 -17293057.35947  20868218.241    20868218.166
   3796589.02348   2958381.64344  24423007.493    24423008.199
  -7946866.49249  -6192361.58246  22320032.073    22320031.489
   1044531.92248    813921.14345  23781345.531    23781345.854
  -7846092.80248                  23854883.776
 -14857543.64249 -11577304.52546  22054327.142    22054328.645
 02  1  9  0 18  0.0000000  0  8G 1G25G20G30G29G14G11G22
 -11089320.30449  -8641024.70445  22965120.413    22965120.937
 -22151664.40849 -17261030.47447  20876039.700    20876039.422
 -17949950.03049 -13986970.08147  20987230.812    20987230.784
   3877734.49348   3021611.83144  24438449.431    24438448.840
  -7880687.77649  -6140793.75146  22332625.191    22332625.521
   1126598.28948    877868.94945  23796963.178    23796962.608
  -7765267.87848                  23870265.345
 -14956026.76049 -11654044.58846  22035586.380    22035587.996
 02  1  9  0 18 30.0000000  0  8G 1G25G20G30G29G14G11G22
 -11165228.77248  -8700174.10845  22950673.938    22950675.724
 -22110233.41749 -17228746.58547  20883923.883    20883923.594
 -17996310.91749 -14023095.43547  20978408.729    20978408.427
   3959261.97248   3085139.75744  24453963.097    24453964.604
  -7814332.74649  -6089088.55046  22345251.845    22345252.871
   1208766.96648    941896.48945  23812599.451    23812599.213
  -7684275.44347                  23885675.600
 -15054196.57449 -11730540.52846  22016905.767    22016906.697
 02  1  9  0 19  0.0000000  0  8G 1G25G20G30G29G14G11G22
 -11241040.36949  -8759248.04746  22936248.889    22936250.043
 -22068464.83149 -17196199.63547  20891872.194    20891871.832
 -18042168.23249 -14058828.39647  20969682.322    20969682.341
   4041178.58948   3148970.90244  24469551.245    24469555.917
  -7747792.01049  -6037238.64246  22357915.011    22357914.785
   1291046.83048   1006010.63545  23828256.231    23828255.764
  -7603108.68547                  23901123.112
 -15152040.31349 -11806782.37546  21998285.775    21998288.152
 02  1  9  0 19 30.0000000  0  8G 1G25G20G30G29G14G11G22
 -11316751.96048  -8818244.05145  22921840.427    22921842.027
 -22026357.76649 -17163388.93647  20899884.994    20899884.645
 -18087517.58449 -14094165.53647  20961052.540    20961052.527
   4123484.24348   3213105.20644  24485214.460    24485214.781
  -7681063.16449  -5985242.14346  22370612.548    22370612.790
   1373440.31748   1070213.32645  23843935.406    23843933.701
  -7521768.15947                  23916601.237
 -15249552.00049 -11882765.47946  21979730.563    21979731.974
 02  1  9  0 20  0.0000000  0  8G 1G25G20G30G29G14G11G22
 -11392366.63048  -8877164.52745  22907451.864    22907452.334
 -21983917.34749 -17130318.47847  20907960.970    20907960.618
 -18132360.47649 -14129108.03847  20952519.311    20952519.081
   4206172.94848   3277537.93744  24500948.859    24500949.642
  -7614150.07449  -5933102.08146  22383345.193    22383345.742
   1455943.60548   1134501.60645  23859635.572    23859635.394
  -7440260.24147                  23932111.236
 -15346732.03449 -11958490.16046  21961237.406    21961238.344
 02  1  9  0 20 30.0000000  0  8G 1G25G20G30G29G14G11G22
 -11467874.15849  -8936001.52845  22893084.291    22893083.908
 -21941135.35749 -17096981.85847  20916102.101    20916101.705
 -18176685.36549 -14163646.89847  20944084.334    20944083.954
   4289251.67648   3342274.65944  24516758.414    24516757.067
  -7547043.29849  -5880811.10346  22396115.648    22396115.514
   1538565.77848   1198882.51245  23875357.382    23875356.391
  -7358578.59647                  23947654.543
 -15443567.64649 -12033946.44846  21942809.962    21942812.056
 02  1  9  0 21  0.0000000  0  8G 1G25G20G30G29G14G11G22
 -11543287.68248  -8994765.27745  22878731.305    22878733.820
 -21898027.04249 -17063390.96547  20924305.377    20924305.097
 -18220503.77549 -14197791.09947  20935746.080    20935745.805
   4372704.19648   3407302.59644  24532638.505    24532633.800
  -7479756.65249  -5828379.94646  22408920.337    22408920.456
   1621293.07848   1263345.31345  23891099.938    23891102.051
  -7276739.45147                  23963227.979
 -15540069.07249 -12109142.34046  21924446.659    21924447.668
 02  1  9  0 21 30.0000000  0  8G 1G25G20G30G29G14G11G22
 -11618601.91249  -9053451.64545  22864401.126    22864401.956
 -21854589.27449 -17029543.35347  20932571.473    20932571.411
 -18263809.28549 -14231535.63747  20927505.392    20927505.234
   4456532.65848   3472623.42644  24548590.384    24548592.608
  -7412285.54249  -5775805.07346  22421759.100    22421760.185
   1704129.49848   1327893.15845  23906863.533    23906862.803
  -7194741.04747                  23978831.952
 -15636228.45249 -12184071.70246  21906147.746    21906149.400
 02  1  9  0 22  0.0000000  0  8G 1G25G20G30G29G14G11G22
 -11693823.95349  -9112066.18745  22850087.142    22850087.693
 -21810831.25649 -16995446.19747  20940898.382    20940898.197
 -18306607.81149 -14264885.12147  20919360.980    20919360.850
   4540726.86048   3538229.32744  24564612.324    24564608.404
  -7344637.97349  -5723092.69846  22434632.040    22434632.642
   1787067.24248   1392519.95745  23922645.882    23922646.813
  -7112594.14047                  23994465.049
 -15732050.28649 -12258738.04946  21887914.082    21887915.350
 02  1  9  0 22 30.0000000  0  8G 1G25G20G30G29G14G11G22
 -11768949.54148  -9170605.57445  22835789.375    22835790.839
 -21766751.00349 -16961097.94847  20949286.251    20949286.167
 -18348893.41049 -14297834.92247  20911314.534    20911314.230
   4625288.11448   3604121.24244  24580703.334    24580703.126
  -7276810.16649  -5670239.86646  22447539.369    22447539.745
   1870109.84748   1457228.44045  23938448.477    23938448.248
  -7030297.94048                  24010125.338
 -15827527.49749 -12333135.86246  21869744.681    21869747.079
 02  1  9  0 23  0.0000000  0  8G 1G25G20G30G29G14G11G22
 -11843994.74949  -9229082.33146  22821510.261    22821510.886
 -21722367.00749 -16926513.01447  20957732.204    20957732.123
 -18390681.13749 -14330396.77147  20903362.445    20903362.437
   4710196.79748   3670283.79244  24596861.281    24596860.711
  -7208819.31049  -5617259.99046  22460478.225    22460477.443
   1953240.08748   1522005.22345  23954267.736    23954268.390
  -6947872.31648                  24025809.912
 -15922673.65149 -12407275.70346  21851639.607    21851641.122
 02  1  9  0 23 30.0000000  0  8G 1G25G20G30G29G14G11G22
 -11918940.07349  -9287481.25046  22807248.470    22807249.391
 -21677661.43249 -16891677.50047  20966239.499    20966239.438
 -18431950.31749 -14362554.55547  20895509.114    20895509.048
   4795469.44948   3736730.06244  24613088.678    24613086.628
  -7140646.58349  -5564138.40246  22473450.500    22473451.185
   2036476.23448   1586864.54145  23970107.915    23970106.819
  -6865301.39148                  24041523.311
 -16017466.54049 -12481140.26646  21833600.546    21833602.453
 02  1  9  0 24  0.0000000  0  8G 1G25G20G30G29G14G11G22
 -11993788.34548  -9345804.55745  22793004.212    22793006.331
 -21632639.63149 -16856595.57547  20974806.825    20974806.560
 -18472702.30349 -14394309.33547  20887754.124    20887753.975
   4881099.98648   3803455.18844  24629382.659    24629382.446
  -7072295.60649  -5510877.90945  22486457.317    22486458.588
   2119814.96448   1651803.81145  23985965.040    23985966.270
  -6782590.91648                  24057262.622
 -16111906.35849 -12554729.71946  21815629.748    21815630.977
 02  1  9  0 24 30.0000000  0  8G 1G25G20G30G29G14G11G22
 -12068533.79449  -9404047.72646  22778782.304    22778782.332
 -21587298.19949 -16821264.58747  20983434.813    20983434.620
 -18512930.14749 -14425655.68847  20880098.894    20880098.743
   4967090.85048   3870461.02844  24645746.790    24645747.645
  -7003761.51449  -5457474.74145  22499498.966    22499499.522
   2203260.85148   1716826.53145  24001845.281    24001843.605
  -6699738.94248                  24073030.103
 -16205984.91749 -12628037.66546  21797726.799    21797728.921
 02  1  9  0 25  0.0000000  0  8G 1G25G20G30G29G14G11G22
 -12143168.13948  -9462204.34545  22764577.961    22764578.904
 -21541630.63949 -16785679.47547  20992125.116    20992124.823
 -18552624.40949 -14456586.26447  20872545.638    20872545.432
   5053447.19848   3937751.70444  24662179.411    24662181.418
  -6935036.83649  -5403923.05145  22512576.769    22512576.437
   2286821.44748   1781938.66045  24017746.392    24017747.797
  -6616740.79448                  24088823.018
 -16299691.15849 -12701055.49246  21779895.362    21779896.685
 02  1  9  0 25 30.0000000  0  8G 1G25G20G30G29G14G11G22
 -12217704.77048  -9520284.79346  22750393.956    22750395.776
 -21495652.47549 -16749852.32847  21000874.472    21000874.141
 -18591797.24549 -14487110.53247  20865091.283    20865090.964
   5140152.59448   4005314.36544  24678679.144    24678677.083
  -6866135.43349  -5350233.65946  22525688.297    22525689.395
   2370482.34048   1847128.92345  24033666.251    24033665.002
  -6533613.58748                  24104641.155
 -16393035.89949 -12773791.63846  21762132.391    21762133.950
 02  1  9  0 26  0.0000000  0  8G 1G25G20G30G29G14G11G22
 -12292141.88249  -9578287.71246  22736231.382    22736231.924
 -21449364.62849 -16713783.87447  21009682.791    21009682.381
 -18630445.73749 -14517226.22347  20857736.543    20857736.086
   5227205.38948   4073147.71544  24695244.836    24695248.057
  -6797056.59949  -5296406.01545  22538833.984    22538833.576
   2454244.19848   1912397.89444  24049605.090    24049603.257
  -6450358.93848                  24120485.228
 -16486014.82149 -12846242.72946  21744438.855    21744439.839
 02  1  9  0 26 30.0000000  0  8G 1G25G20G30G29G14G11G22
 -12366476.62348  -9636210.85046  22722083.397    22722085.538
 -21402766.07249 -16677473.31447  21018550.261    21018549.760
 -18668565.95349 -14546930.27147  20850482.360    20850482.292
   5314605.13648   4141251.43944  24711875.745    24711877.514
  -6727798.18849  -5242438.43245  22552012.655    22552013.022
   2538109.00248   1977747.07644  24065564.965    24065564.981
  -6366977.67948                  24136352.607
 -16578622.65849 -12918404.67046  21726816.687    21726817.939
 02  1  9  0 27  0.0000000  0  8G 1G25G20G30G29G14G11G22
 -12440705.54349  -9694051.52946  22707959.334    22707960.527
 -21355855.83849 -16640919.88547  21027477.293    21027476.748
 -18706153.28549 -14576219.08347  20843329.836    20843329.427
   5402352.07448   4209625.65744  24728574.258    24728572.898
  -6658357.94349  -5188329.16845  22565226.535    22565226.719
   2622079.09048   2043178.26145  24081543.742    24081542.286
  -6283471.65848                  24152231.756
 -16670853.32349 -12990272.71246  21709265.229    21709267.131
 02  1  9  0 27 30.0000000  0  8G 1G25G20G30G29G14G11G22
 -12514836.83949  -9751816.14846  22693853.268    22693853.803
 -21308644.59049 -16604131.89847  21036461.159    21036460.695
 -18743214.75349 -14605098.13147  20836277.285    20836276.891
   5490434.81748   4278261.55844  24745334.878    24745332.859
  -6588744.65149  -5134085.06345  22578474.496    22578474.858
   2706145.16748   2108684.24744  24097540.336    24097539.555
  -6199192.00548                  24168158.483
 -16762712.60849 -13061851.35546  21691785.598    21691786.909
 02  1  9  0 28  0.0000000  0  8G 1G25G20G30G29G14G11G22
 -12588868.47549  -9809503.09246  22679763.895    22679765.980
 -21261132.11149 -16567109.18847  21045502.458    21045502.021
 -18779747.33649 -14633565.06447  20829325.312    20829325.104
   5578851.99648   4347158.08944  24762160.692    24762160.827
  -6518957.25049  -5079705.28045  22591754.013    22591754.537
   2790308.61848   2174266.13345  24113557.057    24113556.268
  -6114706.39347                  24184090.633
 -16854195.77049 -13133136.91846  21674376.360    21674377.441
 02  1  9  0 28 30.0000000  0  7G 1G25G30G20G29G14G22
 -12662788.94349  -9867103.42846  22665698.761    22665699.861
 -21213309.26149 -16529844.63447  21054602.836    21054602.512
   5667611.90848   4416321.70844  24779051.355    24779051.840
 -18815738.31349 -14661609.96447  20822476.325    20822476.009
  -6448984.83949  -5025181.34145  22605069.350    22605070.101
   2874579.85648   2239932.02244  24129593.069    24129591.229
 -16945288.74649 -13204118.43646  21657042.335    21657043.518
 02  1  9  0 29  0.0000000  0  7G 1G25G20G30G29G14G22
 -12736588.24849  -9924609.33846  22651654.378    22651654.975
 -21165168.47249 -16492332.33047  21063763.607    21063763.088
 -18851176.93449 -14689224.45647  20815732.557    20815732.409
   5756721.08348   4485757.40844  24796007.012    24796008.493
  -6378818.59249  -4970506.35645  22618421.896    22618421.996
   2958967.49148   2305688.56645  24145651.254    24145653.440
 -17035979.24449 -13274786.32646  21639784.154    21639785.642
 02  1  9  0 29 30.0000000  0  8G 1G25G20G30G29G14G 4G22
 -12810298.40449  -9982045.77746  22637627.708    22637629.649
 -21116743.96149 -16454598.94347  21072978.470    21072977.991
 -18886093.91149 -14716432.47547  20809088.134    20809087.869
   5846144.22848   4555437.75344  24813025.223    24813024.785
  -6308491.31849  -4915705.89945  22631804.640    22631805.169
   3043438.83048   2371510.34245  24161726.226    24161725.215
         -.21058                  25323098.685
 -17126296.79049 -13345163.61946  21622597.605    21622598.231
 02  1  9  0 30  0.0000000  0  8G 1G25G20G30G29G14G 4G22
 -12883898.66149 -10039396.59146  22623622.531    22623623.818
 -21068017.20349 -16416630.03947  21082250.883    21082250.397
 -18920467.68549 -14743217.22247  20802547.124    20802546.820
   5935898.80948   4625376.48644  24830104.764    24830103.368
  -6237983.20848  -4860764.53145  22645221.871    22645222.402
   3128013.62948   2437412.75144  24177819.354    24177820.931
    -53171.20448                  25312981.111
 -17216218.19049 -13415232.21346  21605485.466    21605487.407
 02  1  9  0 30 30.0000000  0  8G 1G25G20G30G29G14G 4G22
 -12957404.03549 -10096673.46846  22609634.560    22609635.154
 -21019005.64649 -16378439.21747  21091577.446    21091577.087
 -18954312.43849 -14769589.74147  20796106.602    20796106.322
   6025966.49648   4695559.09044  24847243.435    24847242.893
  -6167310.02648  -4805694.55045  22658670.089    22658670.417
   3212675.91348   2503383.32744  24193930.636    24193930.293
   -105899.56748                  25302947.686
 -17305755.89149 -13485001.83046  21588447.515    21588448.526
 02  1  9  0 31  0.0000000  0  8G 1G25G20G30G29G14G 4G22
 -13030802.33249 -10153866.90046  22595666.532    22595668.202
 -20969699.00749 -16340018.46047  21100960.186    21100959.614
 -18987614.83049 -14795539.64147  20789769.276    20789768.860
   6116356.17748   4765992.58644  24864444.813    24864446.343
  -6096460.48048  -4750487.11845  22672152.425    22672152.744
   3297436.56348   2569430.55544  24210060.008    24210061.961
   -158171.75548                  25293000.539
 -17394895.26449 -13554461.05946  21571484.307    21571485.613
 02  1  9  0 31 30.0000000  0  8G 1G25G20G30G29G14G 4G22
 -13104091.53549 -10210975.32946  22581721.277    22581722.342
 -20920097.41449 -16301367.87047  21110399.148    21110398.690
 -19020371.84149 -14821064.57347  20783536.051    20783535.773
   6207066.47748   4836676.00344  24881705.535    24881703.187
  -6025433.49848  -4695141.42745  22685668.980    22685669.724
   3382296.55648   2635555.21244  24226208.270    24226206.134
   -209984.99948                  25283140.440
 -17483631.95149 -13623606.50846  21554598.947    21554600.076
 02  1  9  0 32  0.0000000  0  8G 1G25G20G30G29G14G 4G22
 -13177258.06849 -10267988.17846  22567797.190    22567797.766
 -20870189.85049 -16262478.86047  21119896.012    21119895.672
 -19052568.94649 -14846153.21147  20777409.357    20777409.062
   6298107.76748   4907617.24844  24899030.206    24899028.724
  -5954216.39048  -4639647.59545  22699220.265    22699221.488
   3467268.56748   2701767.09544  24242378.079    24242377.613
   -261324.83148                  25273371.347
 -17571949.82649 -13692425.61746  21537791.949    21537793.491
 02  1  9  0 32 30.0000000  0  8G 1G25G20G30G29G14G 4G22
 -13250322.96149 -10324921.80946  22553893.912    22553895.099
 -20819999.49549 -16223369.49347  21129446.824    21129446.453
 -19084226.25649 -14870821.23347  20771385.214    20771384.875
   6389455.59648                  24916413.575
  -5882830.98248  -4584022.63745  22712804.607    22712805.950
   3552330.66848   2768049.24044  24258564.484    24258566.103
   -312211.01848                  25263688.702
 -17659867.39449 -13760932.79946  21521062.086    21521063.349
 02  1  9  0 33  0.0000000  0  8G 1G25G20G30G29G14G 4G22
 -13323271.35249 -10381764.67446  22540012.521    22540012.806
 -20769514.07249 -16184030.20447  21139054.433    21139054.107
 -19115328.44349 -14895056.68947  20765466.413    20765465.977
   6481121.15448   5050225.11244  24933857.012    24933856.418
  -5811263.65648  -4528255.90545  22726424.087    22726423.835
   3637496.37748   2834412.08144  24274770.925    24274773.267
   -362628.37548                  25254094.280
 -17747367.84549 -13829114.95746  21504411.189    21504412.939
 02  1  9  0 33 30.0000000  0  8G 1G25G20G30G29G14G 4G22
 -13396102.40449 -10438516.09746  22526152.557    22526154.041
 -20718735.28049 -16144462.31647  21148716.912    21148716.645
 -19145873.58349 -14918858.08747  20759653.683    20759653.334
   6573102.12848   5121898.59244  24951360.664    24951359.362
  -5739514.32548  -4472347.34745  22740077.056    22740077.471
   3722765.64348   2900855.59644  24290997.818    24290996.925
   -412574.91548                  25244588.803
 -17834447.79149 -13896969.44046  21487840.232    21487841.896
 02  1  9  0 34  0.0000000  0  8G 1G25G20G30G29G14G 4G22
 -13468828.44849 -10495185.69546  22512313.927    22512315.369
 -20667677.20949 -16104676.80947  21158432.949    21158432.652
 -19175873.03449 -14942234.26947  20753945.022    20753944.593
   6665382.73148   5193805.54244  24968920.920    24968921.569
  -5667596.14848  -4416307.22945  22753762.882    22753763.829
   3808124.92248   2967369.28744  24307240.885    24307244.050
   -462062.00248                  25235172.615
 -17921117.04849 -13964503.91346  21471347.959    21471349.202
 02  1  9  0 34 30.0000000  0  8G 1G25G20G30G29G14G 4G22
 -13541445.27849 -10551770.19946  22498495.170    22498495.757
 -20616338.13949 -16064672.33947  21168202.457    21168202.270
 -19205321.98349 -14965181.48847  20748341.038    20748340.695
   6757963.80348                  24986538.462
  -5595506.02748  -4360133.12745  22767481.170    22767481.708
   3893577.53548   3033955.66944  24323501.897    24323503.379
   -511084.70748                  25225843.920
 -18007369.31749 -14031713.45746  21454934.551    21454935.956
 02  1  9  0 35  0.0000000  0  8G 1G25G20G30G29G14G 4G22
 -13613944.10949 -10608262.73746  22484698.262    22484699.325
 -20564711.41949 -16024443.72347  21178026.447    21178026.442
 -19234210.90749 -14987692.32747  20742843.904    20742843.476
   6850850.83848                  25004213.995
  -5523235.93648  -4303818.78145  22781233.776    22781235.604
   3979131.39148   3100620.99144  24339782.269    24339781.802
   -559633.55748                  25216604.681
 -18093193.20249 -14098589.19346  21438603.174    21438604.412
 02  1  9  0 35 30.0000000  0  8G 1G25G20G30G29G14G 4G22
 -13686335.15049 -10664671.29646  22470923.729    22470924.683
 -20512809.78549 -15984000.88947  21187902.973    21187902.679
 -19262549.21549 -15009774.11347  20737451.212    20737450.905
   6944030.16248   5410933.45244  25021945.601    25021945.331
  -5450797.27348  -4247373.10145  22795017.902    22795017.330
   4064774.76048   3167356.04944  24356080.255    24356079.739
   -607717.85148                  25207454.051
 -18178596.81449 -14165137.44346  21422350.959    21422352.226
 02  1  9  0 36  0.0000000  0  8G 1G25G20G30G29G14G 4G22
 -13758608.68749 -10720988.28346  22457170.084    22457170.738
 -20460625.90849 -15943338.12647  21197833.234    21197832.930
 -19290326.72649 -15031418.91947  20732165.157    20732164.816
   7037507.78548   5483773.18644  25039734.029    25039732.386
  -5378181.31948  -4190789.22745  22808836.381    22808837.191
   4150516.14448   3234167.45944  24372395.401    24372398.498
   -655327.17448                  25198395.681
 -18263568.18149 -14231348.87646  21406181.557    21406182.847
 02  1  9  0 36 30.0000000  0  8G 1G25G20G30G29G14G 4G22
 -13830760.23949 -10777210.22846  22443439.657    22443440.201
 -20408157.80649 -15902453.88947  21207817.743    21207817.496
 -19317538.34449 -15052622.76647  20726987.071    20726986.670
   7131284.70548   5556846.07444  25057579.091    25057581.062
  -5305384.71048  -4134064.64145  22822689.126    22822689.767
   4236359.04648   3301058.00344  24388730.914    24388731.487
   -702456.52248                  25189426.520
 -18348100.70549 -14297218.36246  21390095.655    21390097.023
 02  1  9  0 37  0.0000000  0  8G 1G25G20G30G29G14G 4G22
 -13902795.25649 -10833341.34846  22429732.155    22429732.971
 -20355412.82049 -15861353.89947  21217854.704    21217854.742
 -19344188.54449 -15073389.14647  20721915.634    20721915.357
   7225352.32248   5630145.52244  25075479.802    25075482.628
  -5232413.46748  -4077203.95745  22836575.289    22836576.694
   4322296.92548   3368022.49344  24405085.299    24405085.775
   -749110.46748                  25180548.851
 -18432197.31649 -14362748.16446  21374092.603    21374093.903
 02  1  9  0 37 30.0000000  0  8G 1G25G20G30G29G14G 4G22
 -13974712.67949 -10889380.84946  22416047.166    22416047.520
 -20302392.34849 -15820039.24147  21227944.317    21227944.020
 -19370275.65949 -15093716.76047  20716951.219    20716951.110
   7319708.27648                  25093434.987
  -5159267.76448  -4020207.32845  22850495.245    22850494.459
   4408329.85048   3435061.10944  24421456.092    24421456.841
   -795287.17248                  25171761.362
 -18515854.82549 -14427935.81146  21358172.862    21358173.774
 02  1  9  0 38  0.0000000  0  8G 1G25G20G30G29G14G 4G22
 -14046511.41049 -10945327.86046  22402383.041    22402384.099
 -20249097.76449 -15778510.99047  21238085.983    21238085.964
 -19395797.66949 -15113604.03347  20712094.364    20712094.269
   7414350.24748                  25111444.869
  -5085947.22348  -3963074.44745  22864447.033    22864448.265
   4494457.87948   3502173.80744  24437845.561    24437843.757
   -840984.74748                  25163065.545
 -18599069.48949 -14492778.38946  21342337.810    21342338.931
 02  1  9  0 38 30.0000000  0  8G 1G25G20G30G29G14G 4G22
 -14118192.02149 -11001182.83346  22388743.580    22388744.156
 -20195531.57649 -15736771.09947  21248279.145    21248279.078
 -19420754.74049 -15133051.09247  20707345.382    20707345.363
   7509274.12647                  25129508.073
  -5012453.65548  -3905806.75345  22878431.854    22878432.842
   4580679.13048   3569359.15944  24454253.550    24454253.269
   -886203.28948                  25154460.759
 -18681840.03049 -14557274.89846  21326587.039    21326588.515
 02  1  9  0 39  0.0000000  0  7G 1G25G20G29G14G 4G22
 -14189752.98649 -11056944.58246  22375125.626    22375126.547
 -20141695.20049 -15694820.67347  21258524.170    21258523.985
 -19445144.89549 -15152056.39747  20702703.989    20702703.808
  -4938786.46948  -3848403.76845  22892451.416    22892451.459
   4666994.07248   3636617.44544  24470678.768    24470675.563
   -930940.71548                  25145946.820
 -18764162.83249 -14621422.52046  21310921.434    21310922.437
 02  1  9  0 39 30.0000000  0  7G 1G25G20G29G14G 4G22
 -14261184.65749 -11112605.57246  22361532.137    22361533.439
 -20087581.04949 -15652653.80247  21268821.569    21268821.390
 -19468957.80249 -15170611.90347  20698172.710    20698172.488
  -4864937.07248  -3790858.80445  22906503.658    22906503.724
   4753411.28848   3703955.50344  24487122.509    24487122.773
   -975186.72348                  25137527.376
 -18846025.86649 -14685211.87746  21295343.385    21295344.588
 02  1  9  0 40  0.0000000  0  7G 1G25G20G29G14G 4G22
 -14332513.42149 -11168186.37646  22347959.308    22347960.480
 -20033217.84849 -15610292.86647  21279166.504    21279166.218
 -19492219.45449 -15188737.85647  20693746.258    20693746.144
  -4790932.76248  -3733193.12645  22920586.120    22920587.078
   4839903.20748   3771351.74744  24503582.889    24503580.900
  -1018966.97848                  25129196.969
 -18927453.34449 -14748661.84146  21279848.611    21279849.509
 02  1  9  0 40 30.0000000  0  7G 1G25G20G29G14G 4G22
 -14403712.24549 -11223665.95146  22334410.187    22334410.628
 -19978581.14249 -15567718.80847  21289563.562    21289563.339
 -19514902.45449 -15206412.91647  20689429.787    20689429.565
  -4716747.74648  -3675386.64245  22934703.653    22934703.722
   4926495.31248   3838826.01444  24520060.168    24520059.587
  -1062254.14248                  25120958.468
 -19008416.24849 -14811749.80146  21264441.463    21264442.715
 02  1  9  0 41  0.0000000  0  7G 1G25G20G29G14G 4G22
 -14474797.74049 -11279057.20446  22320883.008    22320884.389
 -19923689.69749 -15524946.25147  21300009.116    21300008.986
 -19537022.88349 -15223649.60547  20685220.211    20685219.895
  -4642399.68748  -3617453.11445  22948851.722    22948851.865
   5013170.30548   3906364.93244  24536553.289    24536553.781
  -1105064.20848                  25112812.667
 -19088929.17049 -14874487.12446  21249120.729    21249121.819
 02  1  9  0 41 30.0000000  0  7G 1G25G20G29G14G 4G22
 -14545748.29349 -11334343.30346  22307382.351    22307382.784
 -19868524.21449 -15481960.15747  21310506.540    21310506.542
 -19558558.54949 -15240430.63647  20681122.189    20681122.278
  -4567868.05248  -3559376.53645  22963034.204    22963034.723
   5099948.35948   3973984.09944  24553067.004    24553068.465
  -1147375.08148                  25104761.114
 -19168968.08449 -14936855.09146  21233889.508    21233890.787
 02  1  9  0 42  0.0000000  0  7G 1G25G20G29G14G 4G22
 -14616567.86849 -11389527.35646  22293905.153    22293905.773
 -19813091.33849 -15438765.71147  21321055.393    21321055.028
 -19579512.95349 -15256758.73547  20677134.959    20677134.948
  -4493157.60448  -3501160.63145  22977251.385    22977252.862
   5186824.53448   4041679.77244  24569599.020    24569598.491
  -1189190.23648                  25096803.740
 -19248534.92249 -14998855.20546  21218748.425    21218750.065
 02  1  9  0 42 30.0000000  0  7G 1G25G20G29G14G 4G22
 -14687263.52249 -11444614.84546  22280452.169    22280452.716
 -19757400.39349 -15395370.17447  21331652.973    21331652.712
 -19599893.10549 -15272639.36347  20673256.925    20673256.879
  -4418276.67748  -3442811.86645  22991500.602    22991501.146
   5273790.34248   4109445.27944  24586148.203    24586147.896
  -1230516.31348                  25088939.450
 -19327634.78449 -15060491.43946  21203696.327    21203697.711
 02  1  9  0 43  0.0000000  0  7G 1G25G20G29G14G 4G22
 -14757842.40249 -11499611.33546  22267022.182    22267022.764
 -19701460.71549 -15351780.81447  21342297.882    21342297.882
 -19619705.62649 -15288077.68347  20669486.230    20669486.142
  -4343233.37748  -3384336.59445  23005780.785    23005781.443
   5360837.50848   4177274.14844  24602713.139    24602715.404
  -1271359.91848                  25081166.933
 -19406272.74549 -15121767.75346  21188732.059    21188733.298
 02  1  9  0 43 30.0000000  0  7G 1G25G20G29G14G 4G22
 -14828297.70249 -11554511.53246  22253614.425    22253614.811
 -19645267.90549 -15307994.21547  21352991.249    21352990.935
 -19638943.32849 -15303068.09447  20665825.238    20665824.892
  -4268021.95548  -3325730.32445  23020093.231    23020092.822
   5447971.75948   4245170.85144  24619293.621    24619294.497
  -1311714.07648                  25073488.041
 -19484439.92649 -15182677.22446  21173857.362    21173858.686
 02  1  9  0 44  0.0000000  0  7G 1G25G20G29G14G 4G22
 -14898622.07749 -11609309.71046  22240232.044    22240232.822
 -19588817.26249 -15264006.70947  21363733.006    21363733.149
 -19657598.56449 -15317604.63447  20662275.438    20662275.214
  -4192636.49548  -3266988.42945  23034439.053    23034440.206
   5535199.21948   4313140.23344  24635892.970    24635892.932
  -1351570.84648                  25065903.825
 -19562127.13249 -15243212.68646  21159073.508    21159075.214
 02  1  9  0 44 30.0000000  0  8G 1G25G20G13G29G14G 4G22
 -14968817.76749 -11664007.61646  22226874.945    22226875.249
 -19532113.49849 -15219821.96847  21374523.402    21374523.496
 -19675673.23249 -15331688.78247  20658836.171    20658835.824
         -.74357                  25120730.887
  -4117080.26948  -3208113.45145  23048816.282    23048817.905
   5622516.46548   4381179.55944  24652509.549    24652506.410
  -1390932.39248                  25058413.911
 -19639334.70749 -15303374.41646  21144381.847    21144383.048
 02  1  9  0 45  0.0000000  0  7G 1G25G20G29G14G 4G22
 -15038884.52249 -11718605.04246  22213540.694    22213541.253
 -19475158.42649 -15175441.39747  21385361.932    21385361.702
 -19693166.77149 -15345320.10647  20655506.889    20655506.563
  -4041353.84948  -3149105.87545  23063226.891    23063227.345
   5709922.25348   4449287.87444  24669142.070    24669144.958
  -1429797.90748                  25051017.376
 -19716060.08849 -15363160.40746  21129780.923    21129782.501
 02  1  9  0 45 30.0000000  0  8G 1G25G20G13G29G14G 4G22
 -15108816.64249 -11773097.56746  22200233.255    22200233.982
 -19417948.60949 -15130862.32047  21396248.339    21396248.332
 -19710073.57349 -15358494.23347  20652289.380    20652289.330
        -1.15658                  25085792.670
  -3965453.00548  -3089962.40445  23077670.105    23077670.656
   5797421.26748   4517468.87644  24685792.649    24685791.657
  -1468161.57648                  25043716.624
 -19792295.96349 -15422564.96546  21115274.486    21115275.925
 02  1  9  0 46  0.0000000  0  7G 1G25G20G29G14G 4G22
 -15178623.45949 -11827492.45646  22186949.548    22186949.701
 -19360496.37449 -15086094.34947  21407181.027    21407181.089
 -19726402.50349 -15371218.07047  20649182.241    20649182.042
  -3889387.97048  -3030690.97745  23092144.919    23092145.561
   5885002.71748   4585714.05744  24702458.250    24702461.403
  -1506032.35548                  25036510.819
 -19868049.48349 -15481593.66846  21100858.394    21100859.529
 02  1  9  0 46 30.0000000  0  7G 1G25G20G29G14G 4G22
 -15248280.02749 -11881770.26746  22173693.878    22173694.848
 -19302778.62049 -15041119.48647  21418164.733    21418164.509
 -19742128.54049 -15383472.12147  20646189.842    20646189.599
  -3813134.87648  -2971273.01445  23106655.376    23106655.876
   5972690.56548                  24719145.085
  -1543384.98248                  25029403.330
 -19943293.81249 -15540225.59746  21086540.019    21086541.154
 02  1  9  0 47  0.0000000  0  8G 1G25G20G13G29G14G 4G22
 -15317793.43849 -11935936.51246  22160466.177    22160467.047
 -19244805.21849 -14995945.41247  21429196.469    21429196.606
 -19757258.64249 -15395261.80547  20643310.797    20643310.499
         -.82658                  25033370.511
  -3736702.14448  -2911715.06345  23121200.476    23121202.306
   6060476.32648                  24735850.603
  -1580226.61248  -1231344.94344  25022391.622    25022389.267
 -20018034.28249 -15598464.91346  21072317.794    21072318.512
 02  1  9  0 47 30.0000000  0  8G 1G25G20G13G29G14G 4G22
 -15387187.40749 -11990009.70046  22147261.582    22147261.812
 -19186602.42349 -14950592.59247  21440272.186    21440272.039
 -19771816.41549 -15406605.52347  20640540.655    20640540.429
    -91849.34848                  25015895.200
  -3660114.71548  -2852036.60045  23135773.980    23135774.191
   6148334.87748   4790907.63244  24752569.292    24752572.643
  -1616580.32648  -1259672.53344  25015474.403    25015476.257
 -20092292.64549 -15656328.56046  21058186.704    21058187.738
 02  1  9  0 48  0.0000000  0  7G 1G25G20G29G14G 4G22
 -15456449.32649 -12043979.98346  22134080.245    22134081.174
 -19128159.31449 -14905052.51547  21451393.747    21451393.250
 -19785788.87049 -15417493.14747  20637881.744    20637881.415
  -3583360.91548  -2792228.46145  23150380.057    23150381.913
   6236277.82448   4859434.52044  24769304.818    24769311.368
  -1652433.53848                  25008652.520
 -20166054.44349 -15713805.27046  21044150.029    21044151.013
 02  1  9  0 48 30.0000000  0  7G 1G25G20G29G14G 4G22
 -15525572.62249 -12097842.25546  22120927.189    22120927.491
 -19069472.12449 -14859322.24447  21462561.491    21462561.161
 -19799169.66049 -15427919.73447  20635335.622    20635335.441
  -3506435.31448  -2732286.47245  23165018.365    23165019.971
   6324310.30648   4928031.14244  24786056.264    24786056.694
  -1687779.69248                  25001925.774
 -20239311.28949 -15770888.51146  21030209.902    21030210.949
 02  1  9  0 49  0.0000000  0  8G 1G25G20G13G29G14G 4G22
 -15594563.17949 -12151601.09646  22107799.432    22107800.012
 -19010549.55849 -14813408.56547  21473773.944    21473773.640
 -19811964.84749 -15437890.00847  20632900.651    20632900.278
         -.39958                  24963446.563
  -3429345.39948  -2672216.40445  23179688.145    23179690.284
   6412424.97448   4996691.83744  24802824.071    24802825.516
  -1722624.40148  -1342304.26744  24995295.053    24995297.534
 -20312067.41149 -15827581.57646  21016364.873    21016365.818
 02  1  9  0 49 30.0000000  0  8G 1G25G20G13G29G14G 4G22
 -15663419.81949 -12205255.57646  22094695.183    22094696.164
 -18951392.27549 -14767311.98647  21485031.313    21485030.991
 -19824172.87449 -15447402.75447  20630577.304    20630576.996
    -91892.89548                  24945959.115
  -3352090.72648  -2612018.03245  23194390.045    23194389.149
   6500622.13448   5065416.77444  24819607.943    24819612.220
  -1756966.34048                  24988759.851
 -20384319.63249 -15883881.99246  21002615.058    21002616.652
 02  1  9  0 50  0.0000000  0  8G 1G25G29G20G13G14G 4G22
 -15732137.50149 -12258801.79046  22081618.598    22081619.502
 -18891997.47649 -14721030.33247  21496333.570    21496333.496
  -3274667.42448  -2551688.21145  23209122.412    23209124.171
 -19835788.82249 -15456454.13947  20628366.624    20628366.323
   -183792.54348                  24928471.506
   6588905.26848   5134208.73444  24836408.045    24836410.017
  -1790800.38748                  24982319.934
 -20456061.14649 -15939784.45146  20988963.503    20988964.907
 02  1  9  0 50 30.0000000  0  8G 1G25G29G20G13G14G 4G22
 -15800719.65249 -12312242.38546  22068569.059    22068569.631
 -18832371.54649 -14674568.58047  21507680.045    21507679.813
  -3197080.53348  -2491230.92645  23223886.428    23223887.788
 -19846816.40749 -15465047.05847  20626268.370    20626268.218
   -275703.22648                  24910980.869
   6677269.63048                  24853222.837
  -1824130.17448  -1421399.59144  24975978.814    24975980.984
 -20527293.84249 -15995290.42946  20975408.571    20975409.960
 02  1  9  0 51  0.0000000  0  8G 1G25G29G20G13G14G 4G22
 -15869164.37649 -12365575.90746  22055543.706    22055544.546
 -18772515.02349 -14627927.14447  21519070.422    21519070.269
  -3119329.26248  -2430645.56145  23238682.846    23238683.258
 -19857253.68549 -15473180.00047  20624282.372    20624282.186
   -367623.14048                  24893488.859
   6765715.95148   5271983.03044  24870054.098    24870054.940
  -1856953.54148  -1446976.21744  24969733.021    24969734.365
 -20598013.98349 -16050397.01346  20961950.638    20961951.991
 02  1  9  0 51 30.0000000  0  8G 1G25G29G20G13G14G 4G22
 -15937468.53949 -12418799.89446  22042544.989    22042546.130
 -18712427.32449 -14581105.56947  21530504.685    21530504.774
  -3041411.39448  -2369930.37645  23253509.508    23253510.938
 -19867097.52549 -15480850.52247  20622408.796    20622408.715
   -459549.48648                  24875997.772
   6854246.01848                  24886901.159
  -1889267.33148  -1472155.81744  24963583.254    24963584.933
 -20668216.78149 -16105100.47046  20948591.808    20948593.061
 02  1  9  0 52  0.0000000  0  8G 1G25G29G20G13G14G 4G22
 -16005636.94249 -12471918.09346  22029574.345    22029574.486
 -18652115.44549 -14534109.30647  21541981.467    21541981.498
  -2963333.23348  -2309090.29445  23268367.834    23268367.113
 -19876352.99449 -15488062.57447  20620647.559    20620647.456
   -551487.73748                  24858500.613
   6942853.58448   5410012.18344  24903762.092    24903762.811
  -1921076.60348  -1496942.19344  24957530.582    24957531.107
 -20737905.33149 -16159403.21446  20935330.359    20935331.660
 02  1  9  0 52 30.0000000  0  8G 1G25G29G20G13G14G 4G22
 -16073664.84849 -12524926.82646  22016628.775    22016629.355
 -18591577.10149 -14486936.57347  21553501.661    21553501.867
  -2885091.21948  -2248122.51345  23283256.420    23283257.579
 -19885015.34149 -15494812.45247  20618999.414    20618999.316
   -643433.21648                  24841005.626
   7031542.14248   5479120.02744  24920639.586    24920638.841
  -1952376.59948  -1521331.84444  24951573.538    24951574.473
 -20807073.25449 -16213300.27546  20922168.129    20922169.577
 02  1  9  0 53  0.0000000  0  8G 1G25G29G20G13G14G 4G22
 -16141542.50249 -12577818.46746  22003711.183    22003712.236
 -18530804.73049 -14439581.49147  21565066.275    21565066.051
  -2806676.89148  -2187020.46344  23298177.712    23298179.198
 -19893074.77549 -15501092.52747  20617465.784    20617465.557
   -735376.29048                  24823508.870
   7120320.00648   5548297.40944  24937533.305    24937533.648
  -1983157.60948  -1545317.02344  24945717.123    24945716.887
 -20875709.19149 -16266782.80146  20909107.243    20909108.391
 02  1  9  0 53 30.0000000  0  8G 1G25G29G20G13G14G 4G22
 -16209256.42149 -12630582.53546  21990826.517    21990827.125
 -18469787.71749 -14392035.77647  21576677.441    21576677.467
  -2728078.07348  -2125774.68644  23313135.164    23313137.101
 -19900518.62749 -15506892.92947  20616049.413    20616048.994
   -827303.93248                  24806014.063
   7209199.18648   5617553.77844  24954446.189    24954444.888
  -2013406.54748  -1568887.61944  24939961.601    24939960.173
 -20943798.16049 -16319839.11746  20896150.383    20896151.316
 02  1  9  0 54  0.0000000  0  8G 1G25G29G20G13G14G 4G22
 -16276830.88949 -12683237.95846  21977967.693    21977967.950
 -18408552.54349 -14344320.06747  21588329.908    21588329.870
  -2649320.42148  -2064405.12145  23328122.216    23328124.273
 -19907371.25749 -15512232.63947  20614745.384    20614745.214
   -919240.61848                  24788521.691
   7298154.02048                  24971373.898
  -2043147.51048                  24934301.059
 -21011362.83549 -16372486.89246  20883292.738    20883294.204
 02  1  9  0 54 30.0000000  0  8G 1G25G20G13G29G14G 4G22
 -16344263.95549 -12735783.16946  21965134.721    21965135.228
 -18347099.65349 -14296434.70447  21600024.369    21600024.065
 -19913630.89649 -15517110.28047  20613554.087    20613553.835
  -1011185.04248                  24771022.400
  -2570402.99848  -2002911.05844  23343139.072    23343142.213
   7387185.16148                  24988316.202
  -2072378.80948                  24928738.117
 -21078399.61849 -16424723.32846  20870536.702    20870537.755
 02  1  9  0 55  0.0000000  0  8G 1G25G29G20G13G14G 4G22
 -16411554.45549 -12788217.29046  21952329.809    21952330.609
 -18285430.41149 -14248380.75647  21611759.727    21611759.583
  -2491326.17548  -1941292.81844  23358187.649    23358188.855
 -19919296.92349 -15521525.36347  20612475.718    20612475.527
  -1103136.43048                  24753525.813
   7476292.43748                  25005273.031
  -2101099.74848                  24923272.635
 -21144905.77149 -16476546.28546  20857880.388    20857881.578
 02  1  9  0 55 30.0000000  0  8G 1G25G20G13G29G14G 4G22
 -16478694.11749 -12840533.89246  21939553.868    21939554.431
 -18223539.22849 -14200153.87047  21623537.204    21623536.908
 -19924361.26449 -15525471.60447  20611511.749    20611511.517
  -1195086.20748                  24736028.643
  -2412082.99748  -1879544.92444  23373266.892    23373268.630
   7565482.60348                  25022244.579
  -2129302.11248                  24917906.325
 -21210871.75449 -16527948.32746  20845327.710    20845328.865
 02  1  9  0 56  0.0000000  0  8G 1G25G29G20G13G14G 4G22
 -16545689.61449 -12892738.15546  21926805.099    21926804.940
 -18161435.12749 -14151761.07447  21635355.219    21635354.999
  -2332681.39248  -1817673.57344  23388376.652    23388378.003
 -19928830.92849 -15528954.45847  20610661.348    20610661.197
  -1287041.85748                  24718529.081
   7654747.65948   5964733.71444  25039231.709    25039233.718
  -2156992.80648  -1680772.95644  24912637.968    24912636.308
 -21276302.68249 -16578933.44746  20832876.895    20832877.759
 02  1  9  0 56 30.0000000  0  8G 1G25G20G13G29G14G 4G22
 -16612532.12549 -12944823.20146  21914084.962    21914085.426
 -18099111.82049 -14103197.47247  21647214.819    21647214.839
 -19932697.48949 -15531967.36447  20609925.793    20609925.750
  -1378994.96648                  24701032.858
  -2253113.88248  -1755672.97544  23403517.835    23403518.705
   7744095.10748                  25056234.653
  -2184163.19948  -1701944.70344  24907467.794    24907468.980
 -21341188.22149 -16629493.58647  20820528.980    20820530.337
 02  1  9  0 57  0.0000000  0  8G 1G25G20G13G29G14G 4G22
 -16679221.86449 -12996789.21446  21901394.213    21901394.844
 -18036571.71949 -14054464.93446  21659115.958    21659115.905
 -19935961.44749 -15534510.70947  20609304.520    20609304.463
  -1470945.81548                  24683533.198
  -2173381.82748  -1693544.12444  23418690.772    23418691.378
   7833523.29748                  25073252.022
  -2210813.69148  -1722711.34944  24902395.179    24902397.336
 -21405527.06549 -16679627.72847  20808285.939    20808287.203
 02  1  9  0 57 30.0000000  0  8G 1G25G20G13G29G14G 4G22
 -16745755.21149 -13048633.35546  21888734.006    21888734.366
 -17973813.54349 -14005562.47146  21671058.392    21671058.346
 -19938619.75049 -15536582.11547  20608798.613    20608798.594
  -1562890.48048  -1217836.86444  24666038.613    24666038.061
  -2093482.90648  -1631285.30144  23433894.831    23433895.111
   7923034.55648                  25090285.302
  -2236941.26248                  24897422.015
 -21469314.24749 -16729332.00347  20796147.949    20796148.924
 02  1  9  0 58  0.0000000  0  8G 1G25G20G13G29G14G 4G22
 -16812138.72849 -13100360.75346  21876100.843    21876101.608
 -17910846.67149 -13956497.38546  21683040.553    21683040.668
 -19940679.68949 -15538187.26647  20608406.793    20608406.705
  -1654836.96648                  24648539.992
  -2013425.19848  -1568902.69645  23449129.599    23449128.671
   8012620.53448                  25107333.448
  -2262552.70248                  24892549.904
 -21532555.05149 -16778610.53347  20784113.225    20784114.095
 02  1  9  0 58 30.0000000  0  8G 1G25G20G13G29G14G 4G22
 -16878370.36649 -13151969.79446  21863497.684    21863498.103
 -17847671.42849 -13907269.93046  21695062.356    21695062.206
 -19942139.51449 -15539324.79347  20608128.817    20608128.553
  -1746783.06148                  24631044.202
  -1933208.02448  -1506395.84245  23464394.184    23464396.417
   8102281.93348                  25124395.284
  -2287646.50648  -1782580.99144  24887776.431    24887775.612
 -21595245.98549 -16827460.59347  20772183.566    20772184.593
 02  1  9  0 59  0.0000000  0  8G 1G25G20G13G29G14G 4G22
 -16944445.00149 -13203456.51046  21850924.119    21850924.688
 -17784285.28649 -13857878.14646  21707124.309    21707124.442
 -19942994.92449 -15539991.34947  20607965.913    20607965.963
  -1838723.91548  -1432772.02244  24613547.935    24613550.980
  -1852827.72348  -1443761.92244  23479690.385    23479690.672
   8192022.58048                  25141472.133
  -2312217.95248  -1801727.58544  24883100.437    24883097.657
 -21657380.84649 -16875877.35247  20760360.073    20760360.719
 02  1  9  0 59 30.0000000  0  8G 1G25G20G13G29G14G 4G22
 -17010365.74049 -13254823.30046  21838379.926    21838380.551
 -17720693.40249 -13808326.03646  21719225.758    21719225.437
 -19943249.25049 -15540189.52947  20607917.518    20607917.591
  -1930662.78148                  24596052.426
  -1772288.55748  -1381004.17544  23495016.564    23495015.650
   8281837.87848   6453374.17744  25158564.582    25158564.070
  -2336270.40048  -1820469.72244  24878522.715    24878526.592
 -21718961.06549 -16923861.92047  20748641.293    20748642.368
 02  1  9  1  0  0.0000000  0  8G 1G25G20G13G29G14G 4G22
 -17076128.29749 -13306066.83746  21825865.102    21825865.854
 -17656894.09549 -13758612.30046  21731365.841    21731365.847
 -19942898.81349 -15539916.46647  20607984.232    20607984.182
  -2022595.77748                  24578559.402
  -1691587.58348  -1318120.35844  23510372.815    23510373.047
   8371730.62248                  25175670.278
  -2359800.12348  -1838804.56144  24874042.820    24874045.762
 -21779981.10449 -16971409.98447  20737029.455    20737030.666
 02  1  9  1  0 30.0000000  0  8G 1G25G20G13G29G14G 4G22
 -17141735.13349 -13357189.02546  21813381.328    21813381.315
 -17592892.31249 -13708740.79146  21743545.123    21743545.083
 -19941946.80949 -15539174.65047  20608165.761    20608165.761
  -2114525.56648  -1647682.40244  24561064.424    24561063.163
  -1610728.82648  -1255113.59145  23525759.830    23525760.413
   8461696.99048                  25192789.497
  -2382810.19648                  24869663.663
 -21840442.27549 -17018522.57347  20725524.623    20725525.172
 02  1  9  1  1  0.0000000  0  8G 1G25G20G13G29G14G 4G22
 -17207180.67449 -13408185.53746  21800927.602    21800927.890
 -17528684.91049 -13658709.06146  21755763.584    21755763.341
 -19940388.32849 -15537960.25447  20608462.350    20608462.118
  -2206447.07648  -1719309.48844  24543573.443    24543569.982
  -1529708.02548  -1191980.57644  23541178.244    23541179.822
   8551740.89948   6663687.61544  25209924.994    25209927.759
  -2405295.32648                  24865386.244
 -21900337.78449 -17065194.38047  20714126.540    20714127.684
 02  1  9  1  1 30.0000000  0  8G 1G25G20G13G29G14G 4G22
 -17272460.76649 -13459053.12846  21788504.678    21788505.447
 -17464270.30249 -13608515.86846  21768021.212    21768021.159
 -19938220.03049 -15536270.67647  20608874.895    20608874.815
  -2298356.58248                  24526082.448
  -1448522.46548  -1128719.14644  23556627.220    23556627.723
   8641865.04448                  25227075.431
  -2427252.33448                  24861210.489
 -21959662.29149 -17111421.25647  20702837.485    20702838.519
 02  1  9  1  2  0.0000000  0  8G 1G25G20G13G29G14G 4G22
 -17337573.08149 -13509789.98146  21776114.385    21776114.758
 -17399648.59949 -13558161.31246  21780318.065    21780318.294
 -19935440.22149 -15534104.59747  20609403.710    20609403.641
  -2390251.82448                  24508596.210
  -1367171.22548  -1065328.64344  23572107.822    23572107.877
   8732070.18548                  25244240.036
  -2448678.99048                  24857133.145
 -22018412.30449 -17157200.47247  20691658.025    20691658.667
 02  1  9  1  2 30.0000000  0  8G 1G25G20G13G29G14G 4G22
 -17402527.28849 -13560403.63246  21763754.032    21763754.491
 -17334832.29149 -13507655.10846  21792652.467    21792652.649
 -19932059.49749 -15531470.27447  20610046.869    20610046.686
  -2482142.46048                  24491109.982
  -1285665.65448  -1001817.87944  23587617.914    23587617.851
   8822345.21748                  25261420.145
  -2469585.95648  -1924351.93044  24853153.510    24853152.563
 -22076596.40749 -17202538.71947  20680585.975    20680586.992
 02  1  9  1  3  0.0000000  0  8G 1G25G20G13G29G14G 4G22
 -17467320.81349 -13610892.07946  21751424.387    21751424.544
 -17269820.77949 -13456996.79846  21805023.664    21805023.559
 -19928075.87749 -15528366.15847  20610805.197    20610805.097
  -2574026.91048                  24473623.948
  -1204004.31048   -938185.71644  23603157.923    23603157.809
   8912691.41248                  25278613.036
  -2489971.15148                  24849271.795
 -22134210.80149 -17247433.03847  20669621.989    20669623.539
 02  1  9  1  3 30.0000000  0  8G 1G25G20G13G29G14G 4G22
 -17531953.71449 -13661255.36746  21739124.895    21739125.276
 -17204616.79949 -13406188.51146  21817431.662    21817431.838
 -19923490.28949 -15524792.97847  20611678.034    20611677.863
  -2665905.03748                  24456141.523
  -1122188.90248   -874433.52244  23618726.565    23618726.180
   9003107.08148                  25295817.696
  -2509835.42948                  24845491.310
 -22191254.51649 -17291882.66547  20658766.909    20658767.965
 02  1  9  1  4  0.0000000  0  8G 1G25G20G13G29G14G 4G22
 -17596414.36249 -13711484.43046  21726858.546    21726859.111
 -17139211.12249 -13355223.06046  21829878.204    21829878.026
 -19918292.09449 -15520742.44647  20612667.207    20612666.988
  -2757765.89648  -2148908.20244  24438660.310    24438657.534
  -1040208.99148   -810553.13944  23634326.842    23634327.790
   9093602.10348                  25313038.945
  -2529167.62948                  24841814.677
 -22247714.85549 -17335877.72347  20648022.958    20648023.713
 02  1  9  1  4 30.0000000  0  8G 1G25G20G13G29G14G 4G22
 -17660711.18449 -13761585.83546  21714623.541    21714623.981
 -17073614.57749 -13304108.87346  21842360.268    21842360.687
 -19912490.37849 -15516221.63347  20613771.209    20613771.001
  -2849617.94848  -2220481.14044  24421180.990    24421181.373
   -958074.67948   -746552.44844  23649956.274    23649956.317
   9184166.55148                  25330273.149
  -2547976.99548                  24838236.634
 -22303599.10549 -17379423.87547  20637388.266    20637388.997
 02  1  9  1  5  0.0000000  0  8G 1G25G20G13G29G14G 4G22
 -17724843.31849 -13811558.91346  21702419.393    21702419.653
 -17007828.92849 -13252847.34646  21854879.094    21854878.906
 -19906085.44649 -15511230.78447  20614989.901    20614989.695
  -2941460.80648  -2292046.92744  24403704.074    24403702.849
   -875786.60348   -682431.93244  23665615.513    23665617.001
   9274799.92148                  25347519.947
  -2566263.39048  -1999684.89144  24834757.116    24834755.233
 -22358905.39849 -17422519.67247  20626864.157    20626865.262
 02  1  9  1  5 30.0000000  0  8G 1G25G20G13G29G14G 4G22
 -17788805.60049 -13861399.64546  21690247.563    21690247.825
 -16941851.88049 -13201436.66746  21867434.164    21867434.246
 -19899073.07349 -15505766.60247  20616324.401    20616324.106
  -3033289.59348  -2363601.70344  24386229.861    24386229.721
   -793341.19848   -618188.83444  23681304.553    23681304.856
   9365505.73348                  25364782.221
  -2584022.60548                  24831377.144
 -22413627.89649 -17465160.56147  20616450.787    20616451.759
 02  1  9  1  6  0.0000000  0  8G 1G25G20G13G29G14G 4G22
 -17852587.39349 -13911099.73046  21678110.645    21678110.828
 -16875674.76449 -13149870.09246  21880027.350    21880027.723
 -19891443.50549 -15499821.49047  20617776.184    20617775.829
  -3125093.85248  -2435137.37244  24368759.834    24368757.389
   -710729.04448   -553815.81644  23697024.121    23697029.088
   9456293.12048                  25382057.208
  -2601244.75648                  24828097.890
 -22467754.87649 -17507337.41247  20606150.072    20606151.302
 02  1  9  1  6 30.0000000  0  8G 1G25G20G13G29G14G 4G22
 -17916201.97549 -13960669.52246  21666005.060    21666005.096
 -16809313.39549 -13098159.94746  21892655.619    21892655.816
 -19883211.03049 -15493406.57847  20619342.733    20619342.603
  -3216887.19848  -2506664.63144  24351291.583    24351294.009
   -627965.26748   -489324.64444  23712774.516    23712775.557
   9547147.23248                  25399347.048
  -2617943.97548                  24824919.708
 -22521298.60649 -17549059.78347  20595961.604    20595962.243
 02  1  9  1  7  0.0000000  0  8G 1G25G20G13G29G14G 4G22
 -17979644.18749 -14010105.00246  21653932.064    21653932.498
 -16742765.20749 -13046304.22746  21905319.217    21905319.070
 -19874371.42449 -15486518.58147  20621025.211    20621024.818
  -3308664.64548  -2578179.38644  24333826.959    24333826.709
   -545046.03448   -424712.33044  23728553.159    23728555.139
   9638071.61748                  25416650.139
  -2634115.87448  -2052556.92544  24821842.587    24821842.108
 -22574253.04949 -17590322.96847  20585884.771    20585885.409
 02  1  9  1  7 30.0000000  0  8G 1G25G20G13G29G14G 4G22
 -18042904.04049 -14059398.38646  21641894.890    21641894.725
 -16676022.44849 -12994296.89146  21918019.874    21918019.846
 -19864915.89449 -15479150.64247  20622824.277    20622823.953
  -3400416.11448  -2649673.96544  24316367.436    24316368.035
   -461962.78248   -359972.20844  23744362.798    23744367.553
   9729074.46748                  25433967.011
  -2649751.22148                  24818868.807
 -22626607.33049 -17631118.49647  20575922.036    20575922.664
 02  1  9  1  8  0.0000000  0  8G 1G25G20G13G29G14G 4G22
 -18105995.45249 -14108560.51446  21629888.774    21629888.785
 -16609101.97049 -12942151.07346  21930754.549    21930754.866
 -19854859.55649 -15471314.54147  20624737.855    20624737.543
  -3492156.79248  -2721160.05344  24298909.559    24298909.760
   -378731.18348   -295116.55344  23760202.373    23760203.665
   9820140.54148                  25451296.707
  -2664865.05848  -2076517.27744  24815993.012    24815992.901
 -22678374.67249 -17671456.67147  20566071.071    20566071.991
 02  1  9  1  8 30.0000000  0  8G 1G25G20G13G29G14G 4G22
 -18168913.22649 -14157587.33946  21617914.964    21617915.608
 -16542001.20649 -12889864.77446  21943522.893    21943522.967
 -19844198.20749 -15463007.00447  20626766.986    20626766.656
  -3583881.36448  -2792633.68244  24281454.909    24281453.580
   -295347.49248   -230142.31644  23776069.841    23776068.753
   9911273.23548                  25468639.851
  -2679453.28548  -2087884.68744  24813217.405    24813215.617
 -22729549.10449 -17711332.83647  20556333.045    20556333.556
 02  1  9  1  9  0.0000000  0  8G 1G25G20G13G29G14G 4G22
 -18231656.02349 -14206477.82246  21605975.747    21605976.131
 -16474721.01549 -12837438.66446  21956326.079    21956325.899
 -19832931.69949 -15454227.91147  20628910.950    20628910.784
  -3675589.01248  -2864094.05544  24264003.645    24264003.158
   -211812.05848   -165049.82844  23791966.109    23791968.190
  10002472.40148                  25485993.562
  -2693515.41748                  24810541.169
 -22780128.48249 -17750745.32847  20546708.592    20546708.909
 02  1  9  1  9 30.0000000  0  8G 1G25G20G13G29G14G 4G22
 -18294216.97049 -14255226.60046  21594071.450    21594071.740
 -16407256.88049 -12784869.21946  21969164.273    21969164.502
 -19821054.46649 -15444972.93147  20631170.898    20631170.769
  -3767272.92448  -2935535.97744  24246556.648    24246557.457
   -128119.50548    -99834.96544  23807892.725    23807895.589
  10093743.32048                  25503362.002
  -2707045.64748                  24807965.953
 -22830105.17449 -17789688.19247  20537197.842    20537198.422
 02  1  9  1 10  0.0000000  0  8G 1G25G20G13G29G14G 4G22
 -18356597.15249 -14303834.53046  21582200.361    21582200.615
 -16339612.34449 -12732159.20546  21982036.393    21982036.314
 -19808568.92749 -15435243.95047  20633546.878    20633546.653
  -3858934.35448  -3006960.36744  24229113.231    24229114.751
    -44272.59848    -34499.80944  23823847.425    23823849.988
  10185083.15648                  25520744.125
  -2720046.18148  -2119515.47144  24805490.789    24805489.189
 -22879479.52249 -17828161.69947  20527801.883    20527802.792
 02  1  9  1 10 30.0000000  0  7G 1G25G20G13G29G 4G22
 -18418790.92849 -14352297.20446  21570365.251    21570365.446
 -16271784.02149 -12679305.98246  21994944.203    21994944.324
 -19795470.50849 -15425037.39547  20636039.513    20636039.243
  -3950567.96948  -3078363.09344  24211677.161    24211679.978
     39732.91448     30958.93444  23839833.868    23839834.836
  -2732512.01848                  24803118.753
 -22928245.04749 -17866160.79447  20518522.390    20518522.969
 02  1  9  1 11  0.0000000  0  7G 1G25G20G13G29G 4G22
 -18480805.17749 -14400619.98746  21558564.737    21558564.800
 -16203781.60049 -12626317.08946  22007884.576    22007884.531
 -19781767.25549 -15414359.54147  20638647.191    20638647.053
  -4042181.29748  -3149749.98444  24194242.616    24194245.476
    123888.42648     96534.54144  23855848.567    23855851.744
  -2744451.36048                  24800846.712
 -22976407.66649 -17903690.09547  20509356.965    20509357.817
 02  1  9  1 11 30.0000000  0  7G 1G25G20G13G29G 4G22
 -18542636.35349 -14448800.11346  21546798.398    21546798.257
 -16135604.23049 -12573191.87746  22020858.073    22020857.732
 -19767456.97849 -15403208.68447  20641370.247    20641370.141
  -4133770.66948  -3221118.26444  24176814.482    24176813.170
    208196.08248    162228.73644  23871891.938    23871893.572
  -2755861.90648  -2147423.73144  24798676.389    24798680.700
 -23023963.84349 -17940746.84647  20500307.770    20500308.645
 02  1  9  1 12  0.0000000  0  7G 1G25G20G13G29G 4G22
 -18604269.29349 -14496825.77346  21535070.386    21535070.231
 -16067239.15949 -12519920.39846  22033867.780    22033868.114
 -19752525.85249 -15391574.04847  20644211.374    20644211.138
  -4225321.32548  -3292456.37144  24159391.874    24159390.325
    292669.24848    228051.85544  23887967.258    23887967.552
  -2766729.46048                  24796608.333
 -23070897.66949 -17977318.64047  20491376.274    20491376.942
 02  1  9  1 12 30.0000000  0  7G 1G25G20G13G29G 4G22
 -18665718.47949 -14544708.24546  21523376.287    21523376.567
 -15998703.11149 -12466515.70546  22046909.688    22046909.314
 -19736989.86949 -15379468.09647  20647167.778    20647167.448
  -4316848.13048  -3363775.89144  24141975.971    24141976.854
    377291.79548    293991.38344  23904069.329    23904071.014
  -2777069.71748  -2163949.18444  24794641.161    24794640.911
 -23117223.14449 -18013416.40147  20482560.828    20482561.530
 02  1  9  1 13  0.0000000  0  7G 1G25G20G13G29G 4G22
 -18727011.23949 -14592468.82946  21511713.051    21511713.143
 -15930025.80849 -12413000.93546  22059978.406    22059978.532
 -19720877.57149 -15366913.06547  20650234.234    20650233.834
  -4408378.33348  -3435098.01744  24124558.139    24124557.834
    462035.11348    360025.02244  23920196.137    23920198.166
  -2786911.17548                  24792768.257
 -23162966.66849 -18049060.68747  20473856.099    20473856.626
 02  1  9  1 13 30.0000000  0  7G 1G25G20G13G29G 4G22
 -18788122.53649 -14640088.01146  21500084.074    21500084.004
 -15861184.66849 -12359358.50446  22073078.526    22073078.330
 -19704165.39349 -15353890.59947  20653414.685    20653414.314
  -4499887.50548  -3506403.78144  24107143.602    24107143.305
    546922.24148    426170.75144  23936349.300    23936350.828
  -2796230.06248                  24790994.942
 -23208102.84949 -18084231.72647  20465266.838    20465267.812
 02  1  9  1 14  0.0000000  0  7G 1G25G20G13G29G 4G22
 -18849047.73849 -14687562.18846  21488490.301    21488490.312
 -15792177.63949 -12305586.80946  22086210.261    22086209.821
 -19686850.37849 -15340398.38547  20656709.434    20656709.166
  -4591371.28448  -3577689.79144  24089736.279    24089736.448
    631956.26348    492430.90444  23952530.930    23952531.504
  -2805022.89848  -2185730.84544  24789321.379    24789318.787
 -23252626.52249 -18118925.48347  20456794.166    20456794.999
 02  1  9  1 14 30.0000000  0  7G 1G25G20G13G29G 4G22
 -18909779.42649 -14734885.57646  21476933.100    21476933.459
 -15723000.05149 -12251682.21346  22099374.321    22099374.133
 -19668926.44249 -15326431.69147  20660119.940    20660119.596
  -4682822.09648  -3648950.08044  24072332.658    24072334.962
    717142.91748    558809.99644  23968741.754    23968743.604
  -2813283.75948                  24787747.858
 -23296529.80149 -18153135.81347  20448440.026    20448440.922
 02  1  9  1 15  0.0000000  0  7G 1G25G20G13G29G 4G22
 -18970315.26849 -14782056.35446  21465413.692    21465413.906
 -15653652.05849 -12197644.82946  22112570.446    22112570.279
 -19650392.64549 -15311989.78147  20663646.513    20663646.401
  -4774238.40448  -3720183.48044  24054936.905    24054934.204
    802482.97448    625308.59544  23984981.032    23984981.538
  -2821011.61548                  24786276.989
 -23339810.20449 -18186860.78747  20440203.904    20440204.593
 02  1  9  1 15 30.0000000  0  7G 1G25G20G13G29G 4G22
 -19030667.28749 -14829083.89746  21453929.409    21453929.795
 -15584148.21149 -12143486.00246  22125796.893    22125796.387
 -19631262.84449 -15297083.45147  20667287.065    20667286.763
  -4865632.24048  -3791399.41644  24037544.716    24037543.222
    887962.54948    691915.91044  24001247.635    24001247.136
  -2828219.73048                  24784904.719
 -23382479.30349 -18220109.41947  20432084.267    20432085.130
 02  1  9  1 16  0.0000000  0  7G 1G25G20G13G29G 4G22
 -19090824.81649 -14875959.88746  21442481.486    21442481.728
 -15514480.01849 -12089199.11846  22139054.502    22139054.055
 -19611527.83549 -15281705.53247  20671042.705    20671042.343
  -4956993.12248  -3862589.63744  24020158.966    24020158.093
    973590.70248    758639.02744  24017542.566    24017542.154
  -2834898.82348                  24783634.779
 -23424525.73849 -18252872.86047  20424082.991    20424083.687
 02  1  9  1 16 30.0000000  0  7G 1G25G20G13G29G 4G22
 -19150773.74349 -14922673.33046  21431073.619    21431073.840
 -15444636.03849 -12034775.25146  22152345.087    22152345.104
 -19591175.17149 -15265846.32247  20674915.591    20674915.584
  -5048307.42848  -3933743.52444  24002783.147    24002785.483
   1059379.77148    825487.52644  24033867.480    24033870.715
  -2841036.16348                  24782466.806
 -23465935.49049 -18285140.18447  20416202.791    20416203.698
 02  1  9  1 17  0.0000000  0  8G 1G25G20G13G29G 6G 4G22
 -19210542.91549 -14969246.70846  21419700.146    21419700.543
 -15374647.62449 -11980238.84546  22165663.557    22165663.646
 -19570235.30249 -15249529.54947  20678900.426    20678900.424
  -5139604.41348  -4004883.93844  23985409.010    23985409.582
   1145299.22748    892437.57344  24050217.496    24050218.686
         -.95558                  25536136.729
  -2846662.17348                  24781396.983
 -23506736.79749 -18316933.39747  20408438.704    20408439.471
 02  1  9  1 17 30.0000000  0  8G 1G25G20G13G29G 6G 4G22
 -19270127.40349 -15015676.17346  21408360.902    21408361.298
 -15304512.18049 -11925587.86846  22179010.064    22179009.947
 -19548705.15749 -15232752.82247  20682997.434    20682997.205
  -5230879.34648  -4076007.17644  23968040.915    23968037.354
   1231352.21148    959491.73044  24066593.014    24066596.135
    -11135.31048                  25534017.720
  -2851773.31548                  24780424.086
 -23546925.03349 -18348248.89447  20400791.208    20400791.915
 02  1  9  1 18  0.0000000  0  8G 1G25G20G13G29G 6G 4G22
 -19329498.70449 -15061939.52246  21397063.558    21397063.784
 -15234203.66649 -11870802.02946  22192389.401    22192389.085
 -19526557.94849 -15215495.26847  20687211.882    20687211.758
  -5322104.03748  -4147091.24044  23950680.322    23950681.514
   1317565.32348   1026670.64944  24082998.573    24083002.915
    -21792.75548                  25531989.666
  -2856342.69448                  24779554.625
 -23586471.24749 -18379064.11647  20393265.629    20393266.279
 02  1  9  1 18 30.0000000  0  8G 1G25G20G13G29G 6G 4G22
 -19388654.78649 -15108035.16847  21385806.228    21385806.649
 -15163722.69949 -11815881.81146  22205801.334    22205801.067
 -19503793.31649 -15197756.60447  20691543.777    20691543.768
  -5413276.46848  -4218134.63244  23933331.218    23933330.378
   1403938.96648   1093974.61644  24099435.395    24099438.314
    -31971.49148                  25530052.865
  -2860369.63948                  24778788.974
 -23625373.22049 -18409377.33147  20385862.897    20385863.731
 02  1  9  1 19  0.0000000  0  8G 1G25G20G13G29G 6G 4G22
 -19447589.85149 -15153958.59146  21374591.141    21374591.369
 -15093066.22749 -11760824.84346  22219246.804    22219246.460
 -19480407.16449 -15179533.63947  20695993.975    20695993.757
  -5504391.10548  -4289132.99144  23915992.777    23915993.380
   1490477.47148   1161407.09244  24115902.876    24115905.788
    -41665.94548                  25528207.952
  -2863849.93348                  24778126.881
 -23663624.76349 -18439183.71547  20378584.233    20378585.000
 02  1  9  1 19 30.0000000  0  8G 1G25G20G13G29G 6G 4G22
 -19506338.72849 -15199736.93247  21363412.040    21363412.300
 -15022271.06349 -11705659.79546  22232718.825    22232718.449
 -19456436.14449 -15160854.92747  20700555.614    20700555.392
  -5595483.10948  -4360113.65144  23898657.690    23898657.097
   1577144.06548   1228939.30544  24132395.181    24132394.819
    -50911.44648                  25526448.851
  -2866819.91648                  24777562.344
 -23701260.71249 -18468510.41947  20371422.064    20371422.910
 02  1  9  1 20  0.0000000  0  8G 1G25G20G13G29G 6G 4G22
 -19564880.79749 -15245354.12647  21352271.686    21352272.070
 -14951319.21449 -11650372.66046  22246220.287    22246220.471
 -19431861.56449 -15141705.91647  20705231.868    20705231.698
  -5686532.23148  -4431060.96344  23881332.727    23881330.368
   1663957.49448   1296585.98244  24148915.192    24148917.426
    -59687.90948                  25524778.741
  -2869260.62948                  24777096.360
 -23738260.22949 -18497341.20247  20364381.067    20364381.855
 02  1  9  1 20 30.0000000  0  8G 1G25G20G13G29G 6G 4G22
 -19623222.45949 -15290815.15447  21341169.499    21341169.891
 -14880219.45649 -11594970.26746  22259750.441    22259750.502
 -19406691.73249 -15122093.07147  20710021.704    20710021.517
  -5777545.24348  -4501980.10544  23864011.831    23864011.225
   1750909.69848   1364340.78944  24165462.116    24165465.367
    -68002.04547                  25523196.315
  -2871180.12848  -2237281.68644  24776732.762    24776735.807
 -23774629.81049 -18525681.12247  20357460.240    20357461.035
 02  1  9  1 21  0.0000000  0  8G 1G25G20G13G29G 6G 4G22
 -19681358.17449 -15336115.71347  21330106.768    21330106.865
 -14808969.34149 -11539450.71146  22273309.021    22273308.438
 -19380922.90749 -15102013.47947  20714925.497    20714925.292
  -5868516.56948  -4572866.79044  23846702.070    23846700.468
   1838004.32348   1432206.60644  24182035.319    24182038.443
    -75848.56947                  25521703.326
  -2872574.52248  -2238367.39044  24776465.437    24776465.098
 -23810363.80849 -18553525.78647  20350660.091    20350660.832
 02  1  9  1 21 30.0000000  0  8G 1G25G20G13G29G 6G 4G22
 -19739293.73349 -15381260.29847  21319081.587    21319081.914
 -14737576.60849 -11483820.04046  22286894.196    22286894.366
 -19354562.84349 -15081473.18047  20719941.751    20719941.606
  -5959452.50648  -4643725.89544  23829396.757    23829397.167
   1925233.80548   1500177.41444  24198635.036    24198637.838
    -83233.87347                  25520297.953
  -2873451.34948                  24776298.607
 -23845468.00549 -18580879.69847  20343980.313    20343980.832
 02  1  9  1 22  0.0000000  0  8G 1G25G20G13G29G 6G 4G22
 -19797024.31049 -15426245.16147  21308096.001    21308096.176
 -14666039.35649 -11428076.74646  22300507.430    22300507.032
 -19327608.55349 -15060469.85047  20725070.923    20725070.571
  -6050348.28148  -4714553.68744  23812100.069    23812098.430
   2012600.97848   1568255.58844  24215261.089    24215263.538
    -90153.60447    -70249.93744  25518981.080    25518980.006
  -2873807.29948                  24776229.448
 -23879937.57449 -18607739.09147  20337421.089    20337421.815
 02  1  9  1 22 30.0000000  0  8G 1G25G20G13G29G 6G 4G22
 -19854547.26949 -15471068.24247  21297150.111    21297150.404
 -14594356.72249 -11372220.16746  22314148.435    22314148.504
 -19300059.41249 -15039002.99847  20730313.165    20730312.774
  -6141201.34548  -4785348.20544  23794810.952    23794811.653
   2100107.21248   1636442.08844  24231912.095    24231914.479
    -96605.45047                  25517753.041
  -2873641.40648  -2239198.71044  24776261.249    24776263.271
 -23913769.93149 -18634101.95747  20330983.037    20330983.526
 02  1  9  1 23  0.0000000  0  8G 1G25G20G13G29G 6G 4G22
 -19911852.76349 -15515721.86747  21286245.326    21286245.635
 -14522521.83149 -11316244.94746  22327818.128    22327817.775
 -19271907.58849 -15017066.52447  20735670.578    20735670.247
  -6232002.27648  -4856102.11144  23777532.435    23777532.718
   2187760.15948                  24248593.008
   -102580.27447                  25516616.087
  -2872945.79948                  24776393.662
 -23946955.21549 -18659960.61047  20324667.999    20324668.560
 02  1  9  1 23 30.0000000  0  8G 1G25G20G13G29G 6G 4G22
 -19968944.66949 -15560209.06247  21275380.787    21275381.106
 -14450540.95249 -11260155.97746  22341515.469    22341515.176
 -19243159.06749 -14994665.09447  20741141.155    20741140.945
  -6322755.24548  -4926818.64044  23760262.994    23760261.319
   2275554.11648   1773153.56544  24265299.343    24265302.440
   -108082.63147                  25515569.163
  -2871726.12048                  24776626.054
 -23979497.62149 -18685318.32147  20318475.307    20318475.896
 02  1  9  1 24  0.0000000  0  8G 1G25G20G13G29G 6G 4G22
 -20025826.50249 -15604532.56147  21264556.779    21264557.069
 -14378419.80649 -11203957.70446  22355239.360    22355239.046
 -19213819.37649 -14971803.00947  20746724.383    20746724.182
  -6413463.85348  -4997500.60344  23743000.697    23743003.816
   2363483.65848                  24282031.833
   -113116.55747                  25514611.350
  -2869987.60748                  24776957.279
 -24011400.87349 -18710177.99047  20312404.292    20312404.908
 02  1  9  1 24 30.0000000  0  8G 1G25G20G13G29G 6G 4G22
 -20082487.93049 -15648684.31647  21253774.308    21253774.590
 -14306150.93549 -11147644.32646  22368992.367    22368992.300
 -19183880.34249 -14948473.90347  20752421.382    20752421.068
  -6504117.93248  -5068140.08445  23725750.753    23725750.708
   2451557.39248   1910298.59744  24298792.690    24298794.410
   -117672.14747                  25513744.696
  -2867721.75248                  24777386.974
 -24042654.49549 -18734531.45547  20306456.740    20306457.277
 02  1  9  1 25  0.0000000  0  8G 1G25G20G13G29G 6G 4G22
 -20138930.28749 -15692665.36847  21243033.477    21243033.832
 -14233738.06149 -11091218.73246  22382771.859    22382771.829
 -19153345.40049 -14924680.45447  20758231.855    20758231.823
  -6594719.42548  -5138738.57144  23708509.524    23708506.396
   2539772.09748                  24315578.527
   -121751.48848                  25512968.294
  -2864931.67848                  24777919.463
 -24073260.21949 -18758380.06147  20300632.652    20300633.264
 02  1  9  1 25 30.0000000  0  8G 1G25G20G13G29G 6G 4G22
 -20195169.22349 -15736487.91047  21232331.933    21232332.062
 -14161199.29149 -11034695.05146  22396575.095    22396574.974
 -19122232.38649 -14900436.56047  20764152.661    20764152.371
  -6685283.88248  -5209308.06745  23691275.528    23691275.107
   2628110.20848                  24332389.406
   -125371.01948                  25512279.777
  -2861635.20848                  24778547.413
 -24103234.05949 -18781736.29047  20294929.037    20294929.687
 02  1  9  1 26  0.0000000  0  8G 1G25G20G13G29G 6G 4G22
 -20251194.80549 -15780144.20147  21221670.271    21221670.276
 -14088527.09749 -10978067.39546  22410404.770    22410404.704
 -19090533.51449 -14875736.15347  20770184.793    20770184.653
  -6775801.86648  -5279841.57844  23674050.256    23674051.709
   2716579.61548                  24349224.434
   -128521.40948                  25511680.151
  -2857824.16748                  24779272.994
 -24132566.31449 -18804592.58647  20289347.200    20289347.750
 02  1  9  1 26 30.0000000  0  8G 1G25G20G13G29G 6G 4G22
 -20306978.34649 -15823611.89247  21211055.157    21211055.503
 -14015695.24249 -10921315.32646  22424263.868    22424264.126
 -19058222.35649 -14850558.63947  20776332.978    20776332.813
  -6866244.74448  -5350316.52444  23656839.346    23656839.051
   2805207.45648                  24366089.294
   -131174.46348                  25511175.079
  -2853472.04048  -2223482.17244  24780100.982    24780104.180
 -24161228.62149 -18826926.84347  20283892.823    20283893.424
 02  1  9  1 27  0.0000000  0  8G 1G25G20G13G29G 6G 4G22
 -20362536.44349 -15866903.90847  21200483.047    21200483.331
 -13942722.78349 -10864453.70046  22438149.882    22438150.121
 -19025317.85349 -14824918.78447  20782594.663    20782594.707
  -6956629.12448  -5420745.89044  23639640.664    23639636.783
   2893974.90448                  24382982.838
   -133347.54948                  25510761.520
  -2848597.10348  -2219683.53444  24781029.744    24781031.629
 -24189237.91449 -18848752.25747  20278562.980    20278563.613
 02  1  9  1 27 30.0000000  0  8G 1G25G20G13G29G 6G 4G22
 -20417886.47349 -15910033.79547  21189950.124    21189950.353
 -13869629.43549 -10807497.87646  22452059.701    22452059.648
 -18991839.55749 -14798831.81447  20788965.957    20788965.880
  -7046972.69848  -5491143.37344  23622447.275    23622448.031
   2982863.00248                  24399897.642
   -135058.77448                  25510436.178
  -2843218.83948  -2215492.64644  24782053.818    24782057.627
 -24216611.95849 -18870082.67647  20273353.891    20273354.393
 02  1  9  1 28  0.0000000  0  8G 1G25G20G13G29G 6G 4G22
 -20473028.25649 -15953001.41647  21179456.736    21179457.031
 -13796417.55649 -10750449.69046  22465991.063    22465991.526
 -18957789.55049 -14772299.35547  20795444.944    20795444.794
  -7137275.76248  -5561509.38744  23605264.773    23605262.738
   3071869.79448                  24416834.778
   -136308.77248                  25510198.264
  -2837339.08748  -2210911.03244  24783172.051    24783169.156
 -24243351.07749 -18890918.34847  20268265.381    20268265.892
 02  1  9  1 28 30.0000000  0  8G 1G25G20G13G29G 6G 4G22
 -20527944.14849 -15995793.01547  21169006.642    21169007.209
 -13723072.18349 -10693297.48446  22479948.181    22479948.483
 -18923152.49249 -14745309.45547  20802036.095    20802036.141
  -7227520.87148  -5631830.18344  23588090.513    23588088.540
   3161010.94348                  24433799.289
   -137080.72748   -106817.80544  25510051.360    25510055.745
  -2830942.15648  -2205926.37444  24784389.475    24784390.116
 -24269437.91549 -18911245.75047  20263301.466    20263302.028
 02  1  9  1 29  0.0000000  0  8G 1G25G20G13G29G 6G 4G22
 -20582634.64049 -16038408.98447  21158599.464    21158599.895
 -13649596.35649 -10636043.63246  22493930.353    22493930.712
 -18887931.40249 -14717864.46247  20808738.888    20808739.005
  -7317708.66948  -5702106.35644  23570928.776    23570928.364
   3249822.95447                  24450782.694
   -137376.01748   -107047.96044  25509995.054    25509996.719
  -2824030.99448  -2200541.04244  24785704.664    24785704.990
 -24294873.59749 -18931065.75447  20258461.225    20258461.730
 02  1  9  1 29 30.0000000  0  7G 1G25G13G20G 6G 4G22
 -20637089.75049 -16080841.53247  21148236.831    21148237.275
 -13575982.19049 -10578681.97346  22507938.531    22507938.967
  -7407828.89148  -5772329.87244  23553779.527    23553777.151
 -18852118.30249 -14689958.16647  20815554.110    20815553.962
   -137185.27548                  25510031.530
  -2816597.42248  -2194748.66744  24787119.441    24787119.285
 -24319648.44149 -18950370.82247  20253746.471    20253747.046
 02  1  9  1 30  0.0000000  0  7G 1G25G20G13G 6G 4G22
 -20691307.39449 -16123089.04547  21137919.799    21137920.276
 -13502230.26549 -10521212.97946  22521973.255    22521973.729
 -18815713.87649 -14661591.09647  20822481.223    20822481.409
  -7497880.20048  -5842499.67944  23536642.591    23536641.747
   -136507.63748                  25510160.470
  -2808641.43848  -2188549.16344  24788633.150    24788631.629
 -24343761.19749 -18969159.97747  20249157.915    20249158.432
 02  1  9  1 30 30.0000000  0  8G 1G25G20G13G29G 6G 4G22
 -20745303.29249 -16165163.77147  21127644.472    21127644.795
 -13428358.57649 -10463650.65546  22536030.424    22536030.602
 -18778736.21549 -14632777.35047  20829517.586    20829517.874
  -7587878.37348  -5912628.08045  23519517.790    23519516.339
          .08158                  24501907.719
   -135359.65948                  25510378.952
  -2800181.04948  -2181956.67644  24790243.675    24790240.625
 -24367227.97349 -18987445.77147  20244692.431    20244692.996
 02  1  9  1 31  0.0000000  0  8G 1G25G20G13G29G 6G 4G22
 -20799068.62049 -16207058.82847  21117413.469    21117413.796
 -13354360.81549 -10405990.10346  22550111.497    22550111.669
 -18741179.04849 -14603512.04247  20836664.777    20836664.443
  -7677814.85848  -5982708.42244  23502401.975    23502401.358
     89805.39648                  24518997.944
   -133733.43648                  25510688.621
  -2791209.63048  -2174965.96944  24791951.461    24791948.680
 -24390040.67749 -19005221.89847  20240351.566    20240352.021
 02  1  9  1 31 30.0000000  0  8G 1G25G20G13G29G 6G 4G22
 -20852594.21249 -16248767.08147  21107227.832    21107228.243
 -13280230.67749 -10348226.39746  22564218.390    22564218.768
 -18703035.58549 -14573789.87647  20843923.056    20843923.052
  -7767680.70248  -6052733.72845  23485302.342    23485301.893
    179747.15448                  24536111.989
   -131620.72348                  25511090.646
  -2781720.22048  -2167571.62044  24793757.140    24793751.975
 -24412190.83749 -19022481.75747  20236136.347    20236136.798
 02  1  9  1 32  0.0000000  0  8G 1G25G20G13G29G 6G 4G22
 -20905891.31749 -16290297.29647  21097085.845    21097086.109
 -13205981.45149 -10290369.89946  22578347.433    22578347.996
 -18664319.57749 -14543621.57447  20851290.275    20851290.167
  -7857487.09348  -6122712.67745  23468212.213    23468209.802
    269812.30348                  24553251.690
   -129033.70548                  25511582.700
  -2771726.39848  -2159784.22844  24795658.297    24795655.245
 -24433690.15749 -19039234.46747  20232045.334    20232045.798
 02  1  9  1 32 30.0000000  0  8G 1G25G20G13G29G 6G 4G22
 -20958964.50649 -16331653.02747  21086986.288    21086986.628
 -13131620.29949 -10232426.17646  22592498.007    22592498.311
 -18625038.29349 -14513012.79847  20858765.917    20858765.769
  -7947238.89448  -6192649.09845  23451133.058    23451131.404
    359994.14248                  24570413.404
   -125977.87248                  25512164.430
  -2761234.76348  -2151608.91944  24797654.860    24797653.383
 -24454544.03349 -19055484.23747  20228077.045    20228077.513
 02  1  9  1 33  0.0000000  0  8G 1G25G20G13G29G 6G 4G22
 -21011798.88149 -16372822.66747  21076932.355    21076932.682
 -13057134.41749 -10174385.27646  22606672.202    22606673.155
 -18585179.47149 -14481953.99547  20866350.570    20866350.513
  -8036921.14848  -6262531.34145  23434067.399    23434064.905
    450305.47248                  24587598.280
   -122439.33248                  25512837.828
  -2750232.85948  -2143035.99244  24799748.979    24799748.652
 -24474738.31749 -19071220.03947  20224234.130    20224234.666
 02  1  9  1 33 30.0000000  0  8G 1G25G20G13G29G 6G 4G22
 -21064383.90449 -16413798.01047  21066925.394    21066925.813
 -12982516.03549 -10116241.12746  22620871.788    22620871.988
 -18544735.00549 -14450438.84447  20874046.499    20874046.757
  -8126523.67648  -6332351.41945  23417015.737    23417014.848
    540755.03848                  24604811.239
   -118408.61248                  25513604.732
  -2738712.44148  -2134059.08844  24801941.362    24801938.194
 -24494263.19249 -19086434.22347  20220518.434    20220518.946
 02  1  9  1 34  0.0000000  0  8G 1G25G20G13G29G 6G 4G22
 -21116725.86849 -16454583.95647  21056964.986    21056965.479
 -12907773.92849 -10058000.57246  22635095.005    22635094.961
 -18503713.73049 -14418474.23047  20881853.066    20881853.074
  -8216052.90948  -6402114.44545  23399979.890    23399976.717
    631334.46348                  24622048.321
   -113893.03648                  25514464.160
  -2726682.12448  -2124684.83544  24804229.739    24804226.995
 -24513125.81749 -19101132.36747  20216929.182    20216929.697
 02  1  9  1 34 30.0000000  0  8G 1G25G20G13G29G 6G 4G22
 -21168830.69149 -16495185.11847  21047050.338    21047050.633
 -12832916.28649  -9999669.97746  22649340.305    22649340.192
 -18462124.15949 -14386066.79347  20889767.341    20889766.938
  -8305515.12648  -6471825.21145  23382954.730    23382953.748
    722035.77748                  24639308.125
   -108899.55048                  25515414.270
  -2714150.11648  -2114919.59044  24806614.686    24806616.069
 -24531333.02349 -19115319.79247  20213464.399    20213465.010
 02  1  9  1 35  0.0000000  0  8G 1G25G20G13G29G 6G 4G22
 -21220686.71049 -16535592.40847  21037182.190    21037182.511
 -12757934.29249  -9941242.49746  22663608.779    22663608.928
 -18419957.60349 -14353209.75547  20897791.106    20897791.119
  -8394899.01048  -6541474.93345  23365946.615    23365944.860
    812868.53448                  24656593.450
   -103417.69148                  25516457.280
  -2701107.13648  -2104756.18744  24809096.613    24809094.795
 -24548873.92249 -19128988.02147  20210126.363    20210126.955
 02  1  9  1 35 30.0000000  0  7G 1G25G13G20G 6G 4G22
 -21272303.23949 -16575813.08347  21027359.626    21027359.961
 -12682839.26549  -9882726.94246  22677898.688    22677898.720
  -8484213.57248  -6611070.67545  23348949.603    23348948.603
 -18377226.20649 -14319912.58147  20905922.836    20905922.626
    -97457.95248                  25517591.651
  -2687565.12448  -2094203.98544  24811673.689    24811672.716
 -24565758.81449 -19142145.07647  20206913.495    20206914.065
 02  1  9  1 36  0.0000000  0  7G 1G25G13G20G 6G 4G22
 -21323657.74149 -16615829.58147  21017587.207    21017587.541
 -12607611.50849  -9824107.96346  22692213.880    22692214.181
  -8573437.00548  -6680595.37545  23331971.451    23331970.390
 -18333910.17549 -14286159.85047  20914165.729    20914165.666
    -90999.13947                  25518820.618
  -2673504.13648  -2083247.34544  24814349.228    24814348.745
 -24581966.36749 -19154774.33547  20203829.339    20203829.879
 02  1  9  1 36 30.0000000  0  7G 1G25G13G20G 6G 4G22
 -21374767.90449 -16655655.68747  21007861.229    21007861.651
 -12532270.98849  -9765401.10546  22706550.945    22706550.725
  -8662586.56148  -6750062.53345  23315006.524    23315004.992
 -18290029.84949 -14251967.40547  20922515.650    20922515.917
    -84060.05347                  25520141.053
  -2658944.04148  -2071901.80944  24817120.071    24817120.532
 -24597515.03549 -19166890.17747  20200870.424    20200870.848
 02  1  9  1 37  0.0000000  0  7G 1G25G13G20G 6G 4G22
 -21425639.97049 -16695296.25847  20998180.889    20998181.228
 -12456826.06949  -9706612.91046  22720907.418    22720907.883
  -8751668.86648  -6819477.30445  23298054.664    23298054.164
 -18245594.12349 -14217342.19047  20930971.459    20930971.400
    -76647.98747                  25521551.421
  -2643893.67948  -2060174.22344  24819983.635    24819981.458
 -24612412.13149 -19178498.30247  20198035.651    20198036.162
 02  1  9  1 37 30.0000000  0  7G25G13G 1G20G 6G 4G22
 -12381272.65249  -9647740.16846  22735284.484    22735284.985
  -8840677.37048  -6888834.54845  23281116.949    23281116.174
 -21476267.39149 -16734746.20447  20988546.711    20988547.032
 -18200599.20749 -14182281.23547  20939534.034    20939534.166
    -68757.46648                  25523053.208
  -2628348.74548  -2048061.28044  24822941.091    24822937.987
 -24626651.82749 -19189594.17047  20195326.051    20195326.454
 02  1  9  1 38  0.0000000  0  8G25G 1G20G13G27G 6G 4G22
 -12305615.40949  -9588786.52046  22749681.850    22749681.879
 -21526651.86349 -16774006.83747  20978959.039    20978959.353
 -18155049.77549 -14146788.19447  20948201.508    20948201.856
  -8929614.13148  -6958135.89245  23264192.682    23264191.479
        -1.07058         -.72854  25601973.301    25601973.441
    -60391.69948                  25524645.009
  -2612313.76048  -2035566.49344  24825992.734    24825993.655
 -24640237.19249 -19200180.16947  20192740.695    20192741.159
 02  1  9  1 38 30.0000000  0  8G25G13G 1G20G27G 6G 4G22
 -12229848.67849  -9529747.56346  22764100.022    22764100.959
  -9018471.22648  -7027375.15445  23247284.579    23247282.025
 -21576785.66549 -16813072.13947  20969418.856    20969419.012
 -18108940.98149 -14110859.28647  20956975.611    20956975.841
    -84813.01448    -66087.96644  25585832.580    25585836.232
    -51544.32248    -40166.26944  25526328.755    25526332.622
  -2595783.50348  -2022685.78644  24829137.487    24829135.288
 -24653161.50949 -19210251.06547  20190281.138    20190281.624
 02  1  9  1 39  0.0000000  0  8G25G13G 1G20G27G 6G 4G22
 -12153963.08949  -9470615.99746  22778540.711    22778541.128
  -9107237.70248  -7096543.81045  23230392.424    23230389.816
 -21626657.38149 -16851933.22247  20959928.395    20959928.715
 -18062264.37549 -14074487.92547  20965858.373    20965858.088
   -169560.09948   -132124.69244  25569707.999    25569708.475
    -42205.09048                  25528105.902
  -2578749.02648  -2009412.15544  24832378.684    24832378.808
 -24665414.42549 -19219798.79247  20187949.580    20187950.054
 02  1  9  1 39 30.0000000  0  8G25G13G 1G20G27G 6G 4G22
 -12077955.01049  -9411388.97446  22793004.619    22793004.900
  -9195907.19048  -7165636.89045  23213518.777    23213518.831
 -21676260.52649 -16890585.02747  20950489.468    20950489.794
 -18015016.38849 -14037671.33747  20974849.315    20974849.275
   -254237.21148   -198106.89344  25553592.540    25553591.447
    -32369.02148                  25529977.873
  -2561206.62948  -1995742.73344  24835716.352    24835716.148
 -24676990.94849 -19228819.45747  20185746.729    20185747.334
 02  1  9  1 40  0.0000000  0  8G20G25G13G 1G27G 6G 4G22
 -17967229.16049 -14000434.55647  20983942.778    20983942.736
 -12001855.97249  -9352091.08446  22807485.455    22807485.924
  -9284508.88448  -7234677.16945  23196658.814    23196657.144
 -21725624.32449 -16929050.33147  20941095.731    20941096.033
   -338874.51148   -264058.07844  25537487.724    25537490.289
    -22066.48248                  25531938.217
  -2543188.04348  -1981702.27044  24839144.244    24839144.593
 -24687921.34649 -19237336.65247  20183666.793    20183667.314
 02  1  9  1 40 30.0000000  0  8G20G25G 1G13G27G 6G 4G22
 -17918890.36149 -13962767.98347  20993141.683    20993141.635
 -11925653.14049  -9292712.30246  22821986.729    22821987.329
 -21774733.50549 -16967317.23547  20931750.361    20931750.856
  -9373027.71148  -7303652.85545  23179813.999    23179811.966
   -423457.87548   -329967.26744  25521391.714    25521395.946
    -11283.60148     -8794.50644  25533990.309    25533994.022
  -2524680.83648  -1967281.02944  24842666.233    24842669.779
 -24698191.70949 -19245339.53747  20181712.164    20181712.875
 02  1  9  1 41  0.0000000  0  8G20G25G 1G13G27G 6G 4G22
 -17869994.76149 -13924667.53747  21002446.244    21002446.198
 -11849340.80349  -9233248.21946  22836508.679    22836509.014
 -21823579.87449 -17005379.34847  20922455.444    20922455.987
  -9461455.60548  -7372557.68845  23162986.925    23162985.451
   -507980.12448   -395828.75144  25505308.303    25505310.732
       -13.49348       -12.68044  25536134.988    25536138.770
  -2505679.39748                  24846281.893
 -24707794.75549 -19252822.43447  20179884.727    20179885.202
 02  1  9  1 41 30.0000000  0  8G20G25G 1G13G27G 6G 4G22
 -17820543.61749 -13886134.20147  21011855.733    21011855.879
 -11772919.75749  -9173699.41246  22851050.661    22851051.197
 -21872161.74849 -17043235.36147  20913210.619    20913211.012
  -9549790.68748  -7441390.19345  23146177.139    23146176.047
   -592440.63648   -461642.13044  25489236.842    25489238.703
     11744.06148      9149.03144  25538372.464    25538372.299
  -2486184.70348  -1937284.05244  24849991.210    24849991.642
 -24716730.36549 -19259785.24647  20178184.530    20178185.085
 02  1  9  1 42  0.0000000  0  8G20G25G 1G13G27G 6G 4G22
 -17770543.26449 -13847172.91347  21021371.161    21021371.332
 -11696395.34849  -9114070.07546  22865613.136    22865613.747
 -21920482.21749 -17080887.67947  20904015.613    20904016.047
  -9638036.19748  -7510152.92345  23129384.765    23129384.094
   -676843.39948   -527410.58044  25473174.850    25473180.216
     23984.50248     18687.03044  25540701.698    25540703.060
  -2466202.58648  -1921713.60644  24853794.207    24853796.365
 -24725002.99249 -19266231.44947  20176610.273    20176610.780
 02  1  9  1 42 30.0000000  0  8G20G25G 1G13G27G 6G 4G22
 -17719992.73649 -13807782.90947  21030990.475    21030990.608
 -11619766.02149  -9054358.97846  22880195.178    22880195.800
 -21968537.30649 -17118333.21547  20894870.947    20894871.460
  -9726188.74449  -7578843.20145  23112610.086    23112608.959
   -761185.70848   -593131.80544  25457125.037    25457126.830
     36710.19848     28602.97944  25543123.429    25543125.677
  -2445731.90548  -1905762.41944  24857691.029    24857689.774
 -24732609.91749 -19272158.92447  20175162.646    20175163.233
 02  1  9  1 43  0.0000000  0  8G20G25G 1G13G27G 6G 4G22
 -17668895.79549 -13767967.13746  21040713.480    21040713.806
 -11543034.83849  -8994568.52746  22894796.303    22894797.127
 -22016327.80349 -17155572.56947  20885776.628    20885776.992
  -9814249.23048  -7647461.74145  23095852.034    23095851.812
   -845469.33448   -658807.27644  25441086.198    25441091.088
     49919.12348     38895.60244  25545636.784    25545637.287
  -2424776.18148  -1889433.26944  24861679.143    24861677.349
 -24739553.35649 -19277569.40547  20173841.548    20173842.097
 02  1  9  1 43 30.0000000  0  8G20G25G 1G13G27G 6G 4G22
 -17617251.01849 -13727724.47846  21050541.922    21050541.647
 -11466199.57549  -8934696.95946  22909418.105    22909418.809
 -22063849.06449 -17192602.12847  20876733.613    20876734.168
  -9902212.31549  -7716004.38645  23079114.710    23079113.219
   -929690.64248   -724434.24444  25425058.165    25425057.689
     63614.28348     49567.13744  25548243.057    25548240.038
  -2403333.38948  -1872724.63444  24865759.171    24865760.633
 -24745830.01649 -19282460.31447  20172647.043    20172647.586
 02  1  9  1 44  0.0000000  0  8G20G25G 1G13G27G 6G 4G22
 -17565066.56949 -13687061.29646  21060472.293    21060472.209
 -11389267.85449  -8874750.24346  22924057.823    22924057.738
 -22111106.26249 -17229425.93047  20867740.742    20867741.358
  -9990083.80048  -7784475.65345  23062391.047    23062390.583
  -1013855.91748   -790017.51844  25409043.304    25409046.491
     77788.96048                  25550940.411
  -2381411.68348  -1855642.78444  24869930.949    24869931.244
 -24751446.65049 -19286836.91847  20171578.003    20171578.692
 02  1  9  1 44 30.0000000  0  8G20G25G 1G13G27G 6G 4G22
 -17512339.35849 -13645975.18246  21070505.335    21070505.217
 -11312235.30849  -8814724.96546  22938716.407    22938717.493
 -22158092.84349 -17266038.86047  20858799.510    20858800.089
 -10077857.07449  -7852870.39145  23045690.039    23045687.448
  -1097959.80148   -855552.95744  25393038.230    25393041.291
     92448.03848                  25553730.101
  -2359007.33148  -1838184.84344  24874194.889    24874195.674
 -24756398.32549 -19290695.36947  20170635.846    20170636.391
 02  1  9  1 45  0.0000000  0  8G20G25G 1G13G27G 6G 4G22
 -17459071.98949 -13604468.16646  21080642.446    21080642.208
 -11235104.27149  -8754622.93945  22953394.026    22953394.595
 -22204808.36949 -17302440.57747  20849910.107    20849910.629
 -10165531.93349  -7921188.45845  23029005.883    23029004.992
  -1182003.07948   -921041.12344  25377046.124    25377047.540
    107590.32748                  25556611.537
  -2336122.91748  -1820352.86344  24878549.495    24878549.137
 -24760685.95749 -19294036.38647  20169819.900    20169820.437
 02  1  9  1 45 30.0000000  0  8G20G25G 1G13G27G 6G 4G22
 -17405265.14949 -13562540.78046  21090881.210    21090881.041
 -11157874.48449  -8694443.94545  22968090.642    22968090.936
 -22251250.32449 -17338629.11847  20841072.466    20841072.908
 -10253105.89149  -7989427.87345  23012340.436    23012338.456
  -1265984.12448   -986480.85544  25361063.829    25361067.708
    123216.93048                  25559585.125
  -2312758.49348  -1802146.79544  24882996.096    24882994.692
 -24764308.60849 -19296859.23747  20169130.718    20169131.334
 02  1  9  1 46  0.0000000  0  7G20G25G 1G13G27G 4G22
 -17350908.71549 -13520185.14346  21101224.492    21101224.868
 -11080535.05348  -8634179.55045  22982807.755    22982808.441
 -22297405.36249 -17374594.09147  20832289.231    20832289.783
 -10340565.38549  -8057578.12045  22995698.143    22995696.592
  -1349890.88548  -1051862.69144  25345097.919    25345102.372
  -2288903.89948  -1783558.82844  24887535.191    24887531.457
 -24767254.77649 -19299154.95447  20168569.869    20168570.513
 02  1  9  1 46 30.0000000  0  8G20G25G 1G13G27G 3G 4G22
 -17296019.61249 -13477414.44246  21111670.234    21111669.920
 -11003101.63248  -8573841.89245  22997542.666    22997542.586
 -22343287.11449 -17410346.11347  20823558.502    20823558.863
 -10427924.44949  -8125650.09645  22979073.468    22979071.771
  -1433737.92148  -1117198.02344  25329141.792    25329142.359
         -.53358                  25237503.344
  -2264575.65548  -1764601.78844  24892164.152    24892163.454
 -24769539.48149 -19300935.24847  20168135.077    20168135.630
 02  1  9  1 47  0.0000000  0  8G20G25G 1G13G27G 3G 4G22
 -17240617.18049 -13434243.74146  21122212.940    21122212.981
 -10925592.97348  -8513445.62545  23012292.696    23012293.006
 -22388911.77149 -17445897.80347  20814876.286    20814876.842
 -10515199.22649  -8193656.37045  22962466.474    22962464.411
  -1517542.72448  -1182500.39944  25313193.796    25313195.018
    -89313.90548                  25220508.182
  -2239792.69148  -1745290.33144  24896879.960    24896883.204
 -24771180.43149 -19302213.91147  20167822.949    20167823.539
 02  1  9  1 47 30.0000000  0  7G20G25G 1G13G27G 4G22
 -17184691.29849 -13390665.15546  21132854.991    21132854.971
 -10847997.98048  -8452982.07545  23027057.603    23027058.474
 -22434265.90149 -17481238.69347  20806245.859    20806246.207
 -10602376.15049  -8261586.42845  22945876.479    22945875.560
  -1601292.79948  -1247760.08944  25297257.149    25297260.486
  -2214544.63648  -1725616.56344  24901683.973    24901686.572
 -24772165.97749 -19302981.87047  20167635.467    20167636.129
 02  1  9  1 48  0.0000000  0  8G20G25G13G 1G27G 3G 4G22
 -17128230.69849 -13346669.91146  21143599.164    21143599.286
 -10770304.31248  -8392441.65145  23041843.000    23041843.199
 -10689440.78449  -8329428.98545  22929309.107    22929307.887
 -22479334.88049 -17516357.38847  20797669.551    20797669.921
  -1684974.67948  -1312966.69944  25281332.601    25281336.517
         -.64858                  25186474.454
  -2188819.81348  -1705571.23844  24906579.522    24906579.899
 -24772483.21049 -19303229.06947  20167574.900    20167575.551
 02  1  9  1 48 30.0000000  0  8G20G25G13G 1G27G 3G 4G22
 -17071234.87449 -13302257.60946  21154445.320    21154445.391
 -10692510.58748  -8331823.25245  23056647.040    23056647.764
 -10776389.23049  -8397180.99245  22912762.534    22912761.151
 -22524114.75049 -17551250.79947  20789148.197    20789148.569
  -1768585.60848  -1378117.98944  25265422.253    25265426.311
    -89514.27148                  25169440.694
  -2162617.46548  -1685153.78744  24911565.171    24911567.367
 -24772130.13249 -19302953.94947  20167641.890    20167642.595
 02  1  9  1 49  0.0000000  0  7G20G25G13G 1G27G 4G22
 -17013699.48849 -13257424.86746  21165393.627    21165393.852
 -10614611.25048  -8271122.55445  23071470.247    23071471.566
 -10863213.62049  -8464836.34745  22896240.662    22896240.058
 -22568598.05049 -17585913.12247  20780683.575    20780683.699
  -1852119.01148  -1443208.88044  25249525.662    25249526.472
  -2135932.94548  -1664360.71544  24916643.079    24916644.758
 -24771100.73349 -19302151.82447  20167837.952    20167838.675
 02  1  9  1 49 30.0000000  0  8G20G25G13G 1G27G 3G 4G22
 -16955645.81849 -13212188.26646  21176440.718    21176440.785
 -10536626.76448  -8210355.51545  23086310.611    23086312.104
 -10949932.19049  -8532409.23645  22879739.384    22879738.100
 -22612802.66549 -17620358.28747  20772271.509    20772271.858
  -1935594.34648  -1508254.50244  25233641.678    25233641.669
         -.60758          .52554  25135339.859    25135348.795
  -2108787.20448  -1643208.11544  24921809.414    24921809.940
 -24769414.90149 -19300838.19447  20168158.609    20168159.457
 02  1  9  1 50  0.0000000  0  7G20G25G13G 1G27G 4G22
 -16897070.99749 -13166545.57846  21187587.513    21187587.821
 -10458553.00648  -8149518.92245  23101167.985    23101168.210
 -11036538.48549  -8599894.64545  22863257.907    22863257.565
 -22656722.07349 -17654581.21547  20763913.600    20763913.996
  -2019005.84748  -1573250.42844  25217768.365    25217773.594
  -2081176.95448  -1621693.70044  24927064.727    24927065.311
 -24767067.88549 -19299009.35947  20168605.555    20168606.196
 02  1  9  1 50 30.0000000  0  8G20G25G13G 1G27G 3G 4G22
 -16837980.02149 -13120500.69146  21198832.135    21198832.523
 -10380394.35348  -8088616.16545  23116040.505    23116040.330
 -11123034.53849  -8667294.17045  22846799.264    22846798.341
 -22700358.11449 -17688583.33847  20755610.029    20755610.517
  -2102356.76748  -1638199.05744  25201907.225    25201909.825
         -.48258                  25101196.193
  -2053107.00848  -1599821.01044  24932405.386    24932404.571
 -24764063.45049 -19296668.25147  20169177.206    20169178.030
 02  1  9  1 51  0.0000000  0  7G20G25G13G 1G27G 4G22
 -16778372.95449 -13074053.65846  21210174.797    21210175.065
 -10302149.33948  -8027646.13745  23130930.573    23130932.142
 -11209416.80349  -8734605.00745  22830360.434    22830359.106
 -22743707.32949 -17722361.95747  20747361.026    20747361.497
  -2185644.54048  -1703098.52544  25186058.623    25186061.778
  -2024576.98448  -1577589.81544  24937834.346    24937837.126
 -24760400.07649 -19293813.68247  20169874.347    20169875.277
 02  1  9  1 51 30.0000000  0  8G20G25G13G 1G27G 3G 4G22
 -16718252.80449 -13027206.81746  21221615.200    21221615.695
 -10223819.90948  -7966610.31245  23145836.022    23145836.410
 -11295684.56549  -8801826.63245  22813944.330    22813943.741
 -22786769.16249 -17755916.64347  20739166.554    20739167.037
  -2268869.98048  -1767949.38644  25170220.787    25170223.992
         -.70358                  25067009.154
  -1995589.54948  -1555002.23444  24943350.162    24943349.611
 -24756078.93349 -19290446.56747  20170696.212    20170696.992
 02  1  9  1 52  0.0000000  0  7G20G25G13G 1G27G 4G22
 -16657620.53649 -12979960.92546  21233153.588    21233153.762
 -10145405.84048  -7905508.53445  23160758.392    23160758.792
 -11381835.33949  -8868957.09345  22797550.582    22797548.658
 -22829541.15149 -17789245.47847  20731027.487    20731028.035
  -2352031.78548  -1832750.65844  25154396.150    25154399.238
  -1966145.41648                  24948953.534
 -24751099.61349 -19286566.59047  20171643.990    20171644.914
 02  1  9  1 52 30.0000000  0  7G20G25G13G 1G27G 4G22
 -16596471.34449 -12932312.23146  21244789.613    21244789.651
 -10066901.02548  -7844336.06945  23175697.122    23175698.327
 -11467860.59549  -8935989.75945  22781180.345    22781179.509
 -22872014.96549 -17822341.97347  20722945.235    20722945.641
  -2435122.62248  -1897496.63244  25138584.558    25138584.625
  -1936239.41548  -1508755.34944  24954644.471    24954645.453
 -24745455.86449 -19282168.87447  20172717.771    20172718.844
 02  1  9  1 53  0.0000000  0  7G20G25G13G 1G27G 4G22
 -16534812.47449 -12884266.39346  21256522.955    21256523.470
  -9988311.74248  -7783097.77145  23190652.457    23190652.384
 -11553764.49349  -9002927.85545  22764833.439    22764832.290
 -22914194.50649 -17855209.16247  20714918.847    20714919.238
  -2518147.69948  -1962191.40144  25122784.710    25122784.786
  -1905878.44648                  24960421.457
 -24739153.58049 -19277258.00947  20173917.111    20173918.239
 02  1  9  1 53 30.0000000  0  8G20G25G13G 1G27G 3G 4G22
 -16472654.17949 -12835831.38946  21268351.548    21268351.823
  -9909647.08548  -7721800.73545  23205621.784    23205622.529
 -11639553.45349  -9069776.39045  22748508.416    22748506.935
 -22956086.16349 -17887852.02447  20706946.901    20706947.400
  -2601114.69848  -2026840.88444  25106996.751    25107001.177
         -.32058                  24998531.000
  -1875072.27848                  24966282.679
 -24732201.25749 -19271840.62347  20175240.246    20175241.303
 02  1  9  1 54  0.0000000  0  8G20G25G13G 1G27G 3G 4G22
 -16409994.21849 -12787005.47746  21280274.981    21280275.382
  -9830903.50648  -7660442.20845  23220606.453    23220607.477
 -11725221.70649  -9136530.85945  22732206.239    22732204.579
 -22997684.40549 -17920266.25147  20699030.822    20699031.289
  -2684019.09048  -2091441.59944  25091220.684    25091218.259
    -90066.26648                  24981393.771
  -1843818.58748                  24972230.912
 -24724595.38449 -19265913.98447  20176687.825    20176688.884
 02  1  9  1 54 30.0000000  0  8G20G25G13G 1G27G 3G 4G22
 -16346837.88949 -12737792.78246  21292293.674    21292294.147
  -9752084.81148  -7599025.18045  23235605.144    23235606.137
 -11810770.97549  -9203192.62145  22715926.239    22715925.644
 -23038990.81349 -17952453.07647  20691170.511    20691170.823
  -2766863.69948  -2155995.70044  25075455.363    25075458.164
   -180171.92448                  24964246.355
  -1812122.31748                  24978263.502
 -24716339.53149 -19259480.86847  20178258.561    20178259.569
 02  1  9  1 55  0.0000000  0  8G20G25G13G 1G27G 3G 4G22
 -16283173.16349 -12688183.94246  21304408.545    21304408.834
  -9673177.80348  -7537539.30545  23250620.183    23250621.382
 -11896185.60749  -9269749.47645  22699673.325    22699671.406
 -23079989.93649 -17984400.46147  20683368.715    20683369.144
  -2849634.23048  -2220492.08044  25059704.719    25059707.473
   -270300.42948                  24947096.674
  -1779971.11748  -1386987.83644  24984381.489    24984381.020
 -24707420.45049 -19252530.95147  20179955.315    20179956.515
 02  1  9  1 55 30.0000000  0  8G20G25G13G 1G27G 3G 4G22
 -16219008.92249 -12638185.86646  21316618.331    21316618.863
  -9594190.00548  -7475990.48645  23265651.992    23265653.727
 -11981470.62449  -9336205.32245  22683443.873    22683442.351
 -23120686.88549 -18016112.38647  20675624.517    20675624.862
  -2932336.94748  -2284935.65744  25043966.717    25043968.720
   -360455.67748                  24929941.277
  -1747373.33548  -1361587.03044  24990585.181    24990586.447
 -24697845.36249 -19245069.85947  20181777.677    20181778.879
 02  1  9  1 56  0.0000000  0  8G20G25G13G 1G27G 3G 4G22
 -16154346.32949 -12587799.47046  21328923.443    21328923.882
  -9515121.23748  -7414378.59645  23280697.838    23280699.161
 -12066623.67649  -9402558.34245  22667238.808    22667238.370
 -23161079.10049 -18047586.86047  20667938.177    20667938.507
  -3014970.45348  -2349325.28844  25028242.563    25028244.035
   -450633.65548                  24912779.721
  -1714329.92448  -1335838.88544  24996872.846    24996872.817
 -24687614.02049 -19237097.39747  20183724.553    20183725.746
 02  1  9  1 56 30.0000000  0  8G20G25G13G 1G27G 3G 4G22
 -16089187.04749 -12537026.03546  21341323.081    21341323.399
  -9435971.83848  -7352703.84945  23295759.273    23295759.905
 -12151642.69149  -9468806.91745  22651061.949    22651059.382
 -23201164.72549 -18078822.43147  20660310.224    20660310.371
  -3097534.19048  -2413660.55244  25012530.458    25012533.153
   -540831.54348                  24895615.958
  -1680842.14248  -1309744.52244  25003245.205    25003246.629
 -24676726.84949 -19228613.89747  20185797.056    20185798.206
 02  1  9  1 57  0.0000000  0  8G20G25G13G 1G27G 3G 4G22
 -16023534.53249 -12485868.27346  21353816.223    21353816.723
  -9356744.11848  -7290968.08645  23310836.961    23310838.398
 -12236527.58249  -9534950.99445  22634907.163    22634906.135
 -23240943.86149 -18109819.17947  20652740.623    20652740.870
  -3180029.14948  -2477942.23544  24996832.626    24996833.981
   -631047.69548                  24878448.486
  -1646913.54648  -1283306.67644  25009701.819    25009700.297
 -24665186.06049 -19219621.08547  20187993.274    20187994.196
 02  1  9  1 57 30.0000000  0  8G20G25G13G 1G27G 3G 4G22
 -15957393.79149 -12434330.07246  21366402.460    21366402.769
  -9277440.97348  -7229173.56045  23325926.675    23325928.910
 -12321279.15649  -9600991.16245  22618780.694    22618779.354
 -23280417.21349 -18140577.65347  20645229.071    20645229.396
  -3262457.60548  -2542172.08944  24981146.791    24981149.430
   -721281.72348                  24861277.109
  -1612548.31148  -1256528.58344  25016239.840    25016240.404
 -24652994.80549 -19210121.42147  20190312.920    20190313.888
 02  1  9  1 58  0.0000000  0  8G20G25G13G 1G27G 3G 4G22
 -15890769.26149 -12382414.88846  21379080.885    21379081.272
  -9198065.81848  -7167322.93045  23341032.048    23341032.657
 -12405898.17849  -9666928.05545  22602677.859    22602676.725
 -23319585.82749 -18171098.67347  20637775.610    20637775.863
  -3344821.71548  -2606351.83044  24965473.219    24965475.391
   -811533.14148                  24844103.247
  -1577750.47748                  25022861.865
 -24640156.27449 -19200117.38647  20192756.145    20192756.856
 02  1  9  1 58 30.0000000  0  8G20G25G13G 1G27G 3G 4G22
 -15823662.54849 -12330123.98446  21391850.660    21391851.004
  -9118618.78548  -7105416.27345  23356150.340    23356150.786
 -12490382.59949  -9732760.06945  22586600.656    22586599.995
 -23358447.68649 -18201380.66847  20630380.471    20630380.799
  -3427120.48148  -2670480.62944  24949812.152    24949813.216
   -901798.41948                  24826925.966
  -1542521.62348                  25029566.331
 -24626670.73349 -19189609.18447  20195322.461    20195323.304
 02  1  9  1 59  0.0000000  0  8G20G25G13G 1G27G 3G 4G22
 -15756075.76249 -12277458.99546  21404711.983    21404712.397
  -9039100.35348  -7043453.98545  23371281.589    23371283.367
 -12574730.36949  -9798485.60146  22570550.429    22570549.461
 -23397001.00149 -18231422.23047  20623043.876    20623044.161
  -3509353.46048  -2734558.18844  24934163.568    24934164.470
   -992074.25348                  24809747.735
  -1506863.39848                  25036352.520
 -24612538.73649 -19178597.25347  20198011.568    20198012.355
 02  1  9  1 59 30.0000000  0  8G20G25G13G 1G27G 3G 4G22
 -15688003.39949 -12224415.64046  21417666.062    21417666.512
  -8959503.69048  -6981430.76645  23386428.961    23386431.173
 -12658932.66949  -9864097.79346  22554526.529    22554524.997
 -23435236.57149 -18261216.20547  20615767.823    20615768.201
  -3591512.59448  -2798578.17744  24918529.338    24918531.803
  -1082350.09748                  24792567.306
  -1470770.03948  -1146052.02844  25043220.943    25043221.968
 -24597753.52849 -19167076.32647  20200825.077    20200826.109
 02  1  9  2  0  0.0000000  0  8G20G13G25G 1G27G 3G 4G22
 -15619453.12849 -12170999.88646  21430710.394    21430711.091
 -12742992.90649  -9929599.27846  22538531.084    22538528.879
  -8879834.97148  -6919351.38445  23401589.628    23401591.323
 -23473158.39649 -18290765.70647  20608551.808    20608552.097
  -3673603.14648  -2862544.77744  24902907.516    24902910.671
  -1172628.41048                  24775388.461
  -1434248.67248  -1117593.82544  25050170.963    25050170.481
 -24582321.49649 -19155051.38347  20203761.700    20203762.673
 02  1  9  2  0 30.0000000  0  8G20G25G13G 1G27G 3G 4G22
 -15550426.70049 -12117213.10346  21443845.719    21443846.409
  -8800094.33848  -6857216.00245  23416763.025    23416766.681
 -12826908.94449  -9994988.39546  22522562.139    22522561.209
 -23510764.42649 -18320069.12847  20601395.519    20601395.835
  -3755624.23448  -2926457.19644  24887299.958    24887299.469
  -1262905.79848                  24758210.198
  -1397300.95948  -1088803.38044  25057201.811    25057205.253
 -24566243.07049 -19142522.75547  20206821.192    20206822.178
 02  1  9  2  1  0.0000000  0  8G20G25G13G 1G27G 3G 4G22
 -15480923.29249 -12063054.64446  21457071.930    21457072.548
  -8720279.43548  -6795022.71145  23431952.258    23431953.859
 -12910676.36949 -10060261.72146  22506621.455    22506620.167
 -23548050.05249 -18349122.88947  20594300.364    20594300.748
  -3837572.42648  -2990312.85144  24871705.564    24871709.864
  -1353176.37448                  24741032.079
  -1359925.80948                  25064312.417
 -24549516.08449 -19129488.75647  20210004.376    20210005.449
 02  1  9  2  1 30.0000000  0  8G20G25G13G 1G27G 3G 4G22
 -15410930.10549 -12008514.54146  21470391.346    21470391.742
  -8640376.02648  -6732760.48145  23447156.731    23447157.963
 -12994278.21949 -10125406.02446  22490713.107    22490710.357
 -23584998.71349 -18377914.08247  20587269.344    20587269.864
  -3919432.44448  -3054099.80744  24856128.021    24856127.529
  -1443422.09248                  24723859.128
  -1322109.96748                  25071507.985
 -24532126.53749 -19115938.47847  20213313.667    20213314.583
 02  1  9  2  2  0.0000000  0  8G20G25G13G 1G27G 3G 4G22
 -15340477.01949 -11953616.08046  21483798.357    21483798.620
  -8560411.86148  -6670450.89345  23462373.719    23462376.799
 -13077740.25249 -10190441.38346  22474830.002    22474829.498
 -23621636.38649 -18406462.94247  20580297.402    20580297.928
  -4001231.30148  -3117839.09444  24840562.035    24840559.448
  -1533667.40748                  24706685.222
  -1283883.10248                  25078783.297
 -24514102.80749 -19101894.03347  20216743.594    20216744.483
 02  1  9  2  2 30.0000000  0  8G20G25G13G 1G27G 3G 4G22
 -15269564.18449 -11898359.37146  21497292.739    21497293.025
  -8480385.91848  -6608093.17145  23477602.613    23477605.069
 -13161058.80449 -10255364.93146  22458976.516    22458974.303
 -23657959.31249 -18434766.54447  20573385.120    20573385.633
  -4082966.52848                  24825007.792
  -1623907.17048                  24689513.691
  -1245244.92848   -970318.22044  25086136.990    25086135.144
 -24495443.80349 -19087354.57147  20220294.316    20220295.152
 02  1  9  2  3  0.0000000  0  8G20G25G13G 1G27G 3G 4G22
 -15198193.97049 -11842746.26646  21510873.905    21510874.200
  -8400298.82048  -6545687.81845  23492842.156    23492843.793
 -13244231.89249 -10320175.14846  22443148.188    22443146.083
 -23693965.85949 -18462823.61847  20566533.358    20566533.897
  -4164637.70548  -3245168.59944  24809467.980    24809467.456
  -1714138.51648                  24672343.137
  -1206197.07248                  25093568.342
 -24476150.33649 -19072320.72247  20223965.523    20223966.439
 02  1  9  2  3 30.0000000  0  8G20G25G13G 1G27G 3G 4G22
 -15126355.02849 -11786767.91346  21524544.347    21524544.787
  -8320137.67548  -6483224.76445  23508097.323    23508097.892
 -13327244.52449 -10384860.32146  22427351.070    22427350.326
 -23729640.95149 -18490622.41647  20559744.625    20559745.154
  -4246231.12348  -3308747.83044  24793939.269    24793940.091
  -1804344.96348                  24655178.066
  -1166728.39548   -909136.49744  25101078.001    25101082.955
 -24456210.02949 -19056782.84147  20227760.131    20227761.198
 02  1  9  2  4  0.0000000  0  8G20G25G 1G13G27G 3G 4G22
 -15054051.22749 -11730427.34246  21538303.522    21538303.830
  -8239904.47848  -6420705.56045  23523365.096    23523366.229
 -23764984.66449 -18518162.99847  20553018.789    20553019.464
 -13410096.34549 -10449420.18746  22411585.680    22411584.001
  -4327748.07248  -3372267.42644  24778428.536    24778426.899
  -1894525.04748                  24638016.676
  -1126842.39048                  25108667.266
 -24435625.61249 -19040743.05747  20231677.341    20231678.403
 02  1  9  2  4 30.0000000  0  8G20G25G 1G13G27G 3G 4G22
 -14981291.66149 -11673731.62246  21552149.135    21552149.537
  -8159606.86148  -6358136.19045  23538644.867    23538646.760
 -23800002.14949 -18545449.37147  20546355.309    20546355.772
 -13492792.38549 -10513858.67046  22395848.409    22395847.869
  -4409194.96148  -3435732.45544  24762928.449    24762929.090
  -1984682.32248                  24620860.604
  -1086547.61548                  25116334.262
 -24414404.86149 -19024207.43247  20235715.453    20235716.518
 02  1  9  2  5  0.0000000  0  8G20G25G 1G13G27G 3G 4G22
 -14908074.79449 -11616679.56546  21566081.846    21566081.862
  -8079241.19848  -6295513.76245  23553938.848    23553941.905
 -23834687.89149 -18572477.24747  20539755.006    20539755.640
 -13575326.98449 -10578171.35746  22380143.872    22380141.593
  -4490567.52848  -3499139.59244  24747443.632    24747446.540
  -2074809.66648                  24603709.739
  -1045842.30048                  25124081.051
 -24392544.82749 -19007173.66947  20239875.298    20239876.198
 02  1  9  2  5 30.0000000  0  8G20G25G 1G13G27G 3G 4G22
 -14834405.27249 -11559274.79446  21580100.793    21580101.120
  -7998810.45348  -6232840.63745  23569244.106    23569246.323
 -23869042.74449 -18599247.28547  20533217.460    20533218.004
 -13657700.48849 -10642358.51346  22364467.744    22364467.202
  -4571867.61248  -3562490.24444  24731973.089    24731976.258
  -2164906.62948                  24586565.429
  -1004730.91748                  25131904.581
 -24370048.94949 -18989644.44247  20244156.070    20244156.899
 02  1  9  2  6  0.0000000  0  8G20G25G 1G13G27G 3G 4G22
 -14760278.58849 -11501513.79146  21594206.421    21594206.969
  -7918308.40748  -6170111.96845  23584562.768    23584566.335
 -23903058.39649 -18625753.01847  20526744.595    20526745.198
 -13739904.70749 -10706413.75246  22348824.815    22348823.341
  -4653088.18548  -3625778.89644  24716517.850    24716520.702
  -2254963.65348                  24569427.934
   -963208.52448                  25139806.342
 -24346911.57149 -18971615.34647  20248558.895    20248560.086
 02  1  9  2  6 30.0000000  0  7G 1G25G20G13G27G 3G22
 -23936738.56449 -18651997.33247  20520335.561    20520336.115
  -7837741.01248  -6107332.36745  23599895.261    23599897.041
 -14685702.43349 -11443402.55946  21608397.714    21608398.322
 -13821943.03949 -10770339.74946  22333214.329    22333211.907
  -4734234.00648  -3689009.31844  24701076.139    24701075.158
  -2344982.70748                  24552297.123
 -24323139.34049 -18953091.56047  20253082.795    20253083.710
 02  1  9  2  7  0.0000000  0  7G20G 1G25G13G27G 3G22
 -14610687.63949 -11384949.52246  21622673.121    21622673.724
 -23970089.84549 -18677985.36947  20513988.905    20513989.400
  -7757117.08848  -6044508.72245  23615237.029    23615238.933
 -13903821.73249 -10834141.33946  22317631.529    22317630.793
  -4815314.03147                  24685631.006
  -2434968.87448                  24535173.777
 -24298741.59249 -18934080.36047  20257725.484    20257726.703
 02  1  9  2  7 30.0000000  0  7G 1G25G20G13G27G 3G22
 -24003120.76549 -18703723.77447  20507703.185    20507703.651
  -7676447.49848  -5981649.50445  23630588.064    23630589.824
 -14535246.34149 -11326164.15146  21637028.732    21637029.283
 -13985549.11949 -10897825.02546  22302080.988    22302079.238
  -4895620.78947                  24670233.839
  -2524928.99248                  24518055.086
 -24273729.66749 -18914590.58047  20262484.963    20262486.058
 02  1  9  2  8  0.0000000  0  6G25G20G13G 3G 1G22
  -7595701.37248  -5918730.65645  23645954.457    23645957.323
 -14459350.19049 -11267024.34746  21651471.664    21651472.068
 -14067092.40149 -10961365.25646  22286563.554    22286561.594
  -2614829.07448                  24500947.000
 -24035798.68849 -18729187.12547  20501484.814    20501485.323
 -24248073.48149 -18894598.78147  20267367.265    20267368.164
 02  1  9  2  8 30.0000000  0  6G 1G25G20G13G 3G22
 -24068132.55149 -18754382.37747  20495331.799    20495332.342
  -7514889.87848  -5855760.85645  23661332.199    23661335.597
 -14383011.81749 -11207539.95546  21665998.304    21665998.794
 -14148460.12049 -11024768.68046  22271078.717    22271078.074
  -2704676.52348  -2107539.27344  24483850.363    24483854.005
 -24221785.02049 -18874114.30047  20272369.889    20272371.022
 02  1  9  2  9  0.0000000  0  7G20G 1G25G13G27G 3G22
 -14306259.00049 -11147732.62646  21680604.036    21680604.513
 -24100146.03949 -18779327.98047  20489239.776    20489240.412
  -7434039.09648  -5792760.44545  23676717.949    23676720.571
 -14229675.73649 -11088053.59946  22255625.214    22255623.421
         -.83458                  24624064.268
  -2794493.35148                  24466758.313
 -24194890.77849 -18853157.78147  20277487.818    20277488.900
 02  1  9  2  9 30.0000000  0  7G20G 1G25G13G27G 3G22
 -14229076.60549 -11087590.55546  21695291.386    21695291.850
 -24131819.79849 -18804008.85847  20483212.420    20483213.061
  -7353131.35448  -5729715.66345  23692114.498    23692117.683
 -14310719.68249 -11151204.75146  22240202.154    22240200.470
    -80731.45448                  24608702.206
  -2884258.93748                  24449675.908
 -24167374.28349 -18831716.39447  20282724.201    20282725.233
 02  1  9  2 10  0.0000000  0  7G20G 1G25G13G27G 3G22
 -14151458.84249 -11027109.24146  21710061.437    21710061.906
 -24163144.21849 -18828417.52447  20477251.885    20477252.367
  -7272159.51548  -5666620.93545  23707523.046    23707526.141
 -14391582.20249 -11214214.51646  22224814.863    22224813.539
   -161382.28648   -125750.60144  24593353.974    24593349.466
  -2973962.13148                  24432606.781
 -24139228.99749 -18809785.04047  20288080.080    20288081.162
 02  1  9  2 10 30.0000000  0  7G20G 1G25G13G27G 3G22
 -14073411.54649 -10966293.22246  21724913.748    21724914.125
 -24194120.83549 -18852555.18147  20471357.258    20471357.845
  -7191127.21848  -5603479.11545  23722942.887    23722945.259
 -14472264.71049 -11277084.02546  22209461.464    22209460.914
   -241956.21648   -188530.49745  24578020.950    24578020.427
  -3063602.92348                  24415548.243
 -24110459.28849 -18787367.11847  20293554.564    20293555.628
 02  1  9  2 11  0.0000000  0  7G20G 1G25G13G27G 3G22
 -13994934.21249 -10905142.10846  21739847.257    21739847.839
 -24224745.15649 -18876418.32047  20465529.629    20465530.143
  -7110032.00148  -5540288.24545  23738375.368    23738376.265
 -14552762.43149 -11339809.54446  22194143.050    22194142.537
   -322449.64748   -251252.41346  24562705.307    24562704.256
  -3153175.38148                  24398502.776
 -24081063.48849 -18764461.33847  20299148.283    20299149.301
 02  1  9  2 11 30.0000000  0  7G20G 1G25G13G27G 3G22
 -13916039.36349 -10843665.66946  21754860.550    21754860.992
 -24255025.87049 -18900013.71547  20459767.604    20459768.144
  -7028884.61848  -5477056.73545  23753817.134    23753819.462
 -14633083.46849 -11402397.38346  22178859.032    22178858.102
   -402872.66948   -313925.99844  24547399.437    24547394.708
  -3242686.49648                  24381470.039
 -24051053.37049 -18741076.87047  20304859.057    20304859.978
 02  1  9  2 12  0.0000000  0  7G20G 1G25G13G27G 3G22
 -13836714.31649 -10781854.00346  21769955.741    21769956.276
 -24284946.02249 -18923328.14847  20454073.897    20454074.511
  -6947669.84848  -5413772.75545  23769271.190    23769276.224
 -14713210.25649 -11464833.86046  22163610.734    22163609.461
   -483209.58148   -376526.14744  24532113.276    24532116.662
  -3332117.53648                  24364451.152
 -24020414.85849 -18717202.74347  20310689.436    20310690.482
 02  1  9  2 12 30.0000000  0  7G20G 1G25G13G27G 3G22
 -13756966.16949 -10719712.65346  21785131.234    21785131.622
 -24314508.82549 -18946364.13947  20448448.009    20448448.604
  -6866393.16448  -5350440.48245  23784738.943    23784740.849
 -14793145.84549 -11527121.35646  22148399.786    22148398.741
   -563464.65548                  24516840.357
  -3421470.37348                  24347448.075
 -23989154.05449 -18692843.71147  20316638.063    20316639.257
 02  1  9  2 13  0.0000000  0  7G20G 1G25G13G27G 3G22
 -13676810.02349 -10657253.38046  21800384.418    21800385.018
 -24343725.19249 -18969130.17047  20442888.392    20442888.984
  -6785067.85948  -5287070.33644  23800214.106    23800217.240
 -14872901.16649 -11589268.37846  22133222.729    22133221.837
   -643650.28348   -501544.79844  24501581.328    24501584.536
  -3510754.41248                  24330458.285
 -23957285.10749 -18668010.80547  20322702.800    20322703.804
 02  1  9  2 13 30.0000000  0  7G20G 1G25G13G27G 3G22
 -13596242.05849 -10594473.20846  21815716.067    21815717.181
 -24372587.09049 -18991619.99547  20437396.273    20437396.883
  -6703687.77448  -5223657.49944  23815700.050    23815703.259
 -14952467.87849 -11651268.43446  22118081.597    22118080.595
   -723759.59948                  24486338.289
  -3599962.27248                  24313472.243
 -23924803.09349 -18642700.18647  20328884.214    20328885.084
 02  1  9  2 14  0.0000000  0  6G20G25G13G27G 1G22
 -13515255.12749 -10531366.57746  21831127.500    21831127.988
  -6622244.25748  -5160195.24044  23831199.539    23831200.981
 -15031834.55849 -11713112.63446  22102979.449    22102977.817
   -803782.58948   -626323.10744  24471110.444    24471112.652
 -24401083.50849 -19013825.03047  20431973.816    20431974.391
 -23891699.85049 -18616905.49647  20335183.613    20335184.614
 02  1  9  2 14 30.0000000  0  6G20G 1G25G13G27G22
 -13433872.35649 -10467951.49846  21846613.957    21846614.787
 -24429233.41449 -19035760.05947  20426617.390    20426617.977
  -6540757.87448  -5096698.88945  23846704.726    23846706.336
 -15111019.51149 -11774815.22246  22087910.282    22087909.615
   -883739.50948   -688627.16944  24455894.500    24455896.779
 -23857997.33549 -18590643.84147  20341596.822    20341597.776
 02  1  9  2 15  0.0000000  0  7G20G 1G25G13G27G 3G22
 -13352099.60049 -10404232.53246  21862174.723    21862175.341
 -24457038.64049 -19057426.50747  20421326.275    20421326.859
  -6459232.18648  -5033172.40844  23862219.129    23862224.177
 -15190024.19249 -11836377.34246  22072876.525    22072875.078
   -963633.27148   -750882.04244  24440691.133    24440694.416
         -.45958                  24262650.557
 -23823700.56849 -18563919.13447  20348123.424    20348124.345
 02  1  9  2 15 30.0000000  0  7G20G13G 1G25G27G 3G22
 -13269909.93349 -10340188.70746  21877815.021    21877816.142
 -15268817.23749 -11897774.54146  22057882.881    22057881.280
 -24484468.19749 -19078800.22047  20416106.473    20416107.037
  -6377638.09848  -4969592.80845  23877747.009    23877750.011
  -1043434.06948   -813064.43844  24425505.962    24425505.321
    -88861.10148    -69241.13544  24245741.481    24245743.542
 -23788781.57749 -18536709.57647  20354768.637    20354769.522
 02  1  9  2 16  0.0000000  0  7G20G13G 1G25G27G 3G22
 -13187321.84949 -10275834.42146  21893531.205    21893531.892
 -15347412.58149 -11959017.69446  22042926.039    22042925.202
 -24511536.24649 -19099892.24747  20410955.608    20410956.229
  -6295992.62848  -4905973.22745  23893282.839    23893287.114
  -1123157.29248   -875186.39244  24410334.631    24410335.525
   -177628.05648   -138410.14344  24228849.656    24228852.689
 -23753257.72049 -18509028.69147  20361528.391    20361529.429
 02  1  9  2 16 30.0000000  0  8G20G13G 1G25G27G 3G 2G22
 -13104333.30249 -10211168.09346  21909323.672    21909324.303
 -15425803.57749 -12020101.62546  22028009.396    22028008.053
 -24538236.47249 -19120697.66047  20405874.547    20405875.196
  -6214290.99748  -4842309.88345  23908830.937    23908834.011
  -1202798.08048   -937244.10344  24395179.664    24395180.193
   -266293.58648   -207500.16044  24211977.026    24211983.252
         -.74357                  24890945.220
 -23717125.94649 -18480874.10947  20368404.047    20368404.943
 02  1  9  2 17  0.0000000  0  8G20G13G 1G25G27G 3G 2G22
 -13020967.33249 -10146207.67046  21925187.575    21925188.407
 -15504008.65549 -12081040.67746  22013127.487    22013126.662
 -24564587.95649 -19141231.32747  20400859.904    20400860.465
  -6132554.38948  -4778619.28445  23924385.476    23924388.483
  -1282376.46548   -999253.19544  24380036.950    24380039.796
   -354874.79348                  24195120.024
    -99538.04647                  24872004.962
 -23680408.40349 -18452263.08247  20375391.163    20375392.179
 02  1  9  2 17 30.0000000  0  8G20G13G 1G25G27G 3G 2G22
 -12937211.34249 -10080943.33146  21941126.160    21941126.372
 -15582011.07649 -12141821.81446  21998283.779    21998283.186
 -24590574.26649 -19161480.44547  20395914.871    20395915.512
  -6050768.07048  -4714889.94845  23939947.660    23939952.231
  -1361876.85948  -1061201.54744  24364908.056    24364909.636
   -443353.41448                  24178284.173
   -198993.03747                  24853079.206
 -23643091.57249 -18423185.07847  20382492.388    20382493.378
 02  1  9  2 18  0.0000000  0  8G20G13G 1G25G27G 3G 2G22
 -12853061.81049 -10015372.34246  21957139.210    21957139.647
 -15659802.44749 -12202438.49946  21983480.875    21983479.883
 -24616187.30949 -19181438.69947  20391041.025    20391041.689
  -5968926.25248  -4651117.40245  23955522.873    23955526.904
  -1441292.96048  -1123084.16444  24349795.426    24349795.849
   -531720.20048                  24161468.002
   -298357.59547                  24834169.883
 -23605171.00349 -18393636.62947  20389708.498    20389709.615
 02  1  9  2 18 30.0000000  0  8G20G13G 1G25G27G 3G 2G22
 -12768520.67949  -9949496.20746  21973227.158    21973227.517
 -15737380.39249 -12262888.88046  21968718.108    21968716.994
 -24641425.18849 -19201104.61747  20386238.638    20386239.418
  -5887028.96548  -4587301.60145  23971107.744    23971110.115
  -1520623.81748  -1184900.37344  24334700.080    24334700.406
   -619971.44848                  24144674.290
   -397629.51547                  24815279.646
 -23566647.79249 -18363618.59047  20397038.912    20397040.043
 02  1  9  2 19  0.0000000  0  8G20G13G 1G25G27G 3G 2G22
 -12683601.18149  -9883325.24446  21989386.299    21989386.815
 -15814753.22349 -12323179.42546  21953994.659    21953993.456
 -24666296.73149 -19220485.07847  20381505.813    20381506.446
  -5805086.94248  -4523450.92345  23986700.396    23986704.367
  -1599879.48948  -1246658.02144  24319617.242    24319618.741
   -708114.25248   -551775.84644  24127901.807    24127906.212
   -496817.13447                  24796404.932
 -23527534.07249 -18333140.41947  20404481.942    20404483.136
 02  1  9  2 19 30.0000000  0  8G20G13G 1G25G27G 3G 2G22
 -12598311.46749  -9816865.80646  22005616.947    22005617.655
 -15891924.68149 -12383313.06546  21939309.529    21939308.413
 -24690806.01549 -19239583.26447  20376841.854    20376842.469
  -5723106.25948  -4459570.18145  24002301.932    24002304.843
  -1679065.30448  -1308361.20444  24304549.549    24304550.383
   -796151.10348   -620375.98344  24111148.246    24111152.213
   -595924.30047                  24777545.146
 -23487837.19349 -18302207.83647  20412036.330    20412037.409
 02  1  9  2 20  0.0000000  0  8G20G 1G25G13G27G 3G 2G22
 -12512644.91449  -9750112.72146  22021918.515    22021919.310
 -24714942.25349 -19258390.76647  20372249.047    20372249.596
  -5641078.14048  -4395652.45645  24017911.650    24017915.211
 -15968883.28649 -12443280.84546  21924664.775    21924663.685
  -1758171.58648  -1370002.45344  24289495.562    24289495.206
   -884069.42748   -688883.75044  24094418.493    24094422.243
   -694939.95847                  24758703.045
 -23447549.55649 -18270814.92347  20419702.667    20419703.791
 02  1  9  2 20 30.0000000  0  8G20G13G 1G25G27G 3G 2G22
 -12426606.09449  -9683069.56446  22038290.855    22038291.623
 -16045628.92349 -12503082.67146  21910060.908    21910060.123
 -24738705.75049 -19276907.81547  20367727.049    20367727.657
  -5559004.64948  -4331699.37045  24033528.575    24033533.797
  -1837199.93848  -1431582.96944  24274456.791    24274457.017
   -971867.83248   -757298.07644  24077709.944    24077716.441
   -793863.95947                  24739878.862
 -23406674.66749 -18238964.41247  20427480.740    20427481.770
 02  1  9  2 21  0.0000000  0  8G20G13G 1G25G27G 3G 2G22
 -12340188.42849  -9615731.20646  22054736.465    22054736.870
 -16122150.87149 -12562710.20246  21895498.660    21895497.685
 -24762085.94549 -19295126.18947  20363277.981    20363278.487
  -5476877.02348  -4267704.11545  24049158.524    24049161.699
  -1916140.90048  -1493095.36044  24259434.380    24259433.933
  -1059534.26648   -825609.56244  24061028.657    24061031.525
   -892685.17547                  24721072.659
 -23365205.43449 -18206650.77547  20435372.091    20435373.288
 02  1  9  2 21 30.0000000  0  8G20G13G 1G25G27G 3G 2G22
 -12253406.59049  -9548109.06246  22071249.942    22071250.952
 -16198458.69249 -12622170.87646  21880978.188    21880976.976
 -24785093.27249 -19313054.02547  20358899.570    20358900.186
  -5394707.72748  -4203676.37045  24064794.692    24064799.826
  -1995006.08048  -1554548.73944  24244427.117    24244427.763
  -1147077.37048   -893824.97244  24044370.357    24044373.809
   -991413.56448                  24702286.979
 -23323155.48649 -18173884.63147  20443373.902    20443375.244
 02  1  9  2 22  0.0000000  0  8G20G13G 1G25G27G 3G 2G22
 -12166262.59649  -9480204.73546  22087833.273    22087833.943
 -16274549.55049 -12681462.49246  21866498.623    21866497.943
 -24807725.23649 -19330689.36247  20354592.908    20354593.546
  -5312496.61148  -4139616.06045  24080439.124    24080442.630
  -2073794.38148  -1615942.25545  24229434.657    24229435.504
  -1234493.12548   -961941.12244  24027734.090    24027743.522
  -1090046.75547                  24683516.408
 -23280525.84549 -18140666.78547  20451486.252    20451487.462
 02  1  9  2 22 30.0000000  0  8G20G13G 1G25G27G 3G 2G22
 -12078755.94849  -9412017.81346  22104485.334    22104486.123
 -16350418.54249 -12740581.22546  21852060.921    21852059.638
 -24829977.37149 -19348028.73347  20350358.284    20350358.897
  -5230240.82848  -4075520.93445  24096091.906    24096096.188
  -2152502.45748  -1677273.21744  24214456.098    24214455.872
  -1321775.17148  -1029953.09744  24011126.146    24011132.319
  -1188579.67547                  24664766.268
 -23237315.29349 -18106996.27947  20459708.998    20459710.501
 02  1  9  2 23  0.0000000  0  8G20G13G 1G25G27G 3G 2G22
 -11990882.43449  -9343545.02446  22121206.717    22121207.193
 -16426056.79049 -12799520.15746  21837667.962    21837666.844
 -24851841.23949 -19365065.55347  20346197.828    20346198.453
  -5147933.66248  -4011385.79445  24111754.785    24111759.701
  -2231122.81248  -1738535.80444  24199496.258    24199494.685
  -1408913.51948  -1097853.14044  23994543.907    23994550.596
  -1287003.39448                  24646037.711
 -23193518.75449 -18072869.16247  20468043.172    20468044.666
 02  1  9  2 23 30.0000000  0  8G20G13G 1G25G27G 3G 2G22
 -11902654.07649  -9274795.73346  22137996.339    22137997.075
 -16501471.52049 -12858284.92246  21823316.366    21823315.150
 -24873324.57649 -19381805.85947  20342109.843    20342110.478
  -5065584.95848  -3947218.28645  24127424.977    24127430.183
  -2309664.47448  -1799737.12444  24184548.801    24184552.104
  -1495913.93848  -1165645.64444  23977988.153    23977991.476
  -1385325.40047                  24627327.055
 -23149147.59149 -18038294.28747  20476486.902    20476488.205
 02  1  9  2 24  0.0000000  0  8G20G13G 1G25G27G 3G 2G22
 -11814070.75649  -9205769.84946  22154852.928    22154853.761
 -16576657.83749 -12916871.70146  21809009.755    21809008.835
 -24894423.12949 -19398246.33447  20338095.031    20338095.715
  -4983192.50048  -3883016.66445  24143104.712    24143108.130
  -2388124.29648  -1860874.67044  24169618.846    24169620.611
  -1582770.62348                  23961459.631
  -1483541.23448                  24608636.984
 -23104200.47749 -18003270.61447  20485040.155    20485041.570
 02  1  9  2 24 30.0000000  0  8G20G13G 1G25G27G 3G 2G22
 -11725138.24049  -9136471.87046  22171776.707    22171777.928
 -16651616.74849 -12975281.29146  21794745.195    21794744.705
 -24915138.47849 -19414388.20747  20334153.026    20334153.665
  -4900759.39348  -3818783.37245  24158791.182    24158796.051
  -2466504.86748  -1921950.42044  24154703.531    24154704.722
  -1669483.17448  -1300894.36244  23944958.134    23944962.515
  -1581651.81248                  24589967.528
 -23058682.57649 -17967802.18147  20493701.687    20493703.203
 02  1  9  2 25  0.0000000  0  8G20G13G 1G25G27G 3G 2G22
 -11635856.64949  -9066901.88346  22188766.362    22188767.871
 -16726343.71649 -13033510.13246  21780524.903    21780523.826
 -24935466.74449 -19430228.45047  20330284.693    20330285.335
  -4818283.27648  -3754516.59645  24174485.566    24174491.447
  -2544803.41248  -1982962.33044  24139803.947    24139803.011
  -1756046.12148  -1368345.96644  23928485.728    23928495.656
  -1679652.77748                  24571318.551
 -23012593.23049 -17931888.46447  20502472.213    20502473.903
 02  1  9  2 25 30.0000000  0  8G20G13G 1G25G27G 3G 2G22
 -11546233.25749  -8997065.55646  22205821.035    22205821.498
 -16800841.05649 -13091560.05846  21766349.160    21766347.635
 -24955410.86749 -19445769.36247  20326489.470    20326490.052
  -4735769.38548  -3690220.40445  24190188.496    24190193.556
  -2623024.12248  -2043913.52844  24124918.746    24124920.056
  -1842460.56148  -1435681.85644  23912042.004    23912048.463
  -1777546.92748                  24552689.332
 -22965938.96349 -17895534.54647  20511350.239    20511351.891
 02  1  9  2 26  0.0000000  0  8G20G13G 1G25G27G 3G 2G22
 -11456276.08049  -8926969.12746  22222939.767    22222941.582
 -16875112.07449 -13149433.62446  21752215.839    21752214.799
 -24974974.74549 -19461013.98747  20322766.790    20322767.692
  -4653223.12748  -3625898.94845  24205896.639    24205901.292
  -2701171.83648  -2104807.82144  24110047.481    24110048.194
  -1928728.59048  -1502903.69944  23895625.263    23895629.635
  -1875337.54548                  24534081.691
 -22918726.85249 -17858745.95147  20520334.536    20520336.055
 02  1  9  2 26 30.0000000  0  8G20G13G 1G25G27G 3G 2G22
 -11365981.35849  -8856609.69146  22240121.896    22240123.088
 -16949148.13849 -13207124.10846  21738126.842    21738126.330
 -24994150.28049 -19475956.00547  20319117.919    20319118.560
  -4570638.12648  -3561547.34145  24221612.033    24221616.778
  -2779239.69248  -2165639.89944  24095192.198    24095193.865
  -2014840.40948  -1570003.79044  23879238.524    23879247.460
  -1973016.23948  -1537414.87044  24515492.853    24515492.869
 -22870952.48149 -17821519.23347  20529425.935    20529427.565
 02  1  9  2 27  0.0000000  0  8G20G13G 1G25G27G 3G 2G22
 -11275347.46749  -8785985.97745  22257369.090    22257369.969
 -17022942.95049 -13264626.59646  21724084.384    21724083.384
 -25012931.56849 -19490590.81647  20315543.908    20315544.710
  -4488010.72748  -3497162.66645  24237336.356    24237340.634
  -2857223.02248  -2226406.17944  24080352.547    24080352.358
  -2100788.31348                  23862883.878
  -2070576.77348                  24496928.264
 -22822613.31049 -17783852.40947  20538624.615    20538626.323
 02  1  9  2 27 30.0000000  0  8G20G13G 1G25G27G 3G 2G22
 -11184375.81749  -8715099.06246  22274680.336    22274681.859
 -17096492.96949 -13321938.34746  21710088.531    21710087.358
 -25031316.00649 -19504916.39247  20312045.491    20312046.278
  -4405340.13148  -3432744.35144  24253067.440    24253072.233
  -2935120.29948  -2287105.36244  24065528.832    24065531.708
  -2186568.19448  -1703817.59844  23846559.969    23846567.908
  -2168016.39748                  24478385.913
 -22773710.21649 -17745746.16447  20547930.921    20547932.430
 02  1  9  2 28  0.0000000  0  8G20G13G 1G25G27G 3G 2G22
 -11093072.08449  -8643953.39345  22292055.299    22292056.064
 -17169799.08149 -13379060.02946  21696138.717    21696137.902
 -25049305.08049 -19518933.90247  20308622.296    20308623.182
  -4322629.51648  -3368294.85145  24268807.835    24268811.619
  -3012933.86748  -2347739.33644  24050721.767    24050723.203
  -2272179.36348  -1770527.55544  23830269.570    23830274.856
  -2265335.78748                  24459865.929
 -22724248.04949 -17707204.27847  20557343.072    20557344.803
 02  1  9  2 28 30.0000000  0  8G20G13G 1G25G27G 3G 2G22
 -11001433.01349  -8572546.42145  22309493.807    22309495.461
 -17242853.27549 -13435985.41846  21682236.885    21682235.885
 -25066891.20649 -19532637.42947  20305275.700    20305276.657
  -4239872.91248  -3303809.52545  24284555.903    24284562.408
  -3090657.39348  -2408303.11144  24035932.191    24035933.034
  -2357612.63648  -1837098.90344  23814011.624    23814017.602
  -2362527.13448                  24441371.893
 -22674222.62549 -17668223.49447  20566862.846    20566864.280
 02  1  9  2 29  0.0000000  0  8G20G13G 1G25G27G 3G 2G22
 -10909469.50049  -8500886.63045  22326993.602    22326995.247
 -17315661.24149 -13492718.93846  21668381.931    21668381.024
 -25084080.98549 -19546032.11147  20302004.650    20302005.692
  -4157078.90048  -3239295.05045  24300310.366    24300317.193
  -3168298.59348  -2468802.77844  24021157.184    24021156.794
  -2442873.05148  -1903535.55444  23797787.418    23797795.045
  -2459596.62748                  24422900.112
 -22623644.24149 -17628811.83047  20576487.463    20576488.982
 02  1  9  2 29 30.0000000  0  8G20G13G 1G25G27G 3G 2G22
 -10817183.24549  -8428975.36545  22344555.337    22344556.000
 -17388220.36149 -13549258.55446  21654574.289    21654573.385
 -25100872.06949 -19559116.11047  20298809.366    20298810.413
  -4074246.73548  -3174750.83444  24316074.764    24316079.480
  -3245856.27648  -2529237.30544  24006398.600    24006398.989
  -2527956.33948  -1969834.17244  23781596.527    23781600.736
  -2556541.88448                  24404451.810
 -22572514.17849 -17588970.28947  20586217.390    20586219.078
 02  1  9  2 30  0.0000000  0  8G20G13G 1G25G27G 3G 2G22
 -10724581.08248  -8356817.92545  22362176.692    22362178.143
 -17460532.35249 -13605605.60746  21640813.855    21640813.232
 -25117266.86949 -19571891.31547  20295689.588    20295690.696
  -3991380.42248  -3110180.00744  24331843.028    24331847.046
  -3323333.94148  -2589609.55445  23991655.062    23991655.301
  -2612862.87448  -2035995.09444  23765439.342    23765444.456
  -2653364.58548                  24386027.268
 -22520838.17049 -17548703.33547  20596051.091    20596052.594
 02  1  9  2 30 30.0000000  0  8G20G13G 1G25G27G 3G 2G22
 -10631660.39248  -8284412.30145  22379859.137    22379859.655
 -17532589.90649 -13661754.39346  21627101.874    21627100.842
 -25133258.62549 -19584352.46247  20292646.489    20292647.658
  -3908474.84748  -3045578.61645  24347619.322    24347625.894
  -3400725.89448  -2649914.99345  23976928.179    23976927.941
  -2697584.06048  -2102011.58044  23749317.943    23749324.694
  -2750057.65748                  24367628.004
 -22468613.02349 -17508008.48547  20605989.327    20605990.803
 02  1  9  2 31  0.0000000  0  8G20G13G 1G25G27G 3G 2G22
 -10538428.36448  -8211764.06245  22397600.935    22397601.510
 -17604394.75949 -13717706.28046  21613438.108    21613437.018
 -25148850.36149 -19596501.91047  20289679.609    20289680.695
  -3825535.28548  -2980950.72845  24363402.888    24363409.525
  -3478036.22648  -2710156.82145  23962217.200    23962217.762
  -2782121.27048  -2167884.67444  23733230.725    23733236.230
  -2846623.74348                  24349251.166
 -22415845.20649 -17466890.77547  20616030.287    20616032.019
 02  1  9  2 31 30.0000000  0  8G20G13G 1G25G27G 3G 2G22
 -10444880.64348  -8138869.84245  22415402.345    22415402.651
 -17675937.91149 -13773454.23946  21599823.510    21599822.711
 -25164033.64549 -19608333.08847  20286790.301    20286791.468
  -3742554.70448  -2916290.87545  24379193.716    24379199.387
  -3555257.55548  -2770329.30445  23947521.041    23947523.534
  -2866464.05048  -2233606.27644  23717180.485    23717184.973
  -2943053.96448  -2293288.71244  24330901.567    24330901.966
 -22362529.98949 -17425346.51647  20626175.882    20626177.663
 02  1  9  2 32  0.0000000  0  8G20G13G 1G25G27G 3G 2G22
 -10351040.17448  -8065747.50545  22433259.512    22433261.822
 -17747237.80149 -13829012.64946  21586256.056    21586255.185
 -25178827.11249 -19619860.50547  20283975.361    20283976.424
  -3659553.42748  -2851614.90444  24394988.212    24394995.478
  -3632409.50648  -2830447.70345  23932840.850    23932841.966
  -2950629.40548  -2299189.64544  23701165.419    23701170.328
  -3039366.63448                  24312574.358
 -22308689.46049 -17383392.92747  20636421.755    20636423.429
 02  1  9  2 32 30.0000000  0  8G20G13G 1G25G27G 3G 2G22
 -10256894.89948  -7992387.64345  22451175.271    22451176.254
 -17818277.04449 -13884367.95746  21572737.194    21572736.744
 -25193214.40649 -19631071.43347  20281237.627    20281238.577
  -3576516.87448  -2786911.46945  24410790.587    24410795.826
  -3709476.70548  -2890500.09845  23918174.682    23918176.981
  -3034598.96848  -2364620.48144  23685185.338    23685190.892
  -3135544.90448                  24294271.910
 -22254310.83449 -17341020.04247  20646769.639    20646771.246
 02  1  9  2 33  0.0000000  0  8G20G13G 1G25G27G 3G 2G22
 -10162454.38748  -7918797.75345  22469146.777    22469148.219
 -17889060.36449 -13939523.84646  21559268.154    21559267.370
 -25207201.03349 -19641970.15247  20278576.148    20278577.155
  -3493452.51448  -2722186.33445  24426596.408    24426604.599
  -3786465.96448  -2950491.73944  23903523.843    23903524.330
  -3118376.37948  -2429901.52345  23669243.663    23669247.971
  -3231593.86948                  24275994.465
 -22199403.06549 -17298234.83947  20657218.392    20657220.046
 02  1  9  2 33 30.0000000  0  8G20G13G 1G25G27G 3G 2G22
 -10067709.51648  -7844970.68345  22487176.371    22487177.560
 -17959573.73749 -13994469.38546  21545849.750    21545848.850
 -25220773.72549 -19652546.32847  20275993.358    20275994.545
  -3410348.04448  -2657429.96245  24442411.399    24442419.590
  -3863364.81548  -3010412.95245  23888892.106    23888892.748
  -3201946.45848  -2495021.07145  23653340.802    23653344.710
  -3327499.55748                  24257744.154
 -22143956.32249 -17255029.65247  20667769.452    20667771.077
 02  1  9  2 34  0.0000000  0  8G13G20G 1G25G27G 3G 2G22
 -18029828.07849 -14049213.07846  21532480.815    21532480.127
  -9972676.13948  -7770918.81145  22505260.089    22505261.554
 -25233944.08849 -19662808.99547  20273487.109    20273488.160
  -3327217.31048  -2592653.15244  24458231.099    24458236.087
  -3940186.03748  -3070273.63845  23874271.834    23874274.187
  -3285318.99848  -2559986.68645  23637476.530    23637479.582
  -3423273.36448                  24239519.929
 -22087986.03649 -17211416.51247  20678420.403    20678422.013
 02  1  9  2 34 30.0000000  0  8G13G20G 1G25G27G 3G 2G22
 -18099814.86949 -14103748.29946  21519163.327    21519161.967
  -9877350.93048  -7696639.53445  22523400.215    22523401.929
 -25246704.38249 -19672752.12547  20271058.957    20271060.015
  -3244053.86448  -2527850.81944  24474056.546    24474065.234
  -4016922.96748  -3130068.70645  23859670.605    23859670.110
  -3368484.66448  -2624791.07845  23621649.405    23621654.591
  -3518907.42848                  24221319.977
 -22031488.03949 -17167392.17047  20689171.350    20689173.161
 02  1  9  2 35  0.0000000  0  7G20G13G 1G25G27G 2G22
  -9781732.51648  -7622131.78245  22541595.524    22541596.339
 -18169528.21749 -14158070.44146  21505896.498    21505896.021
 -25259049.09849 -19682371.44247  20268709.878    20268710.790
  -3160854.11348  -2463020.21744  24489889.564    24489895.102
  -4093571.08048  -3189794.54944  23845083.182    23845084.505
  -3614395.73948                  24203149.811
 -21974460.44249 -17122955.15347  20700023.662    20700025.515
 02  1  9  2 35 30.0000000  0  7G13G20G 1G25G27G 2G22
 -18238959.36649 -14212172.68446  21492684.395    21492684.068
  -9685817.49948  -7547392.92045  22559847.950    22559849.355
 -25270970.81449 -19691661.14147  20266441.296    20266442.332
  -3077612.12948  -2398156.70744  24505730.043    24505733.927
  -4170123.78948  -3249446.04245  23830517.466    23830516.478
  -3709730.28347                  24185008.194
 -21916899.26349 -17078102.36047  20710977.297    20710979.092
 02  1  9  2 36  0.0000000  0  7G13G20G 1G25G27G31G22
 -18308137.96049 -14266078.13046  21479520.805    21479519.781
  -9589640.13948  -7472449.62345  22578150.446    22578152.465
 -25282499.65549 -19700644.70047  20264247.590    20264248.768
  -2994359.59848  -2333284.95544  24521572.992    24521580.781
  -4246612.27748  -3309047.48445  23815961.084    23815962.539
        -1.16558         -.83454  25235185.797    25235192.217
 -21858838.12049 -17032859.98447  20722026.037    20722027.999
 02  1  9  2 36 30.0000000  0  6G13G20G 1G25G27G22
 -18377021.76549 -14319753.86846  21466412.499    21466411.586
  -9493163.48848  -7397273.12045  22596509.124    22596511.583
 -25293594.49949 -19709290.07747  20262136.255    20262137.318
  -2911056.89048  -2268374.12245  24537424.926    24537433.366
  -4322996.40748  -3368567.62944  23801425.803    23801426.584
 -21800239.62549 -16987198.88947  20733176.901    20733178.808
 02  1  9  2 37  0.0000000  0  7G13G20G 1G25G27G31G22
 -18445624.39449 -14373210.50646  21453357.552    21453357.146
  -9396405.91848  -7321877.71945  22614921.106    22614922.855
 -25304269.71749 -19717608.47647  20260104.667    20260105.687
  -2827719.88848  -2203436.60044  24553283.579    24553289.008
  -4399291.26748  -3428018.22844  23786907.648    23786909.368
         -.86258                  25195694.982
 -21741121.47549 -16941132.87147  20744426.881    20744428.710
 02  1  9  2 37 30.0000000  0  7G13G20G 1G25G27G31G22
 -18513949.19649 -14426450.65646  21440355.962    21440355.274
  -9299375.96548  -7246270.07145  22633386.218    22633387.864
 -25314529.46749 -19725603.14847  20258152.274    20258153.247
  -2744354.47948  -2138476.89944  24569148.504    24569156.944
  -4475502.21748  -3487403.39645  23772404.811    23772407.035
   -103933.48048    -80986.26944  25175919.203    25175924.273
 -21681491.74149 -16894668.22047  20755773.951    20755776.003
 02  1  9  2 38  0.0000000  0  7G13G20G 1G25G27G31G22
 -18582000.22649 -14479477.48446  21427406.225    21427405.434
  -9202082.54248  -7170457.13545  22651900.458    22651901.576
 -25324378.52949 -19733277.80047  20256278.302    20256279.387
  -2660966.99848  -2073500.01844  24585015.868    24585022.238
  -4551635.02448  -3546727.69744  23757917.723    23757919.217
   -207987.53648                  25156118.262
 -21621358.60949 -16847811.31247  20767217.093    20767219.056
 02  1  9  2 38 30.0000000  0  6G13G20G 1G25G27G22
 -18649760.40649 -14532277.66846  21414511.988    21414511.444
  -9104513.70848  -7094429.57645  22670466.961    22670469.361
 -25333800.83149 -19740619.90947  20254485.325    20254486.395
  -2577542.80248  -2008494.50944  24600891.103    24600902.273
  -4627674.46648  -3605979.27145  23743447.140    23743447.519
 -21560709.66549 -16800552.46747  20778758.283    20778760.259
 02  1  9  2 39  0.0000000  0  7G13G20G 1G25G27G 2G22
 -18717243.59449 -14584862.02146  21401670.520    21401669.890
  -9006688.46648  -7018202.23745  22689082.926    22689084.033
 -25342811.04049 -19747640.91247  20252770.837    20252771.920
  -2494098.27248  -1943473.19744  24616771.520    24616774.932
  -4703636.24348  -3665170.31745  23728993.044    23728994.540
         -.44157                  24058799.208
 -21499563.35049 -16752906.06847  20790393.970    20790396.059
 02  1  9  2 39 30.0000000  0  7G13G 1G25G20G27G 2G22
 -18784430.89549 -14637215.81846  21388885.116    21388884.691
 -25351390.98049 -19754326.64447  20251138.090    20251139.069
  -2410616.70748  -1878422.98644  24632656.663    24632664.097
  -8908592.74248  -6941764.10945  22707749.962    22707751.297
  -4779503.01448  -3724287.32845  23714555.366    23714556.333
    -94131.45447                  24040886.905
 -21437904.95149 -16704860.64347  20802127.175    20802129.208
 02  1  9  2 40  0.0000000  0  8G13G 1G25G20G27G31G 2G22
 -18851323.85249 -14689340.25546  21376155.742    21376155.218
 -25359543.00949 -19760678.93447  20249586.862    20249587.776
  -2327101.88548  -1813346.85944  24648549.537    24648556.108
  -8810232.81648  -6865120.12445  22726467.052    22726467.141
  -4855278.24448  -3783333.00645  23700136.113    23700136.691
          .19158          .99654  25076713.478    25076716.808
   -188099.88648                  24023005.750
 -21375740.44249 -16656420.84547  20813956.584    20813958.712
 02  1  9  2 40 30.0000000  0  8G13G 1G25G20G27G31G 2G22
 -18917926.60149 -14741238.55846  21363481.602    21363481.060
 -25367272.30749 -19766701.82747  20248116.023    20248117.102
  -2243560.85548  -1748250.33444  24664447.951    24664457.135
  -8711618.22748  -6788277.69945  22745233.196    22745236.061
  -4930968.02648  -3842312.11945  23685732.488    23685732.722
   -104571.67448                  25056813.838
   -281910.32348                  24005155.024
 -21313078.82449 -16607593.69547  20825880.846    20825882.692
 02  1  9  2 41  0.0000000  0  8G13G 1G25G20G27G31G 2G22
 -18984234.09649 -14792906.79446  21350863.795    21350863.206
 -25374574.57649 -19772391.96747  20246726.524    20246727.640
  -2159990.47348  -1683131.02644  24680350.428    24680356.287
  -8612748.55348  -6711236.49345  22764046.860    22764049.960
  -5006568.83248  -3901221.87645  23671346.804    23671349.891
   -209239.06048                  25036897.488
   -375558.04148   -292643.07344  23987333.292    23987336.596
 -21249919.23549 -16558378.51647  20837899.776    20837902.011
 02  1  9  2 41 30.0000000  0  8G13G 1G25G20G27G31G 2G22
 -19050244.22649 -14844343.32446  21338302.636    21338302.383
 -25381448.88749 -19777748.64047  20245418.332    20245419.417
  -2076391.26648  -1617989.17344  24696259.115    24696265.367
  -8513627.14748  -6633999.17045  22782909.159    22782913.102
  -5082080.59948  -3960062.26545  23656976.725    23656978.127
   -313999.57148   -244674.07544  25016961.914    25016968.271
   -469041.42648   -365487.36744  23969544.752    23969548.685
 -21186264.37349 -16508777.40947  20850012.922    20850015.182
 02  1  9  2 42  0.0000000  0  8G13G 1G25G20G27G31G 2G22
 -19115956.06149 -14895547.41446  21325798.407    21325798.017
 -25387895.11649 -19782771.74247  20244191.484    20244192.689
  -1992764.37548  -1552825.67144  24712174.217    24712182.408
  -8414257.94848  -6556568.73344  22801819.228    22801819.842
  -5157504.06548  -4018833.85245  23642625.187    23642624.800
   -418851.58148                  24997008.438
   -562359.96548                  23951786.002
 -21122117.51149 -16458792.92847  20862219.895    20862222.019
 02  1  9  2 42 30.0000000  0  8G13G 1G25G20G27G31G 2G22
 -19181390.09049 -14946535.02746  21313346.498    21313346.033
 -25393934.72049 -19787477.99647  20243042.335    20243043.747
  -1909132.98148  -1487658.78244  24728088.762    24728098.442
  -8314666.61448  -6478965.19444  22820770.503    22820773.592
  -5232861.57348  -4077554.05545  23628284.731    23628286.167
   -523814.87148                  24977034.199
   -655534.91648   -510806.91744  23934056.292    23934060.404
 -21057503.89249 -16408444.74147  20874515.506    20874517.805
 02  1  9  2 43  0.0000000  0  8G13G 1G25G20G27G31G 2G22
 -19246514.43049 -14997281.33046  21300953.598    21300952.826
 -25399536.85849 -19791843.37347  20241976.408    20241977.746
  -1825468.00348                  24744009.377
  -8214826.34748  -6401167.71244  22839769.831    22839770.719
  -5308123.18848  -4136199.50245  23613962.671    23613964.335
   -628857.11648   -490017.72944  24957046.292    24957056.469
   -748534.71948                  23916357.836
 -20992396.42349 -16357711.73647  20886905.111    20886907.277
 02  1  9  2 43 30.0000000  0  8G13G 1G25G20G27G31G 2G22
 -19311327.59649 -15047785.15746  21288620.567    21288619.832
 -25404701.03649 -19795867.48247  20240993.643    20240994.872
  -1741769.91448  -1357246.78444  24759937.534    24759944.178
  -8114740.65548  -6323179.00044  22858814.588    22858815.674
  -5383289.14348  -4194770.43445  23599659.482    23599661.123
   -733975.79548                  24937043.115
   -841358.50948   -655604.56244  23898695.028    23898694.630
 -20926798.07649 -16306596.23147  20899387.883    20899390.257
 02  1  9  2 44  0.0000000  0  8G13G 1G25G20G27G31G 2G22
 -19375826.54749 -15098044.14046  21276346.914    21276346.426
 -25409424.79449 -19799548.39747  20240094.797    20240096.291
  -1658037.94948  -1292001.44044  24775871.164    24775879.852
  -8014411.26548  -6245000.35044  22877907.491    22877909.886
  -5458358.02848  -4253265.74945  23585374.226    23585377.496
   -839166.75748   -653895.43444  24917026.267    24917032.809
   -934003.50448                  23881064.850
 -20860710.23449 -16255099.30547  20911964.126    20911966.494
 02  1  9  2 44 30.0000000  0  8G13G 1G25G20G27G31G 2G22
 -19440017.39449 -15148063.03846  21264131.105    21264130.808
 -25413715.37449 -19802891.78947  20239278.278    20239279.724
  -1574280.62448  -1226736.45444  24791809.552    24791818.984
  -7913849.73048  -6166640.81344  22897042.923    22897047.119
  -5533337.74648  -4311691.54145  23571106.628    23571107.736
   -944435.33448                  24896993.430
  -1026476.23848   -799852.17144  23863467.570    23863471.276
 -20794143.57249 -16203229.27147  20924631.603    20924633.953
 02  1  9  2 45  0.0000000  0  8G13G 1G25G20G27G31G 2G22
 -19503907.10249 -15197847.28146  21251973.784    21251973.389
 -25417580.88049 -19805903.93647  20238542.848    20238544.268
  -1490507.25948  -1161458.84744  24807751.834    24807761.266
  -7813067.87448  -6088109.66144  22916222.322    22916224.896
  -5608237.21548  -4370054.83145  23556853.742    23556855.033
  -1049787.89048   -818015.76844  24876945.650    24876953.079
  -1118784.46848                  23845902.577
 -20727109.84349 -16150995.29347  20937387.792    20937390.218
 02  1  9  2 45 30.0000000  0  8G13G 1G25G20G27G31G 2G22
 -19567488.59049 -15247391.35246  21239875.027    21239874.597
 -25421015.15649 -19808580.06147  20237889.358    20237890.717
  -1406713.04848  -1096165.04444  24823698.390    24823702.052
  -7712063.53048  -6009405.05544  22935441.873    22935445.388
  -5683051.32548  -4428351.59845  23542616.609    23542618.339
  -1155216.39248   -900167.79744  24856883.444    24856891.635
  -1210921.67348   -943575.90344  23828369.264    23828372.779
 -20659606.52749 -16098395.40747  20950233.510    20950235.726
 02  1  9  2 46  0.0000000  0  8G13G 1G25G20G27G31G 2G22
 -19630755.62049 -15296690.39246  21227835.191    21227834.723
 -25424012.78349 -19810915.94747  20237318.936    20237320.475
  -1322894.39248  -1030852.18144  24839647.551    24839653.610
  -7610835.73948  -5930526.38744  22954706.103    22954707.949
  -5757775.34048  -4486578.15945  23528397.944    23528399.029
  -1260713.77848   -982373.45944  24836808.266    24836816.706
  -1302881.68748  -1015233.14444  23810870.218    23810872.054
 -20591631.82749 -16045428.20747  20963168.644    20963171.027
 02  1  9  2 46 30.0000000  0  8G13G 1G25G20G27G31G 2G22
 -19693700.75149 -15345738.60046  21215857.248    21215856.726
 -25426567.63749 -19812906.81147  20236832.788    20236834.297
  -1239046.51848   -965516.58944  24855604.337    24855611.761
  -7509382.09348  -5851471.75544  22974011.430    22974012.009
  -5832403.89148  -4544730.34245  23514196.116    23514196.534
  -1366272.34448                  24816720.260
  -1394657.95148                  23793405.412
 -20523183.29749 -15992091.79047  20976193.686    20976196.611
 02  1  9  2 47  0.0000000  0  8G13G 1G25G20G27G31G 2G22
 -19756336.14149 -15394545.45747  21203938.416    21203938.179
 -25428692.89249 -19814562.91447  20236428.378    20236430.086
  -1155183.08548   -900168.89144  24871563.629    24871571.407
  -7407719.95648  -5772254.60444  22993357.372    22993358.984
  -5906950.86048  -4602818.94045  23500010.583    23500010.195
  -1471903.29348                  24796619.527
  -1486263.13748                  23775973.091
 -20454277.57849 -15938399.12747  20989306.323    20989308.608
 02  1  9  2 47 30.0000000  0  8G13G22G 1G25G20G27G31G 2
 -19818652.23749 -15443103.50747  21192080.106    21192079.796
 -20384909.77849 -15884346.39846  21002506.650    21002509.013
 -25430380.00249 -19815877.61247  20236107.623    20236109.161
  -1071297.35848   -834803.76144  24887525.925    24887528.244
  -7305844.51448  -5692871.28144  23012743.748    23012748.747
  -5981408.28848  -4660837.77545  23485842.397    23485843.281
  -1577596.11048  -1229294.33844  24776507.268    24776516.204
  -1577688.04648                  23758576.108
 02  1  9  2 48  0.0000000  0  8G13G22G 1G25G20G27G31G 2
 -19880646.99849 -15491411.16947  21180282.994    21180282.776
 -20315082.34449 -15829935.51546  21015794.256    21015796.920
 -25431627.93649 -19816850.10347  20235870.294    20235872.043
   -987389.48248                  24903493.699
  -7203758.99248  -5613324.26444  23032170.390    23032172.763
  -6055775.98948  -4718786.69145  23471689.406    23471690.181
  -1683347.97248                  24756381.863
  -1668931.23248  -1300466.59244  23741213.222    23741215.092
 02  1  9  2 48 30.0000000  0  8G13G22G 1G25G20G27G31G 2
 -19942314.01049 -15539463.44347  21168548.281    21168548.021
 -20244793.69049 -15775165.24346  21029170.018    21029172.302
 -25432431.32149 -19817476.18247  20235717.312    20235719.080
   -903455.63148                  24919466.724
  -7101461.94748  -5533612.41344  23051636.971    23051640.323
  -6130049.46348  -4776662.18145  23457556.777    23457557.477
  -1789151.47448  -1394142.38444  24736249.357    24736259.782
  -1759986.75048  -1371418.92944  23723885.514    23723886.901
 02  1  9  2 49  0.0000000  0  8G13G22G 1G25G20G27G31G 2
 -20003661.18849 -15587266.49647  21156874.555    21156874.338
 -20174056.14049 -15720045.17946  21042631.222    21042633.386
 -25432799.11549 -19817762.83447  20235647.212    20235648.857
   -819505.71048                  24935442.056
  -6998966.25548  -5453745.77444  23071140.915    23071141.587
  -6204238.36148  -4834471.77645  23443438.539    23443440.488
  -1895014.01348  -1476632.50144  24716103.559    24716110.770
  -1850863.08848  -1442231.69344  23706592.310    23706594.304
 02  1  9  2 49 30.0000000  0  8G13G22G 1G25G20G27G31G 2
 -20064681.40249 -15634814.76947  21145262.545    21145262.354
 -20102867.72549 -15664573.79146  21056177.806    21056180.312
 -25432725.37549 -19817705.44647  20235661.427    20235663.260
   -735535.69248                  24951420.362
  -6896270.12248  -5373722.92144  23090683.928    23090683.429
  -6278337.67548  -4892211.55145  23429337.578    23429339.222
  -2000927.48548  -1559162.34544  24695949.372    24695958.060
  -1941553.90248  -1512899.90744  23689334.992    23689336.542
 02  1  9  2 50  0.0000000  0  8G13G22G 1G25G20G27G31G 2
 -20125369.40749 -15682104.18347  21133713.877    21133713.879
 -20031227.73449 -15608750.53546  21069810.320    21069813.313
 -25432205.94249 -19817300.75747  20235760.325    20235762.267
   -651542.09948                  24967404.281
  -6793373.50048                  23110264.659
  -6352343.85948  -4949878.75045  23415255.409    23415256.006
  -2106885.94848  -1641727.27444  24675785.586    24675793.037
  -2032054.41648  -1583419.76244  23672112.561    23672117.490
 02  1  9  2 50 30.0000000  0  8G13G22G 1G25G20G27G31G 2
 -20185714.24349 -15729126.19247  21122230.840    21122230.603
 -19959129.78549 -15552570.42646  21083530.709    21083533.321
 -25431230.92049 -19816541.07447  20235945.822    20235947.778
   -567516.30648   -442249.50944  24983394.828    24983401.031
  -6690270.22648  -5213203.80944  23129884.173    23129888.681
  -6426247.57548  -5007466.14645  23401191.297    23401193.184
  -2212877.16748  -1724317.69244  24655616.563    24655622.210
  -2122353.93548  -1653783.05644  23654929.875    23654932.178
 02  1  9  2 51  0.0000000  0  8G13G22G 1G25G20G27G31G 2
 -20245725.57349 -15775888.33147  21110811.031    21110811.008
 -19886588.38949 -15496044.76746  21097334.572    21097337.616
 -25429811.39149 -19815435.02747  20236215.871    20236217.827
   -483470.45548                  24999388.293
  -6586975.15248  -5132714.28844  23149540.170    23149543.598
  -6500060.39048  -5064982.66745  23387145.660    23387146.339
  -2318910.20748  -1806940.71844  24635439.306    24635443.070
  -2212463.12548  -1723998.02744  23637781.767    23637784.814
 02  1  9  2 51 30.0000000  0  8G13G22G 1G25G20G27G31G 2
 -20305401.81449 -15822389.35847  21099455.133    21099454.987
 -19813606.49849 -15439175.87446  21111222.190    21111225.209
 -25427946.70549 -19813982.10347  20236571.003    20236572.949
   -399405.04548                  25015386.286
  -6483491.57548  -5052077.86744  23169233.302    23169238.988
  -6573782.42148  -5122428.47245  23373116.638    23373117.881
  -2424982.68048  -1889594.53144  24615254.539    24615259.889
  -2302380.91548  -1794063.86044  23620671.766    23620674.593
 02  1  9  2 52  0.0000000  0  8G13G22G 1G25G20G27G31G 2
 -20364739.11849 -15868626.27947  21088163.489    21088163.306
 -19740185.08149 -15381964.48646  21125194.292    21125197.355
 -25425634.15249 -19812180.19447  20237011.003    20237012.814
   -315319.09148                  25031387.148
  -6379820.95448                  23188960.953
  -6647411.71648  -5179802.02145  23359105.437    23359108.560
  -2531089.84248  -1972275.36944  24595062.226    24595069.408
  -2392104.10448  -1863978.05244  23603597.348    23603602.243
 02  1  9  2 52 30.0000000  0  8G13G22G 1G25G20G27G31G 2
 -20423739.02649 -15914600.29347  21076936.083    21076936.023
 -19666330.47149 -15324415.54946  21139248.295    21139251.341
 -25422876.43149 -19810031.39447  20237535.806    20237537.867
   -231216.08748                  25047391.580
  -6275969.73948  -4890372.80744  23208723.986    23208724.382
  -6720951.59748  -5237105.85745  23345111.745    23345114.619
  -2637232.12048  -2054983.54044  24574863.338    24574871.778
  -2481634.73548  -1933742.22144  23586560.284    23586560.652
 02  1  9  2 53  0.0000000  0  8G13G22G 1G25G20G27G31G 2
 -20482399.74149 -15960310.00347  21065773.688    21065773.526
 -19592045.17449 -15266531.01646  21153384.492    21153387.592
 -25419672.78449 -19807535.12347  20238145.349    20238147.256
   -147096.42048                  25063399.472
  -6171941.15248  -4809311.69944  23228519.362    23228523.005
  -6794401.82648  -5294339.89545  23331134.396    23331135.646
  -2743406.56648  -2137716.88344  24554658.603    24554664.219
  -2570971.43048  -2003355.27244  23569560.581    23569562.765
 02  1  9  2 53 30.0000000  0  8G13G22G 1G25G20G27G31G 2
 -20540715.70949 -16005751.07847  21054676.351    21054676.206
 -19517328.62549 -15208310.44146  21167602.897    21167605.929
 -25416018.85249 -19804687.98047  20238841.057    20238843.041
    -62957.33448                  25079410.060
  -6067734.68348  -4728111.99244  23248350.254    23248351.991
  -6867758.72848  -5351501.17845  23317174.939    23317177.607
  -2849607.00348  -2220470.43844  24534450.130    24534457.221
  -2660109.28648  -2072813.38144  23552597.888    23552601.179
 02  1  9  2 54  0.0000000  0  8G13G22G 1G25G20G27G31G 2
 -20598680.81149 -16050918.75447  21043645.970    21043646.028
 -19442179.54449 -15149752.83046  21181903.279    21181906.325
 -25411909.83149 -19801486.22547  20239623.205    20239625.127
     21205.24048                  25095426.934
  -5963349.46348  -4646772.99644  23268213.902    23268214.660
  -6941018.10648  -5408586.46845  23303234.613    23303235.363
  -2955826.35548  -2303238.78644  24514237.203    24514246.883
  -2749042.85348  -2142112.29844  23535674.844    23535678.849
 02  1  9  2 54 30.0000000  0  8G13G22G 1G25G20G27G31G 2
 -20656302.32949 -16095818.70147  21032681.051    21032680.757
 -19366610.02449 -15090867.60546  21196283.699    21196286.531
 -25407354.33349 -19797936.56747  20240490.050    20240491.919
    105381.62348                  25111444.857
  -5858798.03048  -4565304.48844  23288108.727    23288112.157
  -7014189.24748  -5465602.99445  23289310.003    23289311.866
  -3062071.14248                  24494019.336
  -2837780.23248  -2211258.36844  23518788.484    23518790.919
 02  1  9  2 55  0.0000000  0  8G13G22G 1G25G20G27G31G 2
 -20713569.08149 -16140442.20647  21021783.891    21021783.831
 -19290613.43049 -15031649.59246  21210745.205    21210748.378
 -25402342.08649 -19794030.99947  20241443.788    20241445.658
    189580.77548                  25127467.356
  -5754073.83148  -4483701.31644  23308037.303    23308041.855
  -7087262.25649  -5522543.06745  23275405.567    23275407.317
  -3168329.01948  -2468825.28944  24473799.526    24473806.119
  -2926310.49048  -2280243.03344  23501941.909    23501945.393
 02  1  9  2 55 30.0000000  0  8G13G22G 1G25G20G27G31G 2
 -20770486.91849 -16184793.82447  21010952.935    21010952.754
 -19214200.50949 -14972107.17246  21225286.479    21225289.563
 -25396880.47649 -19789775.27747  20242483.101    20242485.135
    273794.30848                  25143492.886
  -5649187.99248  -4401972.28844  23327996.660    23327998.931
  -7160245.12449  -5579412.88445  23261517.751    23261518.979
  -3274605.18648  -2551637.84244  24453575.756    24453584.196
  -3014640.51048  -2349071.62944  23485132.944    23485135.869
 02  1  9  2 56  0.0000000  0  8G13G22G 1G25G20G27G31G 2
 -20827040.68549 -16228861.75447  21000190.558    21000190.685
 -19137360.57049 -14912232.00846  21239908.295    21239911.490
 -25390955.05749 -19785158.14247  20243610.896    20243612.750
    358035.47048                  25159524.142
  -5544130.22048  -4320109.20544  23347988.388    23347989.977
  -7233124.17848  -5636201.81445  23247648.079    23247650.799
  -3380883.02948  -2634451.78444  24433351.648    24433361.576
  -3102755.38348  -2417732.62144  23468365.476    23468369.380
 02  1  9  2 56 30.0000000  0  8G22G 1G25G20G13G27G31G 2
 -19060110.19849 -14852037.03046  21254609.038    21254612.153
 -25384579.10549 -19780189.94947  20244824.381    20244826.407
    442290.14948    344607.71244  25175558.060    25175565.684
  -5438917.31848  -4238125.27244  23368009.712    23368013.736
 -20883242.10249 -16272655.12147  20989496.443    20989496.321
  -7305913.09549  -5692920.50645  23233797.454    23233799.375
  -3487173.46048  -2717275.38944  24413125.279    24413132.813
  -3190667.62448  -2486235.70844  23451636.785    23451640.549
 02  1  9  2 57  0.0000000  0  8G22G 1G25G20G13G27G31G 2
 -18982440.83249 -14791515.56546  21269389.146    21269392.254
 -25377740.65049 -19774861.35547  20246125.677    20246127.837
    526569.23148                  25191596.268
  -5333541.14848                  23388062.204
 -20939077.68549 -16316163.42147  20978871.464    20978871.422
  -7378600.30949  -5749559.94745  23219965.846    23219967.874
  -3593462.24648  -2800097.80344  24392898.912    24392904.915
  -3278364.52948  -2554570.98245  23434948.187    23434952.225
 02  1  9  2 57 30.0000000  0  8G22G 1G25G20G13G27G31G 2
 -18904364.07949 -14730676.65546  21284246.798    21284249.983
 -25370447.68749 -19769178.60847  20247513.470    20247515.588
    610863.56748                  25207636.431
  -5228013.53248  -4073784.95644  23408144.340    23408147.202
 -20994554.49549 -16359392.15847  20968313.992    20968314.284
  -7451194.26848  -5806126.72145  23206150.664    23206152.230
  -3699755.23748  -2882923.44944  24372672.518    24372681.205
  -3365853.54148  -2622744.27845  23418299.852    23418302.167
 02  1  9  2 58  0.0000000  0  8G22G 1G25G20G13G27G31G 2
 -18825876.87249 -14669517.91046  21299182.450    21299185.573
 -25362693.87349 -19763136.74447  20248989.065    20248991.118
    695178.82148                  25223681.905
  -5122331.85848                  23428253.546
 -21049664.64149 -16402335.19047  20957827.047    20957827.025
  -7523689.09949  -5862616.26845  23192356.776    23192357.916
  -3806043.86948  -2965745.71844  24352446.250    24352451.078
  -3453127.48548  -2690749.96845  23401692.647    23401695.948
 02  1  9  2 58 30.0000000  0  8G22G 1G25G20G13G27G31G 2
 -18746992.64649 -14608049.81346  21314193.847    21314197.026
 -25354488.95249 -19756743.36447  20250550.556    20250552.675
    779503.77648                  25239728.204
  -5016509.51348                  23448392.579
 -21104416.85149 -16444999.31647  20947408.030    20947407.964
  -7596095.07849  -5919036.55445  23178577.831    23178579.432
  -3912335.65448  -3048570.43744  24332219.722    24332225.115
  -3540195.80348  -2758595.44045  23385123.538    23385126.590
 02  1  9  2 59  0.0000000  0  8G22G 1G25G20G13G27G31G 2
 -18667718.55149 -14546277.91646  21329279.378    21329282.248
 -25345836.79549 -19750001.50047  20252196.963    20252198.882
    863833.95648                  25255775.830
  -4910554.12248                  23468553.975
 -21158813.73149 -16487386.56947  20937056.688    20937056.900
  -7668416.49348  -5975390.96945  23164814.442    23164817.358
  -4018631.74048  -3131398.50444  24311991.577    24311998.090
  -3627061.53448  -2826283.03645  23368593.389    23368596.600
 02  1  9  2 59 30.0000000  0  8G22G 1G25G20G13G27G31G 2
 -18588051.02849 -14484199.45146  21344439.575    21344442.754
 -25336730.33049 -19742905.62947  20253929.980    20253932.108
    948175.80648                  25271826.662
  -4804462.36148  -3743745.65244  23488743.473    23488746.437
 -21212846.59249 -16529490.16747  20926774.600    20926774.886
  -7740646.84049  -6031674.41145  23151071.413    23151072.597
  -4124923.03848  -3214222.90744  24291765.609    24291773.131
  -3713717.03348  -2893806.83145  23352103.591    23352107.247
 02  1  9  3  0  0.0000000  0  8G22G 1G25G20G13G27G31G 2
 -18507991.22749 -14421815.31446  21359674.400    21359677.537
 -25327167.19049 -19735453.90447  20255749.933    20255752.164
   1032530.08648                  25287878.195
  -4698235.91648                  23508957.047
 -21266512.01149 -16571307.44047  20916562.516    20916562.731
  -7812784.25348  -6087885.44845  23137343.037    23137344.806
  -4231205.12248  -3297040.11744  24271540.350    24271546.924
  -3800159.28148  -2961164.41045  23335654.291    23335657.688
 02  1  9  3  0 30.0000000  0  8G22G 1G25G20G13G27G31G 2
 -18427522.48549 -14359112.52746  21374987.247    21374990.451
 -25317127.12449 -19727630.55047  20257660.581    20257662.513
   1116916.10548                  25303936.468
  -4591858.10348                  23529200.337
 -21319788.29049 -16612821.49147  20906424.303    20906424.529
  -7884808.78849  -6144008.52245  23123637.492    23123639.802
  -4337455.03548  -3379832.19044  24251322.442    24251327.886
  -3886367.60648  -3028339.75245  23319249.530    23319252.951
 02  1  9  3  1  0.0000000  0  8G22G 1G25G20G13G27G31G 2
 -18346650.56649 -14296095.57746  21390376.966    21390380.169
 -25306612.59149 -19719437.48247  20259661.638    20259663.537
   1201330.51248                  25320000.523
  -4485335.04548                  23549471.059
 -21372676.70149 -16654033.30747  20896360.192    20896360.477
  -7956723.15949  -6200045.76345  23109953.553    23109954.171
  -4443673.03848  -3462599.48244  24231109.652    24231118.588
  -3972343.71048  -3095334.14045  23302888.645    23302893.509
 02  1  9  3  1 30.0000000  0  8G22G 1G25G20G13G27G31G 2
 -18265390.56049 -14232776.22246  21405840.038    21405843.237
 -25295635.29549 -19710883.81947  20261750.549    20261752.578
   1285760.91948                  25336066.792
  -4378681.95648  -3411969.17544  23569766.395    23569769.283
 -21425187.62949 -16694950.98447  20886367.689    20886368.085
  -8028539.44448  -6256006.57045  23096285.715    23096288.722
  -4549868.23848  -3545349.02444  24210901.141    24210905.527
  -4058098.67048  -3162156.20145  23286569.967    23286572.712
 02  1  9  3  2  0.0000000  0  8G22G 1G25G20G13G27G31G 2
 -18183752.05749 -14169161.92646  21421375.725    21421378.921
 -25284201.70549 -19701974.60847  20263926.195    20263928.341
   1370200.32048                  25352135.176
  -4271908.97848                  23590085.791
 -21477326.02449 -16735578.36847  20876446.280    20876446.748
  -8100264.35849  -6311896.17445  23082638.009    23082639.881
  -4656044.38348  -3628083.65844  24190696.308    24190702.439
  -4143638.07048  -3228810.29245  23270292.681    23270295.461
 02  1  9  3  2 30.0000000  0  7G22G 1G20G13G27G31G 2
 -18101739.10649 -14105255.86146  21436982.496    21436985.676
 -25272312.27549 -19692710.19547  20266188.755    20266190.848
  -4165020.17648                  23610425.390
 -21529091.07249 -16775914.83947  20866595.511    20866595.896
  -8171898.85049  -6367715.34045  23069007.232    23069008.644
  -4762199.59148  -3710802.02544  24170495.977    24170500.482
  -4228961.84748  -3295296.34445  23254056.006    23254059.385
 02  1  9  3  3  0.0000000  0  8G22G 1G 3G20G13G27G31G 2
 -18019347.13249 -14041054.45246  21452660.939    21452664.265
 -25259958.93049 -19683084.28847  20268539.710    20268541.655
        -1.14858         -.43455  22803839.434    22803844.973
  -4058011.26048  -3162096.38044  23630789.077    23630790.741
 -21580473.39349 -16815953.07747  20856817.871    20856818.263
  -8243435.43748  -6423458.21145  23055392.160    23055394.400
  -4868323.42148  -3793495.93244  24150301.331    24150308.552
  -4314061.42048  -3361607.71745  23237861.707    23237865.869
 02  1  9  3  3 30.0000000  0  8G22G 1G 3G20G13G27G31G 2
 -17936589.07649 -13976567.77946  21468409.400    21468412.356
 -25247151.35149 -19673104.43347  20270976.908    20270979.035
    -65940.39248    -51381.65945  22791291.954    22791297.181
  -3950895.48448  -3078629.72744  23651173.196    23651175.318
 -21631481.10149 -16855699.40647  20847111.597    20847112.031
  -8314883.99649  -6479132.47645  23041797.967    23041798.711
  -4974423.24348  -3876171.06444  24130111.283    24130117.861
  -4398945.67048  -3427751.29245  23221709.109    23221712.585
 02  1  9  3  4  0.0000000  0  8G22G 1G 3G20G13G27G31G 2
 -17853463.48149 -13911794.72046  21484227.611    21484230.971
 -25233884.98349 -19662767.08347  20273501.610    20273503.638
   -131502.29148   -102468.85145  22778815.311    22778820.654
  -3843671.79948                  23671576.331
 -21682108.22049 -16895149.17147  20837477.762    20837478.202
  -8386240.06849  -6534734.68645  23028219.207    23028221.372
  -5080491.66748  -3958821.80844  24109926.483    24109933.236
  -4483609.19448  -3493722.88745  23205597.859    23205601.021
 02  1  9  3  4 30.0000000  0  8G22G 1G 3G20G13G27G31G 2
 -17769957.60449 -13846725.33946  21500118.628    21500121.908
 -25220143.54449 -19652059.55047  20276116.560    20276118.630
   -196668.38048   -153247.63345  22766415.241    22766419.703
  -3736327.27148  -2911434.06644  23692004.553    23692006.628
 -21732337.35349 -16934288.82447  20827919.590    20827919.988
  -8457487.76249  -6590252.42245  23014660.127    23014662.901
  -5186510.05148  -4041433.50844  24089752.118    24089759.580
  -4568035.03548  -3559509.25545  23189532.511    23189534.695
 02  1  9  3  5  0.0000000  0  8G22G 1G 3G20G13G27G31G 2
 -17686077.26849 -13781364.17146  21516080.574    21516083.563
 -25205929.53249 -19640983.78047  20278821.410    20278823.661
   -261438.83148   -203718.13845  22754089.591    22754095.688
  -3628868.04648  -2827699.71744  23712452.584    23712456.937
 -21782169.24249 -16973118.93447  20818436.526    20818436.963
  -8528629.68749  -6645687.75445  23001123.616    23001124.703
  -5292478.41548  -4124006.20244  24069587.395    24069595.586
  -4652224.99248  -3625111.83245  23173511.237    23173514.729
 02  1  9  3  5 30.0000000  0  8G22G 1G 3G20G13G27G31G 2
 -17601831.88749 -13715718.55646  21532111.996    21532115.385
 -25191249.03949 -19629544.51847  20281615.077    20281617.109
   -325817.83648   -253883.61445  22741837.945    22741843.551
  -3521304.04048  -2743883.79444  23732922.317    23732926.902
 -21831608.75749 -17011643.29947  20809028.782    20809029.273
  -8599672.46849  -6701045.83745  22987604.386    22987605.898
  -5398400.28448  -4206542.70444  24049431.195    24049438.534
  -4736184.53348  -3690534.87445  23157534.887    23157537.054
 02  1  9  3  6  0.0000000  0  7G22G 1G20G13G27G31G 2
 -17517232.30149 -13649796.94146  21548210.782    21548214.243
 -25176109.67049 -19617747.68747  20284496.103    20284498.206
  -3413646.22748                  23753407.859
 -21880661.98849 -17049866.67147  20799694.295    20799694.458
  -8670623.77949  -6756332.64645  22974102.041    22974104.260
  -5504280.45348  -4289046.66644  24029282.355    24029288.994
  -4819920.43048  -3755783.63345  23141599.518    23141605.123
 02  1  9  3  6 30.0000000  0  7G22G 1G20G13G27G31G 2
 -17432266.50949 -13583589.97546  21564379.467    21564382.817
 -25160496.12049 -19605581.36347  20287467.256    20287469.343
  -3305882.76948  -2576023.34044  23773915.968    23773920.202
 -21929312.29449 -17087776.06847  20790436.624    20790437.105
  -8741468.42249  -6811536.33446  22960621.788    22960623.618
  -5610100.94748  -4371504.10044  24009145.823    24009152.583
  -4903416.80648  -3820845.75445  23125711.649    23125714.959
 02  1  9  3  7  0.0000000  0  7G22G 1G20G13G27G31G 2
 -17346954.69549 -13517113.38046  21580614.093    21580617.511
 -25144425.39249 -19593058.79847  20290525.498    20290527.557
  -3198034.11548  -2491985.62144  23794437.969    23794445.089
 -21977574.97649 -17125383.41947  20781252.512    20781253.008
  -8812223.67549  -6866670.36246  22947157.084    22947158.827
  -5715876.36348  -4453926.42544  23989016.606    23989023.729
  -4986689.88348  -3885733.90545  23109864.553    23109866.757
 02  1  9  3  7 30.0000000  0  7G22G 1G20G13G27G31G 2
 -17261277.95449 -13450352.42746  21596917.775    21596921.156
 -25127875.23149 -19580162.64847  20293674.848    20293677.053
  -3090081.42448  -2407866.81144  23814981.261    23814987.853
 -22025426.75149 -17162670.58147  20772146.520    20772146.987
  -8882867.64249  -6921717.68046  22933713.944    22933715.615
  -5821581.81248  -4536294.19344  23968902.372    23968910.266
  -5069716.59348  -3950430.04045  23094065.623    23094069.238
 02  1  9  3  8  0.0000000  0  7G22G 1G20G13G27G31G 2
 -17175237.80549 -13383308.30446  21613290.701    21613294.460
 -25110844.02149 -19566891.65347  20296915.619    20296917.881
  -2982026.52848  -2323668.33744  23835543.325    23835546.954
 -22072864.14349 -17199634.84347  20763119.754    20763120.053
  -8953398.77249  -6976677.06646  22920293.009    22920294.756
  -5927212.83548  -4618604.01544  23948800.105    23948805.228
  -5152494.68848  -4014932.49645  23078313.575    23078316.691
 02  1  9  3  8 30.0000000  0  7G22G 1G20G13G27G31G 2
 -17088850.76749 -13315993.87746  21629729.546    21629733.167
 -25093344.74849 -19553255.93447  20300245.819    20300248.035
  -2873886.09948  -2239403.23344  23856122.126    23856127.093
 -22119899.12749 -17236285.54047  20754169.452    20754169.758
  -9023830.39949  -7031558.91246  22906889.443    22906891.690
  -6032779.93748  -4700863.91944  23928711.438    23928717.345
  -5235036.42748  -4079250.75445  23062605.970    23062609.545
 02  1  9  3  9  0.0000000  0  7G22G 1G20G13G27G31G 2
 -17002132.24949 -13248421.16546  21646231.996    21646235.465
 -25075389.82949 -19539265.16647  20303662.870    20303665.001
  -2765675.70048  -2155083.62244  23876713.961    23876719.381
 -22166542.30749 -17272630.93447  20745293.585    20745293.871
  -9094174.92849  -7086372.90146  22893503.544    22893505.392
  -6138292.67648  -4783081.54344  23908633.124    23908640.422
  -5317353.39548  -4143393.86845  23046942.049    23046945.221
 02  1  9  3  9 30.0000000  0  7G22G 1G20G13G27G31G 2
 -16915074.81349 -13180584.35446  21662798.435    21662802.238
 -25056968.73549 -19524911.14947  20307168.337    20307170.697
  -2657388.53148  -2070704.13544  23897320.392    23897323.485
 -22212781.41649 -17308661.47247  20736494.562    20736494.870
  -9164421.86149  -7141110.84346  22880136.820    22880138.747
  -6243737.75148  -4865246.38344  23888566.882    23888574.347
  -5399434.30948  -4207353.06545  23031322.259    23031326.362
 02  1  9  3 10  0.0000000  0  7G22G 1G20G13G27G31G 2
 -16827680.81649 -13112485.29346  21679429.128    21679433.267
 -25038080.64949 -19510193.24047  20310762.583    20310764.895
  -2549026.74248  -1986266.55644  23917940.605    23917947.417
 -22258614.46049 -17344375.59047  20727773.073    20727773.456
  -9234570.39849  -7195772.10646  22866787.150    22866789.628
  -6349111.62248  -4947355.73244  23868514.686    23868524.615
  -5481277.67348  -4271127.14845  23015748.265    23015751.071
 02  1  9  3 10 30.0000000  0  8G22G 1G 8G20G13G27G31G 2
 -16739950.71049 -13044124.32846  21696123.688    21696127.431
 -25018722.74449 -19495109.23947  20314446.280    20314448.509
         -.89458                  25068865.444
  -2440590.96848  -1901771.27044  23938576.312    23938583.074
 -22304036.86649 -17379769.73147  20719129.378    20719129.687
  -9304617.81349  -7250354.57746  22853458.025    22853459.759
  -6454408.64748  -5029405.23444  23848477.694    23848485.885
  -5562879.75248  -4334713.20945  23000219.657    23000222.518
 02  1  9  3 11  0.0000000  0  7G22G 1G20G13G27G31G 2
 -16651878.26949 -12975496.60446  21712883.333    21712887.191
 -24998885.70149 -19479651.89147  20318221.301    20318223.617
  -2332075.39448  -1817213.88444  23959225.569    23959228.635
 -22349037.98649 -17414835.59447  20710566.026    20710566.364
  -9374554.80949  -7304851.00446  22840149.559    22840151.169
  -6559616.63948  -5111385.35644  23828457.429    23828465.065
  -5644230.67448  -4398103.56645  22984739.406    22984742.655
 02  1  9  3 11 30.0000000  0  7G22G 1G20G13G27G31G 2
 -16563475.60149 -12906611.56146  21729706.100    21729710.034
 -24978578.50449 -19463828.18747  20322085.592    20322087.957
  -2223491.99948  -1732603.59544  23979888.848    23979890.633
 -22393625.37049 -17449579.07047  20702081.364    20702081.654
  -9444390.56249  -7359268.54046  22826859.361    22826862.408
  -6664741.99448  -5193301.07544  23808451.666    23808459.857
  -5725338.57048  -4461304.56145  22969304.620    22969309.317
 02  1  9  3 12  0.0000000  0  8G22G 1G 8G20G13G27G31G 2
 -16474755.67449 -12837479.31146  21746588.715    21746592.739
 -24957810.92649 -19447645.74047  20326037.420    20326039.905
         -.54358                  25015784.277
  -2114854.27348  -1647951.01744  24000561.767    24000565.156
 -22437807.27249 -17484006.59247  20693673.734    20693674.114
  -9514134.73349  -7413614.70446  22813588.684    22813591.043
  -6769791.49148  -5275157.69845  23788462.818    23788468.661
  -5806212.29248  -4524323.07645  22953915.543    22953919.276
 02  1  9  3 12 30.0000000  0  8G22G 1G 8G20G13G27G31G 2
 -16385711.54949 -12768094.42546  21763533.432    21763537.313
 -24936573.12949 -19431096.89147  20330078.946    20330081.464
    -92941.31548                  24998097.757
  -2006155.47048  -1563250.73144  24021247.005    24021250.149
 -22481571.91349 -17518108.97347  20685345.645    20685346.091
  -9583777.48749  -7467881.85146  22800336.296    22800338.383
  -6874752.44648  -5356945.36644  23768487.888    23768497.320
  -5886841.25248  -4587150.85245  22938571.869    22938576.265
 02  1  9  3 13  0.0000000  0  7G22G 1G20G13G27G31G 2
 -16296329.73749 -12698446.41646  21780542.717    21780546.741
 -24914848.08549 -19414168.37147  20334213.301    20334215.724
  -1897382.03948  -1478492.42744  24041945.875    24041951.451
 -22524901.10549 -17551872.04247  20677100.183    20677100.711
  -9653302.05149  -7522056.90046  22787105.313    22787107.602
  -6979605.35448  -5438648.79844  23748535.664    23748541.690
  -5967207.78248  -4649774.14245  22923278.968    22923281.963
 02  1  9  3 13 30.0000000  0  7G 1G20G13G27G31G 2G22
 -24892633.34049 -19396858.26147  20338440.664    20338443.128
  -1788534.62648  -1393676.45044  24062659.152    24062664.118
 -22567790.92449 -17585292.74247  20668938.807    20668939.262
  -9722705.79549  -7576137.80546  22773899.261    22773901.508
  -7084344.63648  -5520263.75745  23728604.429    23728611.895
  -6047308.42348  -4712190.24245  22908035.891    22908040.434
 -16206610.53549 -12628535.50046  21797615.262    21797619.759
 02  1  9  3 14  0.0000000  0  8G 1G 8G20G13G27G31G 2G22
 -24869954.31049 -19379186.37847  20342756.190    20342758.964
         -.68558                  24945083.146
  -1679641.94848  -1308825.18944  24083380.447    24083385.677
 -22610264.93849 -17618389.43847  20660856.522    20660856.984
  -9792014.07049  -7630144.32446  22760709.582    22760711.972
  -7188992.70948  -5601807.63745  23708690.931    23708698.851
  -6127167.75548  -4774418.32045  22892839.580    22892843.036
 -16116582.37549 -12558383.84146  21814747.881    21814752.046
 02  1  9  3 14 30.0000000  0  8G 1G 8G20G13G27G31G 2G22
 -24846814.44049 -19361155.39747  20347159.593    20347162.440
    -92825.36548                  24927418.362
  -1570710.37148  -1223943.59244  24104110.220    24104114.755
 -22652325.00249 -17651163.57547  20652852.846    20652853.392
  -9861230.30649  -7684079.10346  22747538.128    22747540.695
  -7293549.83848  -5683280.65245  23688794.034    23688798.237
  -6206788.40548  -4836460.40545  22877688.235    22877692.962
 -16026251.61749 -12487996.38146  21831936.966    21831941.286
 02  1  9  3 15  0.0000000  0  8G 1G 8G20G13G27G31G 2G22
 -24823189.95349 -19342746.78847  20351655.112    20351657.827
   -185611.54248                  24909763.019
  -1461719.45948  -1139015.80044  24124849.994    24124853.035
 -22693945.76449 -17683595.39547  20644932.493    20644932.970
  -9930330.47849  -7737923.47346  22734389.819    22734391.697
  -7397989.51448  -5764662.18045  23668920.131    23668925.197
  -6286145.82348  -4898297.37045  22862586.929    22862590.136
 -15935597.50649 -12417356.97046  21849187.974    21849192.434
 02  1  9  3 15 30.0000000  0  8G 1G 8G20G13G27G31G 2G22
 -24799087.58849 -19323965.80747  20356241.731    20356244.625
   -278365.87648                  24892111.493
  -1352679.15848  -1054049.53144  24145600.121    24145606.106
 -22735132.27449 -17715688.84247  20637094.873    20637095.489
  -9999321.39349  -7791682.69946  22721260.699    22721263.337
  -7502315.53448  -5845955.14245  23649067.324    23649074.881
  -6365246.00949  -4959933.89945  22847534.871    22847537.938
 -15844629.91049 -12346473.27446  21866498.713    21866502.878
 02  1  9  3 16  0.0000000  0  8G 1G 8G20G13G27G31G 2G22
 -24774505.51649 -19304811.03047  20360919.613    20360922.403
   -371086.49748                  24874467.177
  -1243590.90948   -969045.86744  24166358.986    24166364.300
 -22775881.18749 -17747441.29747  20629340.648    20629341.238
 -10068200.99149  -7845355.17446  22708152.792    22708156.067
  -7606522.92848  -5927155.65945  23629237.177    23629243.799
  -6444086.04549  -5021367.71145  22832531.990    22832535.209
 -15753349.99749 -12275346.20946  21883868.681    21883873.328
 02  1  9  3 16 30.0000000  0  8G 1G 8G20G13G27G31G 2G22
 -24749451.95649 -19285288.86147  20365687.429    20365690.244
   -463781.19048                  24856828.782
  -1134465.64748   -884013.36444  24187124.805    24187132.108
 -22816199.12549 -17778857.93047  20621668.407    20621668.802
 -10136977.25849  -7898947.13246  22695065.596    22695068.458
  -7710616.95448  -6008267.89145  23609429.547    23609434.726
  -6522673.38249  -5082604.60845  22817577.239    22817580.921
 -15661768.80849 -12203984.38246  21901296.233    21901300.431
 02  1  9  3 17  0.0000000  0  8G 1G 8G20G13G27G31G 2G22
 -24723926.23249 -19265398.77647  20370544.872    20370547.719
   -556449.18248                  24839194.280
  -1025305.97448   -798954.03544  24207896.937    24207900.410
 -22856083.71049 -17809936.88647  20614079.124    20614079.602
 -10205649.47449  -7952458.02346  22681998.038    22682000.687
  -7814594.06748  -6089288.97645  23589642.726    23589648.785
  -6601006.44549  -5143643.38546  22802671.395    22802675.090
 -15569888.71849 -12132389.64546  21918780.306    21918785.046
 02  1  9  3 17 30.0000000  0  8G 1G 8G20G13G27G31G 2G22
 -24697932.59549 -19245144.08647  20375491.349    20375494.308
   -649094.63148                  24821564.736
   -916119.48848   -713873.86044  24228675.031    24228679.137
 -22895537.79249 -17840680.38147  20606571.157    20606571.592
 -10274221.73349  -8005891.02746  22668948.862    22668951.714
  -7918455.41248  -6170219.87745  23569879.137    23569884.232
  -6679088.75949  -5204486.77146  22787812.562    22787815.841
 -15477716.88449 -12060567.58346  21936320.195    21936325.581
 02  1  9  3 18  0.0000000  0  8G 1G 8G20G13G27G31G 2G22
 -24671456.70849 -19224513.61847  20380529.602    20380532.608
   -741702.65148                  24803948.140
   -806894.65048   -628763.75844  24249460.220    24249464.518
 -22934545.61049 -17871076.13747  20599148.052    20599148.555
 -10342679.34949  -8059234.68646  22655922.027    22655924.048
  -8022183.31548  -6251046.79145  23550139.302    23550146.453
  -6756904.91649  -5265122.77246  22773004.662    22773008.183
 -15385241.82549 -11988509.24346  21953917.901    21953922.217
 02  1  9  3 18 30.0000000  0  7G 1G20G13G27G31G 2G22
 -24644491.22249 -19203501.64447  20385661.068    20385664.039
   -697627.17548   -543620.43244  24270252.321    24270258.496
 -22973097.57949 -17901116.68747  20591811.927    20591812.379
 -10411014.79649  -8112483.15446  22642918.131    22642920.949
  -8125767.30248  -6331761.54745  23530428.191    23530435.776
  -6834446.82049  -5325545.06146  22758249.147    22758252.581
 -15292459.13349 -11916211.18146  21971573.873    21971579.094
 02  1  9  3 19  0.0000000  0  7G 1G20G13G27G31G 2G22
 -24617070.89849 -19182135.24747  20390879.286    20390882.264
   -588354.96248   -458473.48044  24291046.920    24291050.034
 -23011227.07049 -17930828.03247  20584556.252    20584556.669
 -10479262.71049  -8165663.41546  22629930.636    22629933.033
  -8229239.04648  -6412388.86045  23510737.936    23510747.120
  -6911748.40949  -5385780.11346  22743538.549    22743541.965
 -15199406.37449 -11843702.68446  21989281.222    21989286.322
 02  1  9  3 19 30.0000000  0  8G 1G 8G20G13G27G31G 2G22
 -24589162.96249 -19160388.89747  20396190.146    20396192.935
         -.50058                  24751112.045
   -479048.24048   -373299.57744  24311847.578    24311852.063
 -23048899.81749 -17960183.47547  20577387.544    20577387.990
 -10547390.05149  -8218749.72546  22616967.351    22616969.480
  -8332563.06648  -6492901.05245  23491076.233    23491084.921
  -6988775.92849  -5445801.59646  22728881.549    22728884.664
 -15106053.64549 -11770960.44346  22007045.877    22007050.473
 02  1  9  3 20  0.0000000  0  8G 1G 8G20G13G27G31G 2G22
 -24560778.66249 -19138271.35447  20401591.266    20401594.184
    -92477.65448                  24733513.913
   -369721.15848   -288109.82344  24332651.842    24332655.516
 -23086125.12149 -17989190.25847  20570303.964    20570304.455
 -10615407.88349  -8271750.70346  22604024.074    22604026.795
  -8435747.13348  -6573304.19345  23471441.359    23471447.402
  -7065539.75849  -5505617.61646  22714272.673    22714276.966
 -15012415.06949 -11697995.47346  22024864.739    22024869.584
 02  1  9  3 20 30.0000000  0  8G 1G 8G20G13G27G31G 2G22
 -24531919.75749 -19115783.98947  20407082.927    20407085.982
   -184923.74048                  24715922.868
   -260378.46748                  24353459.159
 -23122903.12049 -18017848.49547  20563305.356    20563305.860
 -10683317.62249  -8324667.45646  22591100.830    22591103.659
  -8538789.75848  -6653597.13245  23451832.575    23451839.415
  -7142040.58549  -5565228.70146  22699716.035    22699719.330
 -14918495.08249 -11624811.22046  22042737.663    22042741.935
 02  1  9  3 21  0.0000000  0  8G 1G 8G20G13G27G31G 2G22
 -24502597.21649 -19092935.35447  20412662.885    20412665.996
   -277349.43648                  24698334.646
   -151034.01248   -117704.67544  24374266.415    24374274.854
 -23159243.37149 -18046165.63647  20556389.593    20556390.090
 -10751129.88749  -8377508.25646  22578196.923    22578199.598
  -8641698.91148  -6733786.05645  23432249.925    23432255.968
  -7218288.70049  -5624642.86646  22685205.995    22685209.269
 -14824307.61749 -11551418.54046  22060660.839    22060665.970
 02  1  9  3 21 30.0000000  0  8G 1G 8G20G13G27G31G 2G22
 -24472799.42949 -19069716.39747  20418333.659    20418336.668
   -369743.19148                  24680752.707
    -41679.29248    -32493.40844  24395076.299    24395080.268
 -23195132.34849 -18074131.13447  20549560.541    20549561.102
 -10818832.72549  -8430263.77846  22565313.503    22565316.313
  -8744459.84448  -6813859.50145  23412694.983    23412702.584
  -7294271.64349  -5683850.42346  22670747.180    22670750.528
 -14729843.76449 -11477810.50546  22078636.628    22078641.835
 02  1  9  3 22  0.0000000  0  8G 1G 8G20G13G27G31G 2G22
 -24442520.72249 -19046122.69947  20424095.496    20424098.557
   -462098.56548   -360076.94544  24663177.766    24663180.748
     67688.57548                  24415888.629
 -23230562.84749 -18101739.37747  20542818.496    20542818.971
 -10886420.12449  -8482929.35646  22552452.005    22552454.838
  -8847063.55248  -6893810.42845  23393169.994    23393175.175
  -7369982.70049  -5742846.11046  22656339.794    22656343.191
 -14635100.61349 -11403984.83746  22096666.376    22096671.231
 02  1  9  3 22 30.0000000  0  8G 1G 8G20G13G27G31G 2G22
 -24411757.43749 -19022151.40347  20429949.349    20429952.489
   -554411.43248                  24645612.136
    177070.39348    137960.47944  24436703.310    24436707.151
 -23265529.32949 -18128986.04947  20536164.475    20536165.050
 -10953887.89549  -8535501.71046  22539613.414    22539616.440
  -8949503.03448  -6973633.40045  23373676.665    23373684.121
  -7445417.19249  -5801626.29146  22641985.561    22641989.245
 -14540077.18149 -11329940.77846  22114748.418    22114753.619
 02  1  9  3 23  0.0000000  0  8G 1G 8G20G13G27G31G 2G22
 -24380526.58849 -18997815.77647  20435892.435    20435895.501
   -646698.40148                  24628049.698
    286446.28248                  24457516.936
 -23300047.07049 -18155883.05347  20529596.012    20529596.655
 -11021252.81949  -8587993.92546  22526794.356    22526796.633
  -9051791.94648  -7053339.01445  23354211.629    23354217.621
  -7520591.06649  -5860203.38446  22627680.071    22627683.292
 -14444793.07549 -11255693.59646  22132880.592    22132885.930
 02  1  9  3 23 30.0000000  0  8G 1G 8G20G13G27G31G 2G22
 -24348834.99449 -18973121.12247  20441923.495    20441926.544
   -738966.08448                  24610491.574
    395806.62948                  24478328.525
 -23334121.43449 -18182434.56747  20523111.816    20523112.591
 -11088521.33049  -8640411.02046  22513993.613    22513995.988
  -9153933.94148  -7132930.18845  23334774.641    23334781.444
  -7595510.34049  -5918582.09546  22613423.160    22613427.839
 -14349258.04549 -11181250.88646  22151060.004    22151064.808
 02  1  9  3 24  0.0000000  0  8G 1G 8G20G13G27G31G 2G22
 -24316671.14949 -18948058.48247  20448044.216    20448047.216
   -831202.45048                  24592940.477
    505160.06248                  24499136.513
 -23367739.28549 -18208630.35747  20516714.595    20516715.422
 -11155681.33749  -8692743.56346  22501213.558    22501216.263
  -9255914.16148  -7212395.29545  23315368.192    23315375.493
  -7670162.66849  -5976752.79546  22599218.136    22599221.293
 -14253462.99449 -11106605.57046  22169289.658    22169295.016
 02  1  9  3 24 30.0000000  0  8G 1G 8G20G13G27G31G 2G22
 -24284036.88949 -18922629.28447  20454254.172    20454257.240
   -923408.78148                  24575393.324
    614501.99648                  24519944.764
 -23400900.22249 -18234470.10947  20510404.411    20510405.159
 -11222734.14149  -8744992.56946  22488454.011    22488456.853
  -9357731.32048  -7291733.32245  23295992.961    23295999.220
  -7744548.67249  -6034715.96246  22585062.297    22585067.133
 -14157412.52949 -11031761.23946  22187567.432    22187572.187
 02  1  9  3 25  0.0000000  0  8G 1G 8G20G13G27G31G 2G22
 -24250920.09449 -18896824.08247  20460556.028    20460559.148
  -1015572.51348                  24557855.805
    723841.81648                  24540751.844
 -23433590.72849 -18259943.29247  20504183.657    20504184.317
 -11289667.32449  -8797148.36446  22475716.442    22475718.782
  -9459369.90348  -7370932.22345  23276651.930    23276658.653
  -7818655.42249  -6092461.53846  22570961.063    22570964.288
 -14061097.20749 -10956710.52946  22205896.201    22205901.521
 02  1  9  3 25 30.0000000  0  8G 1G 8G20G13G27G31G 2G22
 -24217310.83749 -18870635.13847  20466951.919    20466955.017
  -1107683.26148                  24540327.997
    833186.59548    649218.44044  24561558.937    24561562.134
 -23465799.26249 -18285040.90447  20498054.714    20498055.451
 -11356470.57049  -8849202.89746  22463004.945    22463007.548
  -9560816.51848  -7449981.51545  23257347.233    23257354.603
  -7892471.92749  -6149980.92146  22556913.057    22556917.809
 -13964509.68249 -10881447.72946  22224275.776    22224281.658
 02  1  9  3 26  0.0000000  0  8G 1G 8G20G13G27G31G 2G22
 -24183223.63349 -18844073.77047  20473438.462    20473441.545
  -1199755.15048                  24522806.443
    942519.19948    734412.39544  24582365.159    24582372.793
 -23497538.56349 -18309772.88347  20492014.873    20492015.512
 -11423157.87349  -8901167.10246  22450314.922    22450317.023
  -9662082.29148  -7528889.89545  23238077.094    23238084.425
  -7966011.84749  -6207284.78946  22542919.757    22542923.113
 -13867666.89249 -10805986.01446  22242704.673    22242709.475
 02  1  9  3 26 30.0000000  0  8G 1G 8G20G13G27G31G 2G22
 -24148650.98549 -18817134.13147  20480017.473    20480020.623
  -1291779.99048  -1006583.03144  24505296.131    24505293.377
   1051844.23548                  24603168.820
 -23528799.04049 -18334131.75847  20486066.330    20486066.840
 -11489721.00649  -8953034.54546  22437648.170    22437650.906
  -9763156.36148  -7607648.89545  23218843.754    23218851.358
  -8039266.41549  -6264366.30946  22528979.925    22528983.872
 -13770563.96049 -10730321.58146  22261183.389    22261188.008
 02  1  9  3 27  0.0000000  0  8G 1G 8G20G13G27G31G 2G22
 -24113606.88849 -18789827.13147  20486686.502    20486689.592
  -1383771.35548                  24487788.982
   1161145.13048                  24623968.659
 -23559593.18749 -18358127.26047  20480206.526    20480207.089
 -11556173.62449  -9004815.87346  22425002.799    22425005.078
  -9864049.43748  -7686266.86645  23199644.022    23199651.475
  -8112248.81749  -6321235.74046  22515091.769    22515095.822
 -13673217.55649 -10654467.45146  22279707.922    22279714.043
 02  1  9  3 27 30.0000000  0  8G 1G 8G20G13G27G31G 2G22
 -24078099.37849 -18762159.02947  20493443.153    20493446.318
  -1475736.77348                  24470289.740
   1270411.08748    989911.80444  24644760.707    24644771.629
 -23589927.58949 -18381764.52447  20474434.197    20474434.752
 -11622523.30249  -9056516.98246  22412377.147    22412379.469
  -9964766.09248  -7764747.35245  23180478.253    23180486.692
  -8184966.20349  -6377898.66846  22501254.441    22501258.052
 -13575638.32249 -10578431.88546  22298276.399    22298281.891
 02  1  9  3 28  0.0000000  0  8G 1G 8G20G13G27G31G 2G22
 -24042104.93149 -18734111.49547  20500292.665    20500295.864
  -1567651.99748                  24452798.774
   1379663.03848   1075042.90644  24665551.517    24665554.695
 -23619776.94749 -18405023.83047  20468753.772    20468754.362
 -11688745.87849  -9108119.05546  22399775.375    22399777.784
 -10065279.31848  -7843069.32645  23161351.646    23161357.655
  -8257394.06849  -6434335.99146  22487471.136    22487475.617
 -13477805.16049 -10502198.44346  22316893.588    22316898.517
 02  1  9  3 28 30.0000000  0  8G 1G 8G20G13G27G31G 2G22
 -24005635.81349 -18705694.08847  20507232.337    20507235.562
  -1659528.86548                  24435315.319
   1488886.17048   1160151.53344  24686336.021    24686344.957
 -23649151.30049 -18427913.00247  20463164.098    20463164.706
 -11754852.83449  -9159631.03446  22387195.684    22387198.057
 -10165597.94348  -7921239.65545  23142261.052    23142267.876
  -8329543.49849  -6490556.37446  22473742.188    22473746.414
 -13379732.67849 -10425778.53446  22335556.768    22335561.657
 02  1  9  3 29  0.0000000  0  8G 1G 8G20G13G27G31G 2G22
 -23968690.55249 -18676905.65747  20514262.953    20514266.257
  -1751365.00048  -1364701.57544  24417839.869    24417841.038
   1598079.49748   1245236.96344  24707114.916    24707123.107
 -23678047.39349 -18450429.50247  20457665.588    20457666.466
 -11820841.98049  -9211051.21746  22374638.375    22374641.196
 -10265716.83948  -7999254.36145  23123209.355    23123216.575
  -8401411.79649  -6546557.67346  22460065.560    22460069.494
 -13281421.73049 -10349172.79346  22354264.548    22354270.680
 02  1  9  3 29 30.0000000  0  8G 1G 8G20G13G27G31G 2G22
 -23931280.31149 -18647754.90647  20521382.120    20521385.394
  -1843171.14448                  24400368.241
   1707229.23048   1330288.41744  24727886.235    24727891.717
 -23706474.99149 -18472580.93847  20452256.240    20452256.928
 -11886724.02149  -9262387.94346  22362101.316    22362104.170
 -10365643.72348  -8077119.45345  23104193.832    23104200.928
  -8473009.26249  -6602347.94546  22446441.651    22446445.106
 -13182885.99948 -10272391.91146  22373015.323    22373021.189
 02  1  9  3 30  0.0000000  0  8G 1G 8G20G13G27G31G 2G22
 -23893391.41049 -18618231.16947  20528592.207    20528595.622
  -1934932.79648  -1507741.58844  24382908.919    24382913.098
   1816346.26348   1415314.36144  24748650.279    24748656.403
 -23734418.54449 -18494355.18947  20446938.804    20446939.505
 -11952484.65749  -9313630.07146  22349587.767    22349590.764
 -10465361.66348  -8154821.69345  23085217.674    23085223.547
  -8544321.42749  -6657915.89846  22432871.127    22432874.848
 -13084114.33048 -10195427.17146  22391810.871    22391817.768
 02  1  9  3 30 30.0000000  0  8G 1G 8G20G13G27G31G 2G22
 -23855029.08249 -18588338.53147  20535892.327    20535895.660
  -2026654.77648  -1579213.41144  24365452.830    24365452.415
   1925423.08748   1500308.94244  24769407.434    24769417.611
 -23761881.43849 -18515754.90247  20441712.689    20441713.626
 -12018128.19249  -9364780.94246  22337095.816    22337099.061
 -10564872.10048  -8232362.28145  23066281.829    23066290.020
  -8615352.13449  -6713264.54546  22419354.813    22419358.610
 -12985114.40148 -10118284.57146  22410650.043    22410656.440
 02  1  9  3 31  0.0000000  0  8G 1G 8G20G13G27G31G 2G22
 -23816192.51649 -18558076.35647  20543282.547    20543286.066
  -2118335.57648  -1650653.10444  24348007.685    24348010.701
   2034457.89248   1585270.80344  24790156.161    24790159.400
 -23788861.35449 -18536778.26647  20436578.356    20436579.343
 -12083653.36749  -9415839.59346  22324626.675    22324629.849
 -10664170.71548  -8309737.81845  23047385.523    23047393.714
  -8686099.80449  -6768392.63846  22405891.755    22405895.320
 -12885887.76348 -10040965.32046  22429532.630    22429538.949
 02  1  9  3 31 30.0000000  0  8G 1G 8G20G13G27G31G 2G22
 -23776886.53249 -18527448.40147  20550762.260    20550765.743
  -2209979.22448  -1722063.84244  24330568.554    24330572.629
   2143443.43848                  24810895.683
 -23815360.91549 -18557427.32647  20431535.720    20431536.752
 -12149063.99549  -9466808.97846  22312180.264    22312183.309
 -10763258.66348  -8386949.18645  23028530.342    23028536.480
  -8756567.92249  -6823302.91746  22392482.404    22392486.017
 -12786441.47148  -9963474.92146  22448456.457    22448463.115
 02  1  9  3 32  0.0000000  0  8G 1G 8G20G13G27G31G 2G22
 -23737105.72249 -18496450.45547  20558332.846    20558336.323
  -2301579.63448  -1793440.89344  24313137.431    24313141.125
   2252382.47248   1755081.51944  24831625.700    24831634.139
 -23841373.15749 -18577696.65847  20426585.990    20426586.872
 -12214353.94349  -9517684.33146  22299755.471    22299758.307
 -10862127.10548  -8463989.50945  23009715.482    23009722.787
  -8826750.22949  -6877990.48446  22379126.887    22379130.662
 -12686772.23048  -9885810.77845  22467423.170    22467428.805
 02  1  9  3 32 30.0000000  0  8G 1G 8G20G13G27G31G 2G22
 -23696853.40249 -18465085.09947  20565992.526    20565995.940
  -2393138.99848  -1864786.01344  24295715.195    24295715.628
   2361269.53448                  24852347.419
 -23866899.24049 -18597587.16347  20421728.701    20421729.521
 -12279525.83549  -9568467.69546  22287353.733    22287356.826
 -10960775.71048  -8540858.54845  22990943.673    22990949.985
  -8896648.77349  -6932456.93946  22365825.935    22365829.736
 -12586885.90948  -9807977.50745  22486430.797    22486438.479
 02  1  9  3 33  0.0000000  0  8G 1G 8G20G13G27G31G 2G22
 -23656132.13849 -18433354.33447  20573741.571    20573745.046
  -2484659.46648  -1936100.85344  24278298.486    24278306.926
   2470099.72748   1924730.68344  24873056.566    24873061.706
 -23891940.04249 -18617099.52947  20416963.669    20416964.538
 -12344581.43049  -9619160.43446  22274974.701    22274977.883
 -11059203.23748  -8617555.31345  22972213.497    22972220.031
  -8966265.07249  -6986703.46146  22352578.738    22352582.076
 -12486787.17048  -9729978.70145  22505479.293    22505486.312
 02  1  9  3 33 30.0000000  0  8G 1G 8G20G13G27G31G 2G22
 -23614925.41549 -18401245.29347  20581582.653    20581586.093
  -2576123.59748  -2007371.74044  24260894.134    24260899.655
   2578887.02148   2009499.66844  24893758.855    24893762.063
 -23916477.65049 -18636219.79347  20412294.452    20412295.203
 -12409503.26349  -9669748.94446  22262620.102    22262623.105
 -11157389.58248  -8694064.13545  22953528.990    22953537.429
  -9035581.44849  -7040716.28346  22339387.603    22339391.172
 -12386461.83748  -9651803.33445  22524570.457    22524577.895
 02  1  9  3 34  0.0000000  0  8G 1G 8G20G13G27G31G 2G22
 -23573252.52949 -18368773.00847  20589513.064    20589516.517
  -2667549.92948  -2078613.21444  24243495.529    24243498.647
   2687609.76248                  24914448.548
 -23940529.32049 -18654961.40947  20407717.422    20407718.218
 -12474310.02649  -9720247.78346  22250287.753    22250291.124
 -11255350.35748  -8770397.20345  22934888.242    22934894.478
  -9104616.10149  -7094509.58146  22326251.009    22326255.590
 -12285931.45648  -9573468.18045  22543701.666    22543708.251
 02  1  9  3 34 30.0000000  0  8G 1G 8G20G13G27G31G 2G22
 -23531107.63749 -18335932.92647  20597533.078    20597536.459
  -2758931.80148  -2149819.98244  24226107.275    24226109.707
   2796271.48848                  24935126.119
 -23964087.39949 -18673318.41647  20403234.523    20403235.443
 -12538994.93549  -9770651.66546  22237979.122    22237981.971
 -11353076.10848  -8846547.11245  22916290.747    22916298.251
  -9173362.30549  -7148078.11746  22313169.254    22313173.026
 -12185192.41948  -9494970.45745  22562871.018    22562877.878
 02  1  9  3 35  0.0000000  0  8G 1G 8G20G13G27G31G 2G22
 -23488495.29349 -18302728.59647  20605641.964    20605645.707
  -2850272.74648  -2220994.92744  24208725.921    24208729.930
   2904865.31548   2263508.48244  24955791.319    24955799.198
 -23987154.64549 -18691292.95547  20398844.909    20398845.892
 -12603561.62949  -9820963.42146  22225692.338    22225695.126
 -11450567.64948  -8922514.53845  22897739.469    22897745.835
  -9241823.29549  -7201424.40946  22300141.141    22300145.628
 -12084251.25248  -9416315.21545  22582080.681    22582086.945
 02  1  9  3 35 30.0000000  0  8G 1G 8G20G13G27G31G 2G22
 -23445404.10349 -18269151.14247  20613842.062    20613845.860
  -2941560.83148  -2292128.67144  24191353.985    24191359.173
   3013400.34748   2348080.81444  24976445.179    24976455.604
 -24009717.61849 -18708874.55247  20394551.416    20394552.430
 -12667997.68049  -9871173.39146  22213430.328    22213433.510
 -11547809.93648  -8998287.72445  22879234.156    22879241.641
  -9309986.61649  -7254538.75246  22287170.646    22287174.798
 -11983098.80048  -9337495.31945  22601328.593    22601336.420
 02  1  9  3 36  0.0000000  0  8G 1G 8G20G13G27G31G 2G22
 -23401842.29549 -18235206.96947  20622131.781    20622135.210
  -3032803.39648  -2363226.91144  24173991.728    24173995.868
   3121865.98148   2432599.13744  24997086.044    24997095.228
 -24031783.15649 -18726068.53447  20390352.538    20390353.524
 -12732310.62149  -9921287.42846  22201192.093    22201195.177
 -11644807.66448  -9073870.34245  22860776.742    22860783.666
  -9377859.42049  -7307426.71846  22274254.503    22274259.278
 -11881745.56448  -9258518.98645  22620616.276    22620621.832
 02  1  9  3 36 30.0000000  0  8G 1G 8G20G13G27G31G 2G22
 -23357807.97949 -18200894.60847  20630511.453    20630514.971
  -3123997.64648  -2434287.50344  24156637.279    24156641.273
   3230261.80048                  25017712.998
 -24053347.79249 -18742872.19647  20386248.807    20386249.953
 -12796497.84849  -9971303.51246  22188977.597    22188980.771
 -11741555.45748  -9149258.19245  22842365.803    22842373.234
  -9445438.84549  -7360086.07046  22261394.619    22261399.051
 -11780191.98148  -9179386.50445  22639941.143    22639948.517
 02  1  9  3 37  0.0000000  0  8G 1G 8G20G13G27G31G 2G22
 -23313305.54049 -18166217.47747  20638979.524    20638983.373
  -3215147.29348  -2505313.34044  24139293.174    24139296.342
   3338581.07548   2601467.23344  25038325.249    25038332.703
 -24074413.63649 -18759287.19347  20382240.107    20382241.380
 -12860562.67649 -10021224.20946  22176786.552    22176789.997
 -11838053.65548  -9224451.57945  22824003.003    22824009.759
  -9512728.01249  -7412519.24946  22248590.002    22248594.489
 -11678444.26448  -9100102.76045  22659303.438    22659308.856
 02  1  9  3 37 30.0000000  0  8G 1G 8G20G13G27G31G 2G22
 -23268332.33949 -18131173.52047  20647537.978    20647541.882
  -3306248.23848  -2576301.23344  24121956.952    24121959.441
   3446824.56148   2685812.39044  25058924.018    25058931.925
 -24094976.27549 -18775310.08147  20378327.217    20378328.512
 -12924501.15349 -10071046.45546  22164619.435    22164622.470
 -11934295.85848  -9299445.47245  22805689.154    22805695.092
  -9579722.87849  -7464723.09746  22235841.779    22235845.888
 -11576501.74448  -9020667.21845  22678702.282    22678709.063
 02  1  9  3 38  0.0000000  0  8G 1G 8G20G13G27G31G 2G22
 -23222890.61649 -18095764.47847  20656185.424    20656189.026
  -3397301.97648  -2647252.27144  24104630.020    24104634.211
   3554987.81148                  25079506.696
 -24115036.10149 -18790941.16447  20374510.043    20374511.411
 -12988314.63249 -10120771.30246  22152476.101    22152479.451
 -12030280.35648  -9374238.56545  22787423.134    22787430.261
  -9646424.69049  -7516698.58646  22223148.340    22223152.657
 -11474368.80048  -8941083.30545  22698137.929    22698144.481
 02  1  9  3 38 30.0000000  0  8G 1G 8G20G13G27G31G 2G22
 -23176982.42849 -18059991.95947  20664921.529    20664925.247
  -3488309.53448  -2718167.37544  24087312.142    24087316.432
   3663066.67548                  25100073.452
 -24134593.32249 -18806180.60247  20370788.687    20370790.134
 -13052004.21249 -10170399.61146  22140356.556    22140359.752
 -12126005.47748  -9448829.54045  22769207.718    22769213.464
  -9712834.30249  -7568446.39546  22210511.690    22210515.490
 -11372049.62448  -8861354.25645  22717608.853    22717616.020
 02  1  9  3 39  0.0000000  0  7G 1G 8G13G27G31G 2G22
 -23130607.56749 -18023855.79747  20673746.296    20673749.961
  -3579269.94348  -2789045.67544  24070002.775    24070006.232
 -24153645.95249 -18821026.86147  20367163.112    20367164.539
 -13115568.75149 -10219930.48246  22128261.184    22128264.165
 -12221467.30248  -9523215.36545  22751042.409    22751048.735
  -9778950.56649  -7619965.60846  22197929.506    22197933.992
 -11269545.86548  -8781481.39545  22737114.413    22737120.658
 02  1  9  3 39 30.0000000  0  7G 1G 8G13G27G31G 2G22
 -23083759.66349 -17987351.02947  20682661.233    20682664.813
  -3670175.76148  -2859881.48944  24052704.009    24052708.003
 -24172185.99749 -18835473.69747  20363634.889    20363636.377
 -13179000.65749 -10269358.00846  22116190.476    22116193.488
 -12316655.64448  -9597388.07345  22732928.128    22732934.373
  -9844765.73449  -7671250.20046  22185405.783    22185409.540
 -11166853.16248  -8701461.29745  22756657.099    22756664.018
 02  1  9  3 40  0.0000000  0  8G 1G 8G 3G13G27G31G 2G22
 -23036456.35549 -17950491.40447  20691663.101    20691666.776
  -3761043.40448  -2930687.52144  24035411.863    24035417.282
         -.53659         -.91956  22103733.140    22103739.119
 -24190229.06349 -18849533.28247  20360201.574    20360202.938
 -13242316.60449 -10318695.16546  22104141.114    22104144.438
 -12411584.15748  -9671358.32445  22714863.772    22714870.357
  -9910296.16649  -7722312.91646  22172935.245    22172939.692
 -11063991.01648  -8621309.15245  22776230.465    22776238.656
 02  1  9  3 40 30.0000000  0  8G 1G 8G 3G13G27G31G 2G22
 -22988692.72249 -17913273.08447  20700752.139    20700755.895
  -3851866.96548  -3001459.21545  24018130.106    24018133.306
    -30985.40949    -24144.99546  22097835.643    22097841.461
 -24207768.11649 -18863200.13047  20356863.945    20356865.317
 -13305510.52149 -10367937.23846  22092116.153    22092119.215
 -12506243.94848  -9745119.18245  22696850.524    22696858.347
  -9975535.84549  -7773149.06246  22160521.101    22160525.072
 -10960956.39448  -8541022.61745  22795837.800    22795844.546
 02  1  9  3 41  0.0000000  0  8G 1G 8G 3G13G27G31G 2G22
 -22940450.45249 -17875681.80147  20709932.502    20709936.142
  -3942627.21348  -3072181.55844  24000858.038    24000862.893
    -61409.17649    -47851.85646  22092046.494    22092052.261
 -24224783.59049 -18876458.99347  20353626.068    20353627.509
 -13368562.92449 -10417069.04046  22080118.005    22080121.047
 -12600613.13548  -9818653.59445  22678892.587    22678899.303
 -10040465.41649  -7823743.56746  22148165.100    22148169.423
 -10857733.07448  -8460589.05945  22815480.351    22815487.731
 02  1  9  3 41 30.0000000  0  8G 1G 8G 3G13G27G31G 2G22
 -22891737.27649 -17837723.57747  20719202.092    20719205.898
  -4033330.64448  -3142859.62544  23983598.740    23983600.649
    -91277.27549    -71125.72246  22086363.994    22086369.147
 -24241281.11049 -18889314.26147  20350486.721    20350488.237
 -13431480.27049 -10466095.59146  22068145.650    22068148.706
 -12694695.57748  -9891964.57345  22660989.241    22660997.432
 -10105091.24149  -7874101.39446  22135867.773    22135872.080
 -10754330.50448  -8380015.83245  22835157.950    22835164.303
 02  1  9  3 42  0.0000000  0  8G 1G 8G 3G13G27G31G 2G22
 -22842561.73349 -17799405.06747  20728560.277    20728564.194
  -4123985.04948  -3213499.54044  23966346.578    23966352.428
   -120596.24449    -93971.68846  22080784.366    22080790.227
 -24257267.17049 -18901770.98847  20347444.670    20347446.163
 -13494270.22149 -10515022.87346  22056196.457    22056199.636
 -12788495.94548  -9965055.74245  22643140.184    22643146.592
 -10169420.73749  -7924228.30446  22123625.772    22123630.266
 -10650759.05748  -8299310.99845  22854866.669    22854873.536
 02  1  9  3 42 30.0000000  0  8G 1G 8G 3G13G27G31G 2G22
 -22792928.37149 -17760729.81847  20738005.252    20738008.901
  -4214593.35948  -3284103.50545  23949105.361    23949108.356
   -149368.40949   -116391.56146  22075309.488    22075314.436
 -24272744.54749 -18913831.34047  20344499.332    20344500.934
 -13556935.93849 -10563853.35646  22044271.283    22044274.718
 -12882014.64148 -10037927.46045  22625344.227    22625350.632
 -10233457.14449  -7974126.83946  22111440.699    22111444.792
 -10547025.11148  -8218479.56945  22874606.407    22874613.924
 02  1  9  3 43  0.0000000  0  8G 1G 8G 3G13G27G31G 2G22
 -22742835.70949 -17721696.67147  20747537.661    20747541.282
  -4305153.32948  -3354669.67245  23931872.212    23931874.635
   -177590.38649   -138382.71846  22069939.172    22069944.491
 -24287710.05349 -18925492.83347  20341651.454    20341652.890
 -13619474.67749 -10612584.88046  22032371.498    22032374.619
 -12975246.49248 -10110575.64046  22607602.117    22607608.891
 -10297197.77649  -8023794.89346  22099310.619    22099315.381
 -10443129.06148  -8137521.81945  22894378.047    22894384.070
 02  1  9  3 43 30.0000000  0  8G 1G 8G 3G13G27G31G 2G22
 -22692285.65149 -17682307.10947  20757157.022    20757160.969
  -4395665.48248  -3425198.76345  23914648.735    23914652.503
   -205261.61049   -159944.71946  22064673.149    22064678.869
 -24302163.96249 -18936755.67447  20338901.091    20338902.628
 -13681887.21649 -10661218.07446  22020495.482    22020498.335
 -13068189.22748 -10182998.54146  22589916.321    22589921.447
 -10360643.29649  -8073232.99646  22087238.049    22087242.193
 -10339074.52248  -8056440.57745  22914178.765    22914185.507
 02  1  9  3 44  0.0000000  0  8G 1G 8G 3G13G27G31G 2G22
 -22641251.74849 -17642540.52747  20766868.567    20766872.442
  -4486102.27448  -3495669.13745  23897438.966    23897445.260
   -232353.87649   -181055.57546  22059517.798    22059523.198
 -24316077.96549 -18947597.81647  20336253.524    20336255.034
 -13744145.82749 -10709731.32346  22008646.691    22008649.737
 -13160812.76848 -10255172.72946  22572290.440    22572297.398
 -10423766.00449  -8122419.55346  22075225.673    22075230.241
 -10234836.80348  -7975216.58945  22934015.229    22934022.510
 02  1  9  3 44 30.0000000  0  8G 1G 8G 3G13G27G31G 2G22
 -22589748.58949 -17602408.28847  20776669.021    20776673.019
  -4576477.32248  -3566091.34844  23880240.204    23880244.332
   -258879.86449   -201725.17946  22054469.538    22054475.749
 -24329464.74249 -18958029.13047  20333706.468    20333707.777
 -13806263.94349 -10758135.09746  21996826.068    21996829.159
 -13253127.81548 -10327106.54346  22554723.441    22554730.426
 -10486579.38949  -8171365.07946  22063272.892    22063276.795
 -10130432.50548  -7893862.82345  22953881.564    22953888.994
 02  1  9  3 45  0.0000000  0  8G 1G 8G 3G13G27G31G 2G22
 -22537794.67049 -17561924.81047  20786555.847    20786559.824
  -4666807.73948  -3636478.79944  23863052.376    23863057.816
   -284855.80849   -221966.17046  22049526.737    22049532.887
 -24342340.92149 -18968062.57647  20331256.224    20331257.408
 -13868258.67749 -10806442.72746  21985030.165    21985033.127
 -13345148.71148 -10398811.15046  22537212.134    22537219.354
 -10549100.73649  -8220083.05046  22051375.404    22051379.654
 -10025881.59548  -7812394.79745  22973778.479    22973787.663
 02  1  9  3 45 30.0000000  0  8G 1G 8G 3G13G27G31G 2G22
 -22485378.79249 -17521081.36347  20796530.284    20796534.586
  -4757081.04048  -3706821.75245  23845872.630    23845879.272
   -310268.56649   -241768.32146  22044690.607    22044696.523
 -24354693.34249 -18977687.89547  20328905.550    20328906.989
 -13930117.48649 -10854644.45146  21973258.396    21973261.482
 -13436860.21648 -10470274.67446  22519760.593    22519767.452
 -10611317.36949  -8268563.58046  22039536.220    22039539.976
  -9921174.68948  -7730805.23645  22993702.635    22993711.571
 02  1  9  3 46  0.0000000  0  8G 1G 8G 3G13G27G31G 2G22
 -22432503.43349 -17479879.87847  20806592.056    20806596.411
  -4847298.38048  -3777121.08944  23828707.011    23828709.566
   -335118.70049   -261132.06446  22039961.758    22039967.471
 -24366522.60849 -18986905.56247  20326654.584    20326655.990
 -13991841.59049 -10902741.19846  21961511.925    21961515.023
 -13528260.94848 -10541496.05646  22502367.784    22502374.312
 -10673230.59449  -8316807.69646  22027754.646    22027758.689
  -9816315.72848  -7649097.20245  23013657.859    23013664.908
 02  1  9  3 46 30.0000000  0  8G 1G 8G 3G13G27G31G 2G22
 -22379178.41449 -17438328.01147  20816739.807    20816744.113
  -4937468.30548  -3847383.49344  23811546.584    23811552.382
   -359413.69249   -280063.22646  22035338.602    22035344.490
 -24377836.87749 -18995721.93647  20324501.575    20324502.953
 -14053439.16049 -10950739.40146  21949790.402    21949793.458
 -13619356.60548 -10612479.70846  22485032.245    22485040.436
 -10734848.84949  -8364821.90146  22016028.780    22016032.591
  -9711315.99048  -7567279.43545  23033638.013    23033645.761
 02  1  9  3 47  0.0000000  0  8G 1G 8G 3G13G27G31G 2G22
 -22325401.41649 -17396423.95247  20826972.809    20826977.139
  -5027587.23548  -3917606.11344  23794397.884    23794404.013
   -383149.12349   -298558.36546  22030822.000    22030828.056
 -24388631.85649 -19004133.66347  20322447.462    20322448.823
 -14114906.78149 -10998636.27246  21938094.105    21938097.223
 -13710140.61748 -10683220.55046  22467757.312    22467764.028
 -10796168.53449  -8412603.54446  22004360.533    22004364.235
  -9606174.99748  -7485351.65245  23053646.341    23053655.277
 02  1  9  3 47 30.0000000  0  8G 1G 8G 3G13G27G31G 2G22
 -22271157.67449 -17354156.19347  20837295.498    20837300.103
  -5117639.11148  -3987776.50144  23777262.164    23777265.366
   -406308.28649   -316604.46446  22026414.816    22026419.978
 -24398890.99449 -19012127.85047  20320495.141    20320496.446
 -14176228.17549 -11046419.23046  21926425.228    21926428.481
 -13800594.05448 -10753703.78446  22450544.033    22450550.533
 -10857173.47049  -8460139.88946  21992751.293    21992755.856
  -9500879.48648  -7403303.41545  23073684.048    23073689.697
 02  1  9  3 48  0.0000000  0  8G 1G 8G 3G13G27G31G 2G22
 -22216461.80149 -17311536.12947  20847703.625    20847708.318
  -5207637.09748  -4057904.74944  23760135.562    23760140.479
   -428903.74949   -334211.32546  22022114.934    22022120.602
 -24408627.05949 -19019714.45247  20318642.387    20318643.700
 -14237416.44849 -11094098.46046  21914780.941    21914784.255
 -13890727.78648 -10823937.90646  22433392.545    22433398.511
 -10917877.02349  -8507441.39246  21981200.032    21981204.412
  -9395445.53048  -7321147.34645  23093746.802    23093756.731
 02  1  9  3 48 30.0000000  0  8G 1G 8G 3G13G27G31G 2G22
 -22161302.23749 -17268554.74747  20858200.306    20858204.696
  -5297568.48348  -4127981.46045  23743022.950    23743027.979
   -450922.21949   -351368.57746  22017925.643    22017930.657
 -24417826.70049 -19026883.06247  20316891.687    20316893.038
 -14298458.68749 -11141663.89146  21903164.891    21903168.502
 -13980526.54148 -10893911.01946  22416304.359    22416311.391
 -10978266.42949  -8554498.10446  21969708.356    21969712.738
  -9289863.25848  -7238875.68045  23113839.640    23113846.858
 02  1  9  3 49  0.0000000  0  8G 1G 8G 3G13G27G31G 2G22
 -22105697.29049 -17225226.31847  20868781.778    20868786.007
  -5387450.16648  -4198019.18644  23725917.534    23725922.277
   -472379.79749   -368088.77346  22013842.160    22013848.225
 -24426506.42549 -19033646.54747  20315240.314    20315241.665
 -14359371.83149 -11189128.73046  21891574.086    21891577.091
 -14070004.40549 -10963634.09346  22399277.822    22399284.249
 -11038358.95549  -8601323.47746  21958272.975    21958277.431
  -9184152.52648  -7156503.91645  23133954.756    23133963.443
 02  1  9  3 49 30.0000000  0  8G 1G 8G 3G13G27G31G 2G22
 -22049643.87649 -17181548.43347  20879448.207    20879452.776
  -5477277.82548  -4268014.83145  23708825.212    23708828.361
   -493271.60749   -384368.11346  22009866.430    22009871.422
 -24434661.32649 -19040001.07747  20313688.354    20313689.883
 -14420151.36149 -11236489.45146  21880008.296    21880011.458
 -14159154.19449 -11033101.52046  22382313.102    22382319.097
 -11098150.13949  -8647914.03546  21946894.829    21946899.419
  -9078311.77548  -7074030.86545  23154096.818    23154105.257
 02  1  9  3 50  0.0000000  0  8G 1G 8G 3G13G27G31G 2G22
 -21993137.59049 -17137517.66547  20890201.219    20890205.707
  -5567045.47148  -4337963.72745  23691742.393    23691747.350
   -513590.92749   -400201.35346  22005999.789    22006005.093
 -24442285.27349 -19045941.87747  20312237.133    20312238.711
 -14480791.28149 -11283741.38846  21868468.030    21868471.631
 -14247967.26448 -11102306.57546  22365411.725    22365419.255
 -11157634.25649  -8694265.32646  21935575.595    21935579.606
  -8972337.98948  -6991454.12945  23174262.329    23174269.960
 02  1  9  3 50 30.0000000  0  8G 1G 8G 3G13G27G31G 2G22
 -21936170.35549 -17093127.71447  20901042.112    20901046.555
  -5656743.49848  -4407858.36245  23674674.552    23674677.625
   -533327.77349   -415580.71646  22002243.882    22002249.306
 -24449368.08449 -19051461.01147  20310889.724    20310891.208
 -14541281.96049 -11330877.02646  21856956.936    21856960.919
 -14336431.55649 -11171239.83846  22348578.605    22348584.140
 -11216801.81449  -8740369.94846  21924315.996    21924320.875
  -8866224.43948  -6908768.53445  23194456.086    23194463.829
 02  1  9  3 51  0.0000000  0  8G 1G 8G 3G13G27G31G 2G22
 -21878737.69449 -17048375.09647  20911970.972    20911975.647
  -5746366.16548  -4477694.30545  23657619.456    23657624.211
   -552475.85449   -430501.30546  21998600.299    21998606.442
 -24455903.90049 -19056553.91847  20309645.892    20309647.493
 -14601617.44649 -11377891.73946  21845476.072    21845479.330
 -14424538.43449 -11239894.60346  22331812.180    22331818.877
 -11275646.99249  -8786223.36146  21913118.812    21913123.078
  -8759968.09048  -6825971.60345  23214675.920    23214684.111
 02  1  9  3 51 30.0000000  0  8G 1G 8G 3G13G27G31G 2G22
 -21820861.36949 -17003276.76747  20922984.428    20922989.226
  -5835933.63348  -4547487.21345  23640574.949    23640581.826
   -571054.76849   -444978.38946  21995064.583    21995069.899
 -24461912.27149 -19061235.82647  20308502.715    20308504.346
 -14661817.79149 -11424801.15546  21834020.115    21834023.342
 -14512305.41448 -11308284.50246  22315109.976    22315117.707
 -11334190.00549  -8831841.32546  21901977.715    21901982.383
  -8653592.01748  -6743081.44545  23234918.553    23234927.489
 02  1  9  3 52  0.0000000  0  8G 1G 8G 3G13G27G31G 2G22
 -21762539.19749 -16957831.02447  20934083.315    20934087.608
  -5925442.37748  -4617234.35445  23623542.669    23623547.044
   -589060.66749   -459008.96846  21991638.425    21991644.385
 -24467389.29149 -19065503.69247  20307460.724    20307462.441
 -14721879.29949 -11471602.38346  21822591.123    21822594.378
 -14599726.24149 -11376404.67546  22298475.093    22298481.114
 -11392427.71049  -8877221.38346  21890896.086    21890900.452
  -8547095.57048  -6660097.44645  23255184.750    23255191.496
 02  1  9  3 52 30.0000000  0  8G 1G 8G 3G13G27G31G 2G22
 -21703769.44249 -16912036.51847  20945266.344    20945271.143
  -6014889.02848  -4686933.08945  23606521.466    23606526.672
   -606489.84249   -472590.16446  21988321.474    21988327.761
 -24472331.24049 -19069354.61747  20306520.248    20306521.755
 -14781798.51349 -11518292.73546  21811188.874    21811192.164
 -14686795.17149 -11444250.63546  22281906.561    22281912.888
 -11450356.79049  -8922360.95546  21879872.501    21879877.075
  -8440478.22448  -6577019.27845  23275473.657    23275483.089
 02  1  9  3 53  0.0000000  0  8G 1G 8G 3G13G27G31G 2G22
 -21644554.65249 -16865895.23547  20956534.720    20956539.578
  -6104274.73648  -4756584.38245  23589512.775    23589517.046
   -623342.99249   -485722.49646  21985114.071    21985120.136
 -24476739.17749 -19072789.42347  20305681.398    20305683.016
 -14841576.61249 -11564873.13246  21799813.552    21799817.050
 -14773510.60348 -11511821.12746  22265404.393    22265411.784
 -11507978.73649  -8967261.19646  21868907.373    21868911.760
  -8333743.92448  -6493849.96945  23295784.389    23295791.525
 02  1  9  3 53 30.0000000  0  8G 1G 8G 3G13G27G31G 2G22
 -21584890.67349 -16819403.93447  20967889.049    20967893.404
  -6193593.65348  -4826183.60145  23572515.274    23572520.477
   -639613.68849   -498400.97546  21982017.792    21982024.301
 -24480607.03649 -19075803.39147  20304945.319    20304947.147
 -14901207.64349 -11611338.92646  21788466.123    21788469.531
 -14859864.02349 -11579109.52746  22248972.802    22248979.148
 -11565287.85249  -9011917.67646  21858002.250    21858006.328
  -8226889.70348  -6410587.20945  23316117.902    23316125.413
 02  1  9  3 54  0.0000000  0  8G 1G 8G 3G13G27G31G 2G22
 -21524780.74549 -16772565.13747  20979327.261    20979331.916
  -6282847.73848  -4895732.27745  23555530.420    23555536.416
   -655303.42049   -510626.75646  21979032.605    21979038.483
 -24483936.16149 -19078397.56947  20304311.889    20304313.750
 -14960692.99649 -11657691.20846  21777146.589    21777149.811
 -14945854.65649 -11646115.22446  22232608.914    22232615.507
 -11622286.08849  -9056331.91546  21847155.347    21847160.019
  -8119920.12048  -6327234.57345  23336474.445    23336481.848
 02  1  9  3 54 30.0000000  0  8G 1G 8G 3G13G27G31G 2G22
 -21464223.87449 -16725378.07847  20990850.854    20990855.681
  -6372034.20448  -4965228.29245  23538559.256    23538564.301
   -670409.38249   -522397.65046  21976158.330    21976164.310
 -24486723.87149 -19080569.86247  20303781.704    20303783.313
 -15020030.11549 -11703927.98646  21765855.279    21765858.546
 -15031477.31749 -11712834.17646  22216314.874    22216322.633
 -11678970.81249  -9100501.85346  21836368.875    21836373.255
  -8012835.52148  -6243792.30845  23356851.234    23356859.096
 02  1  9  3 55  0.0000000  0  8G 1G 8G 3G13G27G31G 2G22
 -21403227.49649 -16677848.54747  21002458.169    21002462.898
  -6461158.86748  -5034676.11745  23521599.611    23521604.638
   -684937.15849   -533718.01246  21973393.752    21973399.719
 -24488975.81949 -19082324.67747  20303353.237    20303355.050
 -15079224.76349 -11750053.74746  21754590.834    21754594.172
 -15116735.13849 -11779268.82946  22200092.003    22200098.582
 -11735348.09049  -9144432.22046  21825640.243    21825645.034
  -7905644.33348  -6160266.97745  23377250.383    23377259.567
 02  1  9  3 55 30.0000000  0  8G 1G 8G 3G13G27G31G 2G22
 -21341795.40349 -16629979.49847  21014148.922    21014153.603
  -6550224.06948  -5104077.60645  23504651.057    23504656.596
   -698888.44049   -544589.16246  21970738.797    21970744.311
 -24490693.97749 -19083663.55547  20303026.066    20303027.761
 -15138279.01049 -11796070.09246  21743353.102    21743356.677
 -15201627.82949 -11845418.94646  22183936.443    22183944.375
 -11791420.37249  -9188124.93346  21814970.335    21814974.679
  -7798351.69648  -6076662.59745  23397666.582    23397676.262
 02  1  9  3 56  0.0000000  0  8G 1G 8G 3G13G27G31G 2G22
 -21279931.45449 -16581773.93647  21025920.852    21025925.861
  -6639232.02648  -5173434.49045  23487712.997    23487716.724
   -712265.51149   -555012.87346  21968193.376    21968199.079
 -24491880.38749 -19084588.08947  20302800.195    20302802.090
 -15197194.93349 -11841978.64746  21732141.974    21732145.184
 -15286155.02249 -11911284.25046  22167851.986    22167858.645
 -11847190.32949  -9231582.06846  21804357.747    21804362.169
  -7690962.58648  -5992983.04745  23418103.090    23418110.747
 02  1  9  3 56 30.0000000  0  8G 1G 8G 3G13G27G31G 2G22
 -21217626.96249 -16533225.10047  21037777.145    21037782.013
  -6728172.22048  -5242738.56545  23470788.242    23470793.843
   -725057.61349   -564980.76446  21965759.171    21965764.661
 -24492524.43549 -19085089.99747  20302677.699    20302679.605
 -15255962.07249 -11887771.26546  21720959.187    21720962.431
 -15370303.83649 -11976854.71446  22151838.861    22151845.578
 -11902647.75449  -9274795.67146  21793804.331    21793808.811
  -7583469.51348  -5909222.48545  23438557.774    23438567.703
 02  1  9  3 57  0.0000000  0  8G 1G 8G 3G13G27G31G 2G22
 -21154867.22949 -16484321.52647  21049720.149    21049724.932
  -6817028.41948  -5311977.22345  23453880.596    23453885.051
   -737248.06949   -574479.84646  21963439.244    21963445.032
 -24492609.74049 -19085156.52047  20302661.521    20302663.353
 -15314563.97449 -11933435.12146  21709807.380    21709810.684
 -15454055.46949 -12042115.66046  22135900.819    22135907.850
 -11957776.72849  -9317753.34446  21783313.490    21783317.925
  -7475858.74248  -5825370.20445  23459036.326    23459047.744
 02  1  9  3 57 30.0000000  0  8G 1G 8G 3G13G27G31G 2G22
 -21091666.31049 -16435074.17747  21061746.450    21061751.431
  -6905812.87948  -5381159.97245  23436983.596    23436989.137
   -748849.08549   -583519.62046  21961231.908    21961237.607
 -24492148.60949 -19084797.25347  20302749.588    20302751.445
 -15373012.87449 -11978979.75546  21698684.802    21698688.129
 -15537419.57149 -12107074.63846  22120038.081    22120044.408
 -12012589.71749  -9360464.79546  21772883.623    21772887.762
  -7368145.52648  -5741438.10245  23479533.211    23479544.381
 02  1  9  3 58  0.0000000  0  8G 1G 8G 3G13G27G31G 2G22
 -21028027.55849 -16385485.65747  21073857.118    21073861.924
  -6994527.13948  -5450288.01945  23420103.077    23420108.455
   -759862.38549   -592101.44346  21959135.980    21959141.424
 -24491142.66049 -19084013.45147  20302940.947    20302942.809
 -15431310.18649 -12024406.27246  21687591.688    21687594.889
 -15620395.22149 -12171730.91746  22104247.811    22104254.928
 -12067088.61149  -9402931.49646  21762512.680    21762516.747
  -7260334.02648  -5657429.43045  23500049.095    23500059.520
 02  1  9  3 58 30.0000000  0  8G 1G 8G 3G13G27G31G 2G22
 -20963954.67449 -16335558.85347  21086049.681    21086054.642
  -7083173.55248  -5519363.19245  23403233.499    23403238.612
   -770289.88049   -600226.80246  21957151.609    21957157.012
 -24489593.61349 -19082806.45647  20303235.965    20303237.676
 -15489457.81649 -12069716.15346  21676526.807    21676530.151
 -15702982.12149 -12236084.26746  22088531.829    22088538.848
 -12121275.73949  -9445155.26646  21752201.232    21752205.568
  -7152429.42348  -5573348.19845  23520583.568    23520591.759
 02  1  9  3 59  0.0000000  0  8G 1G 8G 3G13G27G31G 2G22
 -20899430.19449 -16285280.15947  21098328.386    21098333.654
  -7171732.76748  -5588370.41845  23386381.552    23386386.869
   -780112.20949   -607880.60546  21955282.964    21955288.094
 -24487482.42049 -19081161.42847  20303637.727    20303639.541
 -15547436.63249 -12114894.49146  21665493.584    21665497.139
 -15785158.76649 -12300117.94346  22072894.281    22072900.383
 -12175132.41049  -9487121.54146  21741952.604    21741957.167
  -7044415.07548                  23541137.301
 02  1  9  3 59 30.0000000  0  8G 1G 8G 3G13G27G31G 2G22
 -20834479.73749 -16234669.53747  21110688.375    21110693.489
  -7260228.74448  -5657328.38945  23369541.549    23369546.627
   -789353.37849   -615081.56146  21953524.172    21953529.272
 -24484832.94449 -19079096.95547  20304141.966    20304143.741
 -15605270.29049 -12159959.72146  21654487.839    21654491.482
 -15866946.40249 -12363848.49146  22057330.520    22057337.287
 -12228682.63949  -9528849.03446  21731762.470    21731766.767
  -6936317.70948  -5404950.05445  23561708.668    23561718.596
 02  1  9  4  0  0.0000000  0  8G 1G 8G 3G13G27G31G 2G22
 -20769108.70849 -16183731.19747  21123128.050    21123132.929
  -7348664.69748  -5726239.57745  23352712.593    23352718.661
   -798016.82849   -621832.35546  21951876.093    21951881.462
 -24481648.90149 -19076615.93847  20304747.803    20304749.655
 -15662962.29249 -12204914.57346  21643509.536    21643513.046
 -15948346.11349 -12427276.76746  22041840.152    22041847.024
 -12281930.34449  -9570340.79446  21721629.997    21721634.123
  -6828143.47248  -5320658.73545  23582293.010    23582300.613
 02  1  9  4  0 30.0000000  0  8G 1G 8G 3G13G27G31G 2G22
 -20703290.60649 -16132444.48647  21135652.899    21135657.846
  -7437012.39248  -5795081.99345  23335900.120    23335905.621
   -806074.30049   -628110.94846  21950342.323    21950348.133
 -24477901.81249 -19073696.18447  20305461.056    20305462.869
 -15720484.08549 -12249736.79947  21632563.763    21632566.985
 -16029327.01349 -12490378.69746  22026430.504    22026437.129
 -12334847.44549  -9611574.94346  21711559.837    21711564.531
  -6719866.76848  -5236287.57945  23602897.921    23602909.091
 02  1  9  4  1  0.0000000  0  8G 1G 8G 3G13G27G31G 2G22
 -20637031.14749 -16080813.86447  21148261.719    21148266.867
  -7525275.93148  -5863858.79245  23319103.825    23319110.234
   -813529.78449   -633920.48546  21948923.970    21948929.304
 -24473595.87249 -19070340.95847  20306280.410    20306282.207
 -15777839.61949 -12294429.46846  21621649.313    21621652.759
 -16109890.81449 -12553155.62946  22011099.453    22011105.841
 -12387438.33249  -9652554.89046  21701551.901    21701556.840
  -6611494.53148  -5151841.95045  23623520.662    23623531.335
 02  1  9  4  1 30.0000000  0  8G 1G 8G 3G13G27G31G 2G22
 -20570351.94949 -16028856.17347  21160950.416    21160955.953
  -7613475.03948  -5932585.40345  23302322.000    23302327.049
   -820403.13249   -639276.41046  21947616.045    21947621.751
 -24468750.76349 -19066565.60247  20307202.438    20307204.260
 -15835048.40349 -12339007.78546  21610762.604    21610765.889
 -16190054.68149 -12615620.91546  21995844.843    21995851.385
 -12439723.23349  -9693296.40546  21691603.194    21691607.366
  -6503049.09848  -5067339.32045  23644157.873    23644166.561
 02  1  9  4  2  0.0000000  0  8G 1G 8G 3G13G27G31G 2G22
 -20503262.50449 -15976578.80747  21173717.430    21173722.521
  -7701617.41448  -6001267.82245  23285548.512    23285552.961
   -826702.10949   -644184.77346  21946417.620    21946423.009
 -24463374.50149 -19062376.35947  20308225.516    20308227.426
 -15892117.98849 -12383477.63047  21599902.875    21599906.422
 -16269823.88849 -12677778.69046  21980665.301    21980671.629
 -12491710.37849  -9733805.89946  21681710.102    21681714.531
  -6394540.92348  -4982787.79944  23664805.616    23664812.996
 02  1  9  4  2 30.0000000  0  8G 1G 8G 3G13G27G31G 2G22
 -20435751.40049 -15923972.87847  21186564.255    21186569.271
  -7789689.74348  -6069895.61045  23268787.345    23268793.723
   -832413.48249   -648635.27446  21945330.564    21945336.003
 -24457453.59649 -19057762.71747  20309352.356    20309354.232
 -15949034.87149 -12427828.48047  21589072.011    21589075.522
 -16349182.81649 -12739616.76846  21965563.364    21965570.679
 -12543386.65549  -9774073.15446  21671876.141    21671880.712
  -6285959.31148  -4898178.99545  23685468.623    23685479.296
 02  1  9  4  3  0.0000000  0  8G 1G 8G 3G13G27G31G 2G22
 -20367811.97549 -15871033.19647  21199492.729    21199497.716
  -7877683.12448  -6138461.90945  23252044.881    23252049.481
   -837528.81949   -652621.32846  21944357.537    21944362.923
 -24450979.82549 -19052718.27347  20310584.259    20310586.201
 -16005790.20249 -12472053.44047  21578271.831    21578275.388
 -16428120.38549 -12801126.51546  21950542.590    21950549.006
 -12594743.78349  -9814091.72046  21662103.601    21662107.936
  -6177298.21948  -4813508.25844  23706146.069    23706153.386
 02  1  9  4  3 30.0000000  0  8G 1G 8G 3G13G27G31G 2G22
 -20299438.85449 -15817755.56547  21212503.965    21212508.927
  -7965590.67948  -6206961.32045  23235315.245    23235320.300
   -842041.21349   -656137.55546  21943498.655    21943504.441
 -24443945.96149 -19047237.39147  20311922.720    20311924.639
 -16062376.58149 -12516146.74647  21567503.783    21567507.325
 -16506627.20349 -12862300.62546  21935602.575    21935609.422
 -12645775.22349  -9853856.50646  21652392.518    21652397.099
  -6068553.46948  -4728771.35944  23726840.157    23726848.844
 02  1  9  4  4  0.0000000  0  8G 1G 8G 3G13G27G31G 2G22
 -20230640.49749 -15764146.58647  21225595.897    21225601.400
  -8053418.82648  -6275398.85445  23218603.372    23218607.670
   -845957.29349   -659189.11646  21942753.720    21942759.452
 -24436358.88449 -19041325.43947  20313366.421    20313368.286
 -16118800.46449 -12560113.43447  21556766.813    21556770.332
 -16584707.29649 -12923142.21946  21920744.572    21920751.178
 -12696487.84249  -9893372.85746  21642742.238    21642746.821
  -5959734.12948                  23747547.598
 02  1  9  4  4 30.0000000  0  8G 1G 8G 3G13G27G31G 2G22
 -20161418.96249 -15710207.85847  21238768.505    21238773.882
  -8141167.60348  -6343774.54245  23201904.930    23201908.482
   -849277.41249   -661776.29346  21942121.664    21942127.492
 -24428218.96149 -19034982.69847  20314915.247    20314917.234
 -16175061.84149 -12603953.48647  21546060.555    21546064.041
 -16662358.51249 -12983649.63846  21905968.462    21905974.417
 -12746882.27649  -9932641.26847  21633152.641    21633157.074
  -5850843.09948  -4559127.46145  23768269.473    23768280.146
 02  1  9  4  5  0.0000000  0  8G 1G 8G 3G13G27G31G 2G22
 -20091774.62849 -15655939.67747  21252021.591    21252026.429
  -8228835.51448  -6412087.22045  23185221.514    23185226.483
   -852000.33849   -663898.12746  21941603.945    21941609.555
 -24419525.05449 -19028208.27947  20316569.975    20316571.908
 -16231159.03349 -12647665.59947  21535385.388    21535389.161
 -16739577.00449 -13043819.86246  21891274.364    21891280.714
 -12796957.26449  -9971660.75647  21623623.372    21623628.244
  -5741881.45348                  23789004.193
 02  1  9  4  5 30.0000000  0  8G 1G 8G 3G13G27G31G 2G22
 -20021708.30149 -15601342.67847  21265354.448    21265360.464
  -8316421.38048  -6480335.99145  23168555.272    23168559.988
   -854125.10349   -665553.84446  21941199.185    21941205.391
 -24410275.80449 -19021001.12747  20318330.309    20318332.130
 -16287090.53649 -12691248.60247  21524742.165    21524745.837
 -16816359.08449 -13103650.03746  21876662.766    21876668.836
 -12846712.06949 -10010430.75646  21614155.415    21614160.212
  -5632850.48548  -4389263.61344  23809752.431    23809762.112
 02  1  9  4  6  0.0000000  0  8G 1G 8G 3G13G27G31G 2G22
 -19951224.86649 -15546420.65647  21278767.413    21278772.865
  -8403928.00748  -6548523.00945  23151903.430    23151908.053
   -855655.03949   -666746.06446  21940908.268    21940913.809
 -24400474.67749 -19013363.93747  20320195.444    20320197.408
 -16342859.17849 -12734704.70347  21514130.163    21514133.495
 -16892705.29149 -13163140.56146  21862135.082    21862140.943
 -12896150.09849 -10048953.91547  21604747.687    21604752.526
  -5523755.97248                  23830512.094
 02  1  9  4  6 30.0000000  0  8G 1G 8G 3G13G27G31G 2G22
 -19880323.59249 -15491173.04646  21292259.079    21292264.801
  -8491352.82448  -6616646.26945  23135266.404    23135272.296
   -856587.93749   -667473.03146  21940730.893    21940736.458
 -24390119.18649 -19005294.77547  20322165.955    20322167.815
 -16398462.31649 -12778031.84247  21503548.977    21503552.478
 -16968610.85249 -13222287.72846  21847689.958    21847696.662
 -12945269.35749 -10087228.68447  21595400.388    21595405.426
  -5414597.92548  -4219197.12144  23851285.093    23851295.021
 02  1  9  4  7  0.0000000  0  8G 1G 8G 3G13G27G31G 2G22
 -19809014.63749 -15435607.76846  21305828.965    21305834.898
  -8578703.65848  -6684711.91045  23118644.610    23118649.649
   -856932.20049   -667741.33046  21940665.330    21940671.068
 -24379217.94449 -18996800.35247  20324240.525    20324242.530
 -16453907.59549 -12821235.97747  21492997.680    21493001.379
 -17044081.42949 -13281095.93946  21833328.855    21833334.906
 -12994078.40549 -10125261.72747  21586112.406    21586117.375
  -5305386.92348                  23872066.447
 02  1  9  4  7 30.0000000  0  8G 1G 8G 3G13G27G31G 2G22
 -19737286.34549 -15379715.72946  21319479.138    21319484.341
  -8665966.92548  -6752709.32745  23102039.217    23102044.149
   -856674.30449   -667540.39746  21940714.266    21940720.006
 -24367757.45449 -18987870.15547  20326421.506    20326423.310
 -16509181.09549 -12864306.25747  21482479.806    21482483.241
 -17119100.87749 -13339552.61946  21819053.026    21819059.766
 -13042563.83349 -10163042.59947  21576886.239    21576891.089
  -5196112.03248  -4048948.89444  23892861.847    23892873.265
 02  1  9  4  8  0.0000000  0  7G 1G 8G13G27G31G 2G22
 -19665143.31949 -15323500.51946  21333206.974    21333212.747
  -8753145.04048  -6820640.37545  23085450.610    23085455.496
 -24355740.65949 -18978506.47447  20328708.399    20328710.354
 -16564285.40249 -12907244.70847  21471994.077    21471997.315
 -17193669.77249 -13397658.21446  21804862.941    21804869.365
 -13090728.85549 -10200573.80947  21567720.624    21567725.281
  -5086778.29848                  23913666.742
 02  1  9  4  8 30.0000000  0  7G 1G 8G13G27G31G 2G22
 -19592581.82649 -15266959.23546  21347015.503    21347021.645
  -8840232.13448  -6888500.50445  23068877.938    23068882.950
 -24343162.25149 -18968705.17247  20331101.824    20331103.764
 -16619214.53549 -12950046.66247  21461541.493    21461544.937
 -17267780.00949 -13455406.40846  21790760.615    21790766.359
 -13138568.25249 -10237851.28147  21558617.184    21558621.994
  -4977382.68848  -3878510.96044  23934485.227    23934492.331
 02  1  9  4  9  0.0000000  0  7G 1G 8G13G27G31G 2G22
 -19519631.01249 -15210114.58546  21360897.633    21360903.276
  -8927255.45548  -6956310.94145  23052317.641    23052322.752
 -24330049.68549 -18958487.64547  20333597.019    20333599.007
 -16673995.48549 -12992733.14747  21451117.021    21451120.576
 -17341456.45449 -13512816.57546  21776739.622    21776746.228
 -13186109.75349 -10274896.62547  21549570.274    21549574.929
  -4867954.88448                  23955308.275
 02  1  9  4  9 30.0000000  0  8G 1G 8G28G13G27G31G 2G22
 -19446265.93149 -15152947.12546  21374858.846    21374864.106
  -9014188.01248  -7024050.64945  23035774.923    23035780.853
         -.17157                  25394002.285
 -24316376.65049 -18947833.39147  20336198.956    20336200.989
 -16728600.98249 -13035282.92247  21440725.687    21440729.311
 -17414669.91549 -13569865.96946  21762808.281    21762814.823
 -13233326.96249 -10311689.26647  21540584.788    21540589.943
  -4758470.65348  -3707930.61644  23976142.991    23976150.320
 02  1  9  4 10  0.0000000  0  7G 1G 8G13G27G31G 2G22
 -19372497.15349 -15095465.09646  21388896.044    21388902.218
  -9101038.08348  -7091726.10145  23019248.584    23019252.761
 -24302152.04849 -18936749.34647  20338905.959    20338908.010
 -16783039.13949 -13077702.30747  21430366.516    21430370.109
 -17487426.47849 -13626559.35046  21748963.265    21748969.275
 -13280228.69249 -10348236.09247  21531660.372    21531665.096
  -4648940.77748  -3622582.95944  23996985.380    23996996.302
 02  1  9  4 10 30.0000000  0  7G 1G 8G13G27G31G 2G22
 -19298317.05049 -15037662.55746  21403012.513    21403017.931
  -9187795.62748  -7159329.45145  23002738.829    23002744.094
 -24287366.13949 -18925227.91747  20341719.640    20341721.546
 -16837300.04149 -13119983.57147  21420041.031    21420044.547
 -17559714.33649 -13682887.49246  21735206.224    21735212.969
 -13326805.82149 -10384529.97947  21522797.006    21522801.724
  -4539358.12248  -3537194.09044  24017838.681    24017850.099
 02  1  9  4 11  0.0000000  0  7G 1G 8G13G27G31G 2G22
 -19223738.03649 -14979549.17346  21417204.187    21417210.666
  -9274471.02548  -7226868.81245  22986244.864    22986249.713
 -24272029.96549 -18913277.71447  20344637.986    20344640.136
 -16891393.77349 -13162134.57547  21409747.503    21409751.148
 -17631541.57749 -13738856.71846  21721538.846    21721545.189
 -13373069.09649 -10420579.29947  21513992.936    21513997.864
  -4429735.61448                  24038699.356
 02  1  9  4 11 30.0000000  0  7G 1G 8G13G27G31G 2G22
 -19148751.52749 -14921118.26346  21431474.168    21431480.173
  -9361053.55448  -7294335.79145  22969769.228    22969775.397
 -24256133.29849 -18900890.76547  20347662.921    20347665.056
 -16945309.34249 -13204146.74347  21399487.756    21399491.254
 -17702895.32449 -13794456.99546  21707960.561    21707966.698
 -13419008.33949 -10456376.12747  21505251.204    21505255.935
  -4320064.90648                  24059568.571
 02  1  9  4 12  0.0000000  0  7G 1G 8G13G27G31G 2G22
 -19073380.30949 -14862387.57446  21445816.771    21445823.103
  -9447563.64148  -7361746.31545  22953306.753    22953311.897
 -24239697.43249 -18888083.66247  20350790.879    20350792.791
 -16999067.34249 -13246036.13047  21389257.977    21389261.398
 -17773794.11849 -13849702.77146  21694468.531    21694474.940
 -13464644.84049 -10491937.04947  21496566.924    21496571.755
  -4210369.51648  -3280840.13844  24080444.599    24080453.287
 02  1  9  4 12 30.0000000  0  7G 1G 8G13G27G31G 2G22
 -18997613.16149 -14803348.36846  21460234.718    21460240.867
  -9533988.03748  -7429090.07845  22936860.396    22936867.567
 -24222709.43049 -18874846.31847  20354023.874    20354025.865
 -17052654.08249 -13287792.06947  21379060.788    21379064.478
 -17844222.46049 -13904581.96646  21681066.788    21681072.783
 -13509965.90349 -10527252.18247  21487942.577    21487947.300
  -4100638.32248                  24101324.212
 02  1  9  4 13  0.0000000  0  7G 1G 8G13G27G31G 2G22
 -18921438.73649 -14743991.80446  21474730.579    21474736.842
  -9620313.11048  -7496356.44445  22920433.291    22920438.172
 -24205156.59449 -18861168.84047  20357363.882    20357366.023
 -17106055.86449 -13329403.88347  21368898.728    21368902.569
 -17914164.85349 -13959082.51046  21667757.037    21667763.170
 -13554958.80549 -10562311.59947  21479381.226    21479385.819
  -3990860.53348                  24122215.809
 02  1  9  4 13 30.0000000  0  7G 1G 8G13G27G31G 2G22
 -18844862.13849 -14684321.85746  21489302.806    21489308.701
  -9706541.56548  -7563547.51745  22904025.002    22904031.260
 -24187042.36149 -18847053.91047  20360810.658    20360812.900
 -17159275.34549 -13370873.64347  21358771.210    21358775.088
 -17983621.95049 -14013204.90246  21654539.597    21654545.617
 -13599626.87849 -10597117.89947  21470880.910    21470885.902
  -3881041.55948  -3024221.74944  24143112.940    24143122.124
 02  1  9  4 14  0.0000000  0  7G 1G 8G13G27G31G 2G22
 -18767878.72049 -14624334.90946  21503952.162    21503958.148
  -9792666.39848  -7630657.84845  22887636.253    22887640.397
 -24168360.45949 -18832496.64647  20364365.835    20364368.029
 -17212305.35349 -13412195.76547  21348680.045    21348683.839
 -18052584.75149 -14066942.13846  21641416.935    21641422.861
 -13643963.79149 -10631666.15947  21462443.725    21462448.576
  -3771176.90048                  24164020.098
 02  1  9  4 14 30.0000000  0  7G 1G 8G13G27G31G 2G22
 -18690507.75449 -14564045.97146  21518675.793    21518681.771
  -9878704.55348  -7697700.63645  22871263.536    22871269.799
 -24149128.28449 -18817510.60347  20368025.783    20368027.974
 -17265162.79049 -13453383.39847  21338621.610    21338625.279
 -18121068.34049 -14120305.97446  21628384.412    21628391.001
 -13687987.27849 -10665970.19247  21454066.428    21454071.315
  -3661286.19948                  24184931.907
 02  1  9  4 15  0.0000000  0  7G 1G 8G13G27G31G 2G22
 -18612750.76449 -14503456.24046  21533471.875    21533478.454
  -9964655.35548  -7764675.33945  22854908.186    22854913.367
 -24129345.51649 -18802095.52447  20371790.040    20371792.391
 -17317846.53049 -13494435.69047  21328596.187    21328600.172
 -18189069.83149 -14173294.16246  21615444.300    21615450.345
 -13731697.35049 -10700030.01547  21445748.904    21445753.669
  -3551371.17548  -2767336.53744  24205846.848    24205857.769
 02  1  9  4 15 30.0000000  0  8G 1G 8G28G13G27G31G 2G22
 -18534589.04649 -14442551.13846  21548346.009    21548352.453
 -10050497.71048  -7831565.57245  22838572.642    22838577.928
         -.10358                  25163836.935
 -24108992.91949 -18786236.41647  20375663.094    20375665.463
 -17370335.53649 -13535336.23747  21318607.884    21318611.709
 -18256566.34349 -14225888.86246  21602600.114    21602606.311
 -13775073.88949 -10733829.94747  21437494.629    21437499.280
  -3441413.55848                  24226772.991
 02  1  9  4 16  0.0000000  0  8G 1G 8G28G13G27G31G 2G22
 -18456042.17049 -14381345.91146  21563292.904    21563299.495
 -10136248.91148  -7898384.73645  22822254.210    22822260.668
   -100189.57048                  25144770.309
 -24088088.23349 -18769947.10647  20379641.254    20379643.764
 -17422646.71549 -13576098.22547  21308653.377    21308657.126
 -18323573.19549 -14278102.01946  21589849.266    21589855.420
 -13818134.73449 -10767383.87447  21429300.057    21429304.838
  -3331432.97548                  24247700.285
 02  1  9  4 16 30.0000000  0  8G 1G 8G28G13G27G31G 2G22
 -18377109.13749 -14319839.78046  21578313.963    21578320.373
 -10221905.15048  -7965129.93745  22805955.329    22805961.017
   -200282.57448                  25125724.163
 -24066628.50249 -18753225.29847  20383724.829    20383727.046
 -17474776.39349 -13616718.79147  21298733.460    21298737.266
 -18390084.93149 -14329929.37646  21577192.449    21577198.720
 -13860877.11749 -10800689.64947  21421166.402    21421171.228
  -3221428.48348                  24268635.081
 02  1  9  4 17  0.0000000  0  8G 1G 8G28G13G27G31G 2G22
 -18297792.58549 -14258034.80646  21593406.763    21593413.405
 -10307467.02948  -8031801.60245  22789672.810    22789678.023
   -300279.13048                  25106695.737
 -24044615.09049 -18736072.04947  20387913.906    20387916.629
 -17526724.83249 -13657198.12647  21288848.374    21288851.901
 -18456100.07749 -14381369.78346  21564630.369    21564636.489
 -13903302.13049 -10833748.12547  21413093.439    21413098.149
  -3111403.14948                  24289572.256
 02  1  9  4 17 30.0000000  0  8G 1G 8G28G13G27G31G 2G22
 -18218097.46349 -14195934.84246  21608572.843    21608579.496
 -10392937.03848  -8098401.67445  22773409.143    22773414.386
   -400181.36248                  25087683.997
 -24022051.31649 -18718489.94847  20392207.575    20392209.880
 -17578494.32649 -13697538.02947  21278997.215    21279000.722
 -18521619.19649 -14432423.67046  21552162.286    21552168.506
 -13945413.15349 -10866561.93947  21405080.019    21405084.940
  -3001361.89448                  24310512.121
 02  1  9  4 18  0.0000000  0  8G 1G 8G28G13G27G31G 2G22
 -18138014.05849 -14133532.32046  21623812.252    21623818.858
 -10478302.89148  -8164920.60745  22757164.785    22757170.715
   -499976.99248                  25068694.534
 -23998926.57549 -18700470.73047  20396608.267    20396610.691
 -17630072.56549 -13737728.89947  21269182.035    21269185.725
 -18586628.38149 -14483080.21246  21539791.566    21539797.902
 -13987198.94749 -10899122.32647  21397128.410    21397133.289
  -2891295.19048  -2252993.28744  24331458.826    24331463.008
 02  1  9  4 18 30.0000000  0  8G 1G 8G28G13G27G31G 2G22
 -18057554.26149 -14070836.50946  21639122.951    21639129.386
 -10563574.00648  -8231365.67345  22740937.096    22740942.358
   -599674.74548                  25049722.642
 -23975250.40349 -18682021.82347  20401113.782    20401116.158
 -17681468.87149 -13777778.00047  21259401.422    21259405.408
 -18651135.05249 -14533345.17746  21527516.390    21527522.396
 -14028669.56149 -10931437.11747  21389236.596    21389241.995
  -2781214.81048                  24352404.612
 02  1  9  4 19  0.0000000  0  8G 1G 8G28G13G27G31G 2G22
 -17976711.98649 -14007842.66246  21654507.232    21654513.558
 -10648742.01148  -8297730.39545  22724730.595    22724736.251
   -699265.65348                  25030770.550
 -23951015.28849 -18663137.38047  20405725.789    20405728.204
 -17732674.51049 -13817678.52147  21249657.537    21249661.363
 -18715128.85449 -14583210.49446  21515338.872    21515344.841
 -14069817.34549 -10963500.34847  21381406.769    21381411.890
  -2671115.00848                  24373358.090
 02  1  9  4 19 30.0000000  0  8G 1G 8G28G13G27G31G 2G22
 -17895488.47549 -13944551.75646  21669963.443    21669970.898
 -10733805.42448  -8364013.61645  22708543.721    22708548.910
   -798748.21548                  25011839.624
 -23926221.48949 -18643817.60347  20410443.981    20410446.351
 -17783688.10049 -13857429.39447  21239949.645    21239953.618
 -18778606.81849 -14632673.84946  21503259.406    21503265.597
 -14110642.07449 -10995311.84247  21373637.877    21373642.957
  -2560997.14848                  24394311.851
 02  1  9  4 20  0.0000000  0  8G 1G 8G28G13G27G31G 2G22
 -17813895.59349 -13880973.01746  21685490.396    21685496.842
 -10818773.82748  -8430222.77045  22692374.809    22692381.371
   -898131.47148                  24992927.430
 -23900879.31049 -18624070.51347  20415266.317    20415268.578
 -17834518.79849 -13897037.74747  21230276.829    21230280.818
 -18841576.56749 -14681741.18346  21491276.772    21491282.820
 -14151154.14549 -11026879.70947  21365928.857    21365933.703
  -2450872.88648                  24415268.786
 02  1  9  4 20 30.0000000  0  8G 1G 8G28G13G27G31G 2G22
 -17731927.06149 -13817101.57146  21701088.298    21701095.768
 -10903638.13649  -8496350.82645  22676226.800    22676231.398
   -997406.27548                  24974035.724
 -23874980.75949 -18603889.88547  20420194.680    20420197.079
 -17885157.73749 -13936496.68047  21220640.765    21220644.899
 -18904027.65549 -14730404.35246  21479392.457    21479398.685
 -14191345.49049 -11058197.65947  21358280.455    21358285.402
  -2340736.02648                  24436226.876
 02  1  9  4 21  0.0000000  0  8G 1G 8G28G13G27G31G 2G22
 -17649589.91549 -13752942.89246  21716756.605    21716763.528
 -10988403.23648  -8562401.57845  22660094.886    22660101.082
  -1096576.76048                  24955164.366
 -23848531.71349 -18583280.30147  20425227.819    20425230.095
 -17935609.28349 -13975809.58747  21211039.889    21211044.241
 -18965962.91249 -14778665.56546  21467606.584    21467612.529
 -14231221.51349 -11089269.90147  21350692.376    21350697.404
  -2230593.85448                  24457186.535
 02  1  9  4 21 30.0000000  0  8G 1G 8G28G13G27G31G 2G22
 -17566883.21749 -13688496.26046  21732495.171    21732502.497
 -11073065.39149  -8628372.08545  22643985.524    22643991.493
  -1195639.52148                  24936313.131
 -23821529.77249 -18562239.88847  20430366.078    20430368.765
 -17985869.80449 -14014973.63847  21201475.613    21201479.696
 -19027377.26949 -14826520.86646  21455920.111    21455926.056
 -14270779.68749 -11120094.46847  21343165.077    21343169.929
  -2120445.23348                  24478147.156
 02  1  9  4 22  0.0000000  0  8G 1G 8G28G13G27G31G 2G22
 -17483813.43349 -13623766.70246  21748302.966    21748310.491
 -11157628.61148  -8694265.51245  22627893.402    22627898.441
  -1294597.81748                  24917482.161
 -23793979.87149 -18540772.49547  20435608.493    20435611.165
 -18035943.12549 -14053991.81647  21191946.992    21191951.211
 -19088272.87449 -14873971.93846  21444331.758    21444337.812
 -14310024.95149 -11150675.20947  21335696.443    21335701.332
  -2010296.60848                  24499108.396
 02  1  9  4 22 30.0000000  0  8G 1G 8G28G13G27G31G 2G22
 -17400373.07349 -13558748.38046  21764181.268    21764188.639
 -11242082.92848  -8760074.07245  22611821.020    22611827.393
  -1393441.26448                  24898672.790
 -23765872.94049 -18518871.04947  20440957.478    20440960.201
 -18085819.02049 -14092856.15547  21182455.731    21182459.868
 -19148638.02449 -14921009.65446  21432844.518    21432851.134
 -14348948.01249 -11181004.88547  21328289.722    21328294.913
  -1900140.61248                  24520069.802
 02  1  9  4 23  0.0000000  0  8G 1G 8G28G13G27G31G 2G22
 -17316567.36549 -13493445.37846  21780129.049    21780136.264
 -11326430.78649  -8825799.69645  22595771.845    22595776.975
  -1492172.55848                  24879885.315
 -23737213.15649 -18496538.80947  20446411.374    20446413.811
 -18135500.03149 -14131568.63347  21173001.998    21173006.030
 -19208473.96649 -14967634.99546  21421458.485    21421464.414
 -14387552.45549 -11211086.28447  21320943.986    21320948.770
  -1789982.18448                  24541032.356
 02  1  9  4 23 30.0000000  0  8G 1G 8G28G13G27G31G 2G22
 -17232386.74449 -13427850.23346  21796148.695    21796155.947
 -11410659.83348  -8891432.73845  22579742.064    22579749.187
  -1590778.44848                  24861120.732
 -23707989.31949 -18473767.05047  20451972.522    20451975.328
 -18184973.35649 -14170119.27647  21163587.775    21163591.841
 -19267766.60149 -15013836.97146  21410175.023    21410181.086
 -14425826.71349 -11240910.39447  21313660.538    21313665.403
  -1679811.35748                  24561998.144
 02  1  9  4 24  0.0000000  0  8G 1G 8G28G13G27G31G 2G22
 -17147845.80649 -13361974.31946  21812236.017    21812242.712
 -11494782.31049  -8956982.75345  22563735.478    22563741.253
  -1689271.05248                  24842379.307
 -23678214.62849 -18450566.05747  20457638.172    20457641.185
 -18234250.90149 -14208517.36947  21154210.512    21154214.683
 -19326526.26549 -15059623.64246  21398993.053    21398999.604
 -14463784.03749 -11270487.54747  21306437.240    21306442.103
  -1569642.96848                  24582962.498
 02  1  9  4 24 30.0000000  0  8G 1G 8G28G13G27G31G 2G22
 -17062936.81549 -13295811.61246  21828394.202    21828400.717
 -11578787.53348  -9022441.40646  22547749.862    22547754.656
  -1787639.82748                  24823659.503
 -23647879.92849 -18426928.69547  20463410.893    20463413.787
 -18283322.18449 -14246754.74047  21144872.660    21144876.765
 -19384741.17549 -15104985.82646  21387915.390    21387921.441
 -14501415.08149 -11299810.45047  21299276.393    21299281.193
  -1459468.88748                  24603927.547
 02  1  9  4 25  0.0000000  0  8G 1G 8G28G13G27G31G 2G22
 -16977677.30149 -13229375.77846  21844618.609    21844625.256
 -11662690.46248  -9087820.33845  22531781.948    22531788.801
  -1885899.25848                  24804961.266
 -23617001.28449 -18402867.47847  20469287.212    20469290.069
 -18332201.99449 -14284842.91247  21135571.264    21135575.256
 -19442424.86749 -15149934.07546  21376938.547    21376944.928
 -14538735.56749 -11328891.36447  21292174.749    21292179.460
  -1349306.56348                  24624892.249
 02  1  9  4 25 30.0000000  0  8G 1G 8G28G13G27G31G 2G22
 -16892065.00549 -13162665.04646  21860909.650    21860917.453
 -11746486.07349  -9153115.66045  22515838.585    22515842.945
  -1984043.93348                  24786285.387
 -23585575.23449 -18378379.70847  20475267.343    20475270.163
 -18380885.22449 -14322777.90847  21126306.858    21126311.118
 -19499570.54549 -15194463.09646  21366064.231    21366070.066
 -14575741.51249 -11357727.17747  21285132.442    21285137.524
  -1239153.53448                  24645852.349
 02  1  9  4 26  0.0000000  0  8G 1G 8G28G13G27G31G 2G22
 -16806093.26749 -13095674.22746  21877270.143    21877276.997
 -11830165.22648  -9218320.24946  22499913.679    22499919.306
  -2082064.40548                  24767632.960
 -23553593.98549 -18353459.31647  20481353.130    20481356.049
 -18429362.48849 -14360552.41547  21117082.181    21117086.153
 -19556167.62249 -15238564.64246  21355293.797    21355299.861
 -14612424.64049 -11386311.43947  21278152.481    21278157.260
  -1129002.80448                  24666814.128
 02  1  9  4 26 30.0000000  0  8G 1G 8G28G13G27G31G 2G22
 -16719774.11649 -13028412.70346  21893695.800    21893703.365
 -11913737.13448  -9283441.25846  22484010.122    22484016.522
  -2179969.63848                  24749002.569
 -23521067.92349 -18328114.39847  20487542.511    20487545.320
 -18477643.00049 -14398173.61647  21107894.591    21107898.678
 -19612223.91849 -15282244.80446  21344626.595    21344632.829
 -14648795.50349 -11414652.37747  21271231.106    21271235.835
  -1018866.42448                  24687772.403
 02  1  9  4 27  0.0000000  0  8G 1G 8G28G13G27G31G 2G22
 -16633102.86749 -12960876.81846  21910189.059    21910196.422
 -11997194.30849  -9348472.89245  22468130.006    22468134.416
  -2277752.10548                  24730396.081
 -23487991.19049 -18302340.38447  20493836.545    20493839.634
 -18525719.19049 -14435635.60547  21098746.061    21098750.079
 -19667730.66949 -15325496.75846  21334064.190    21334070.265
 -14684847.65949 -11442744.97247  21264370.452    21264375.398
   -908739.35248                  24708728.464
 02  1  9  4 27 30.0000000  0  8G 1G 8G28G13G27G31G 2G22
 -16546082.21049 -12893068.67746  21926748.640    21926756.393
 -12080536.71348  -9413415.04246  22452269.357    22452276.145
  -2375411.56348                  24711811.303
 -23454365.40349 -18276138.54147  20500235.651    20500238.711
 -18573590.56849 -14472937.99247  21089636.652    21089640.593
 -19722686.54149 -15368319.46546  21323606.327    21323612.442
 -14720582.05149 -11470589.95647  21257570.733    21257575.483
   -798624.06048                  24729683.655
 02  1  9  4 28  0.0000000  0  8G 1G 8G28G13G27G31G 2G22
 -16458718.44849 -12824993.17146  21943373.643    21943380.960
 -12163767.98948  -9478270.59246  22436431.240    22436436.791
  -2472951.57648                  24693250.076
 -23420195.20549 -18249512.48547  20506738.374    20506741.397
 -18621260.62349 -14510083.50047  21080565.128    21080569.300
 -19777093.67749 -15410714.59246  21313252.947    21313259.090
 -14756003.51049 -11498191.09547  21250830.137    21250834.841
   -688526.53748                  24750634.294
 02  1  9  4 28 30.0000000  0  8G 1G 8G28G13G27G31G 2G22
 -16371013.42549 -12756651.75746  21960063.472    21960071.226
 -12246887.09749  -9543038.76945  22420614.787    22420620.551
  -2570370.78948                  24674713.037
 -23385481.41249 -18222462.85547  20513344.048    20513346.939
 -18668728.45349 -14547071.42447  21071532.112    21071536.121
 -19830949.76549 -15452680.35046  21303004.368    21303010.366
 -14791112.22849 -11525548.54347  21244149.058    21244153.781
   -578448.39148                  24771581.896
 02  1  9  4 29  0.0000000  0  8G 1G 8G28G13G27G31G 2G22
 -16282963.04849 -12688041.23846  21976819.072    21976826.374
 -12329887.13748  -9607714.13045  22404818.265    22404825.627
  -2667662.01348                  24656197.853
 -23350218.28649 -18194985.17447  20520054.218    20520057.331
 -18715986.81649 -14583896.12347  21062539.473    21062543.683
 -19884246.45649 -15494210.22046  21292862.144    21292868.240
 -14825902.12549 -11552657.54947  21237528.948    21237533.557
   -468384.93448                  24792526.741
 02  1  9  4 29 30.0000000  0  8G 1G 8G28G13G27G31G 2G22
 -16194562.79449 -12619158.07846  21993641.207    21993648.704
 -12412760.75949  -9672290.97746  22389050.492    22389055.777
  -2764817.77848                  24637710.307
 -23314400.26049 -18167075.10247  20526870.669    20526873.672
 -18763028.32849 -14620551.84547  21053587.574    21053591.797
 -19936975.37149 -15535297.68546  21282828.360    21282834.312
 -14860367.21249 -11579513.45547  21230970.273    21230975.004
   -358331.47547                  24813467.563
 02  1  9  4 30  0.0000000  0  8G 1G 8G28G13G27G31G 2G22
 -16105810.57449 -12550000.67146  22010529.897    22010537.559
 -12495502.91749  -9736765.39846  22373304.528    22373310.166
  -2861833.14948                  24619249.063
 -23278024.01449 -18138730.05447  20533792.671    20533795.728
 -18809847.90249 -14657034.62447  21044678.168    21044682.401
 -19989130.23649 -15575937.84246  21272903.326    21272909.630
 -14894503.73149 -11606113.33347  21224474.105    21224479.082
   -248285.50148                  24834411.809
 02  1  9  4 30 30.0000000  0  8G 1G 8G28G13G27G31G 2G22
 -16016719.00049 -12480578.83446  22027484.128    22027491.462
 -12578123.54948  -9801145.09746  22357581.301    22357588.023
  -2958717.52748                  24600812.271
 -23241100.71049 -18109958.72447  20540818.563    20540821.700
 -18856455.09549 -14693351.91647  21035809.027    21035813.256
 -20040719.67449 -15616137.41646  21263086.310    21263092.661
 -14928322.48949 -11632465.61047  21218039.196    21218043.984
   -138259.22647                  24855346.988
 02  1  9  4 31  0.0000000  0  8G 1G 8G28G13G27G31G 2G22
 -15927294.51749 -12410897.58446  22044500.892    22044508.656
 -12660626.14849  -9865432.84146  22341883.775    22341888.361
  -3055474.59748                  24582400.641
 -23203635.78249 -18080765.34847  20547948.330    20547951.439
 -18902853.43049 -14729506.46647  21026979.782    21026983.839
 -20091746.14849 -15655898.32546  21253376.231    21253382.379
 -14961828.31249 -11658574.04047  21211663.164    21211667.781
    -28258.69747                  24876279.664
 02  1  9  4 31 30.0000000  0  8G 1G 8G28G13G27G31G 2G22
 -15837536.19749 -12340956.20246  22061581.786    22061589.190
 -12743006.90349  -9929625.64446  22326205.459    22326211.332
  -3152100.37948                  24564012.677
 -23165627.07449 -18051148.24947  20555181.405    20555184.538
 -18949039.02649 -14765495.25447  21018190.942    21018194.793
 -20142204.49149 -15695216.53846  21243774.641    21243781.033
 -14995018.62749 -11684436.62147  21205346.662    21205351.642
     81717.44848                  24897209.247
 02  1  9  4 32  0.0000000  0  8G 1G 8G28G13G27G31G 2G22
 -15747455.17349 -12270763.36646  22078723.323    22078730.948
 -12825274.11149  -9993729.95246  22310551.164    22310556.337
  -3248602.76548                  24545649.532
 -23127084.39349 -18021115.06647  20562515.611    20562518.765
 -18995019.88849 -14801324.51447  21009441.281    21009444.920
 -20192101.68949 -15734097.50046  21234279.661    21234285.309
 -15027902.72449 -11710060.59347  21199089.127    21199094.070
    191658.64547                  24918127.725
 02  1  9  4 32 30.0000000  0  8G 1G 8G28G13G27G31G 2G22
 -15657043.31649 -12200312.74246  22095928.619    22095937.307
 -12907416.52349 -10057737.02146  22294919.922    22294925.374
  -3344970.87948                  24527310.970
 -23087998.47149 -17990658.57647  20569953.708    20569956.786
 -19040784.94949 -14836985.62547  21000732.679    21000736.279
 -20241425.68249 -15772531.80846  21224893.540    21224899.647
 -15060470.84649 -11735438.35347  21192892.001    21192896.788
    301573.57948                  24939046.794
 02  1  9  4 33  0.0000000  0  8G 1G 8G28G13G27G31G 2G22
 -15566298.80849 -12129602.92146  22113196.444    22113204.635
 -12989429.74349 -10121643.41946  22279312.765    22279319.140
  -3441199.87748  -2681456.10544  24508999.663    24509002.804
 -23048366.11549 -17959776.29647  20577495.672    20577498.865
 -19086329.09749 -14872474.60447  20992065.735    20992069.560
 -20290170.74949 -15810515.00346  21215617.315    21215623.723
 -15092719.27749 -11760567.00447  21186755.070    21186760.043
    411464.38448                  24959957.664
 02  1  9  4 33 30.0000000  0  8G 1G 8G28G13G27G31G 2G22
 -15475230.58949 -12058640.84846  22130526.938    22130535.129
 -13071319.70549 -10185453.76846  22263730.553    22263735.805
  -3537295.78048                  24490712.669
 -23008195.29349 -17928474.43447  20585139.684    20585142.850
 -19131658.44749 -14907796.21047  20983439.909    20983443.614
 -20338342.04649 -15848051.10646  21206450.746    21206456.780
 -15124655.49049 -11785452.37247  21180677.936    21180682.768
    521322.72947                  24980862.479
 02  1  9  4 34  0.0000000  0  8G 1G 8G28G13G27G31G 2G22
 -15383842.25049 -11987429.33846  22147917.171    22147925.362
 -13153086.97249 -10249168.53446  22248169.935    22248176.097
  -3633259.26048  -2831112.91644  24472452.208    24472454.528
 -22967488.55349 -17896754.97347  20592886.529    20592889.568
 -19176773.48349 -14942950.81647  20974854.853    20974858.763
 -20385939.07449 -15885139.72346  21197393.526    21197399.557
 -15156281.41949 -11810095.96147  21174660.011    21174664.701
    631145.10648                  25001762.964
 02  1  9  4 34 30.0000000  0  8G 1G 8G28G13G27G31G 2G22
 -15292129.25849 -11915964.85146  22165370.103    22165378.542
 -13234724.19649 -10312781.96346  22232634.806    22232641.202
  -3729082.56248  -2905780.50544  24454217.432    24454220.623
 -22926240.25649 -17864613.51847  20600735.617    20600738.688
 -19221666.53349 -14977932.44547  20966311.949    20966315.695
 -20432953.27649 -15921774.18246  21188447.156    21188453.270
 -15187590.64949 -11834492.77747  21168702.105    21168706.799
    740937.04547                  25022654.307
 02  1  9  4 35  0.0000000  0  8G 1G 8G28G13G27G31G 2G22
 -15200096.28649 -11844251.03446  22182883.548    22182890.927
 -13316232.88649 -10376295.23446  22217124.796    22217129.959
  -3824767.37148                  24436009.662
 -22884453.81949 -17832052.73747  20608686.911    20608690.074
 -19266339.07449 -15012742.25447  20957810.916    20957814.864
 -20479385.28649 -15957954.98046  21179610.981    21179617.513
 -15218586.08949 -11858645.08047  21162803.277    21162808.174
    850694.44248                  25043541.023
 02  1  9  4 35 30.0000000  0  8G 1G 8G28G13G27G31G 2G22
 -15107745.05749 -11772289.22846  22200456.996    22200465.684
 -13397611.75349 -10439707.34646  22201638.501    22201643.986
  -3920312.29848  -3054790.75244  24417827.438    24417836.125
 -22842129.45449 -17799072.78347  20616741.308    20616744.321
 -19310789.65349 -15047379.09747  20949352.096    20949356.316
 -20525232.84849 -15993680.35346  21170887.071    21170892.751
 -15249267.96549 -11882553.06047  21156964.815    21156969.811
    960416.18347                  25064420.085
