     2.11           OBSERVATION DATA    G (GPS)             RINEX VERSION / TYPE
teqc  2019Feb25     Salamtina Y.M.      20230920 03:20:34UTCPGM / RUN BY / DATE
OBSERVATION MODE: Permanent                                 COMMENT
CHUM Chumysh (CHUM)                                         MARKER NAME
25601M001                                                   MARKER NUMBER
4549261325          TRIMBLE NETRS        1.3-2              REC # / TYPE / VERS
237                 AOAD/M_T        NONE                    ANT # / TYPE
        0.0900        0.0000        0.0000                  ANTENNA: DELTA H/E/N
  1228950.3073  4508080.0134  4327868.5406                  APPROX POSITION XYZ
  74.75110460  42.99850158  716.3366  LonLatAlt  S/W        COMMENT
ANT ADDED FROM RCV_ANT.txt                                  COMMENT
Linux 2.6.32-573.12.1.x86_64|x86_64|gcc|Linux 64|=+         COMMENT
BIT 2 OF LLI FLAGS DATA COLLECTED UNDER A/S CONDITION       COMMENT
Konovalov S.M.      RS_RAS                                  OBSERVER / AGENCY
     1     1                                                WAVELENGTH FACT L1/2
     7    L1    L2    C1    P1    P2    S1    S2            # / TYPES OF OBSERV
    30.0000                                                 INTERVAL
    18                                                      LEAP SECONDS
TIME: 2023.01.10                                            COMMENT
TOUR: cont                                                  COMMENT
RSET: RAS02                                                 COMMENT
ASET: DS24                                                  COMMENT
OPER: skon (Konovalov S.M.)                                 COMMENT
SOUR: chum202301100000d.dat                                 COMMENT
SUPP: chum202301100000d.eph                                 COMMENT
SUPP: chum202301100000d.ion                                 COMMENT
SUPP: chum202301100000d.mes                                 COMMENT
Forced Modulo Decimation to 30 seconds                      COMMENT
 SNR is mapped to RINEX snr flag value [0-9]                COMMENT
  L1 & L2: min(max(int(snr_dBHz/6), 0), 9)                  COMMENT
  2023     1    10     0     0    0.0000000     GPS         TIME OF FIRST OBS
  2023     1    10    23    59   30.0000000     GPS         TIME OF LAST OBS
                                                            END OF HEADER
 23  1 10  0  0  0.0000000  0 11G08G27G22G24G23G10G21G18G31G01G32
  -8196833.51447  -6358365.26246  23690257.6254                   23690249.9024
        42.5004         37.2504
  -8803546.21246  -6635821.29945  23942065.0474                   23942057.3244
        37.5004         34.2504
  -9327864.69247  -8062901.51545  21996701.4924                   21996690.4884
        45.5004         32.0004
 -12815151.94046 -10622440.64646  22797948.2894                   22797939.6294
        39.2504         40.5004
 -10751000.60047 -12369349.89146  21865891.2424                   21865880.0634
        45.0004         36.2504
 -27514487.69248 -21310110.20649  20530737.4844                   20530728.6484
        51.5004         55.0004
 -11909073.78547  -8588167.11244  23615954.7894                   23615942.5554
        42.7504         27.5004
  -9972919.25946  -6918405.45544  24267586.7504                   24267576.9184
        39.7504         25.5004
  -2417624.75545  -1815885.47145  24875111.1884                   24875101.1214
        35.7504         32.7504
                                  25128906.297
        32.000
 -25260266.38948 -21100174.73749  20649377.2894                   20649368.2194
        51.2504         55.0004
 23  1 10  0  0 30.0000000  0 11G08G27G22G24G23G10G21G18G31G01G32
  -8150648.14147  -6322376.69546  23699047.5394                   23699038.9384
        42.2504         37.2504
  -8716115.60546  -6567693.59745  23958703.1804                   23958695.3404
        38.2504         34.7504
  -9398144.34947  -8117664.83445  21983327.1564                   21983317.0904
        44.7504         32.0004
 -12748362.05946 -10570396.60045  22810657.4064                   22810648.9224
        39.5004         33.5004
 -10687733.42647 -12320050.81946  21877929.9144                   21877919.3204
        44.5004         36.2504
 -27506502.91948 -21303888.31249  20532257.0234                   20532247.8954
        53.0004         54.7504
 -11983479.44747  -8646145.54044  23601796.2584                   23601784.7274
        42.0004         28.0004
  -9859195.16846  -6829789.33444  24289228.6334                   24289218.3324
        39.7504         25.0004
  -2536754.86646  -1908714.21045  24852442.2814                   24852431.1604
        37.0004         33.0004
                                  25107585.5704                   25107579.4304
        30.0004         14.7504
 -25285401.53048 -21119760.54949  20644594.4534                   20644585.0904
        52.0004         55.2504
 23  1 10  0  1  0.0000000  0 11G08G27G22G24G23G10G21G18G31G01G32
  -8104028.77246  -6286049.95246  23707918.2344                   23707911.2154
        41.7504         36.7504
  -8628500.10746  -6499421.79745  23975375.8594                   23975367.7274
        37.5004         33.5004
  -9468113.60447  -8172186.29145  21970012.8754                   21970002.0474
        45.5004         32.2504
 -12681055.92846 -10517950.26144  22823464.6564                   22823456.7584
        38.7504         29.0004
 -10624231.36247 -12270568.70146  21890014.0864                   21890003.0234
        44.7504         36.2504
 -27498223.64948 -21297436.93449  20533832.6954                   20533823.4494
        51.5004         54.7504
 -12057628.81046  -8703924.24144  23587686.4224                   23587673.6604
        41.7504         27.7504
  -9745352.46046  -6741080.74744  24310891.0084                   24310881.5864
        39.0004         25.5004
  -2655927.47345  -2001576.03445  24829763.9694                   24829753.5514
        35.7504         33.0004
  -1370616.20615                  25086284.484
        32.250
 -25310124.41848 -21139025.12349  20639889.8364                   20639880.2384
        51.2504         55.0004
 23  1 10  0  1 30.0000000  0 11G08G27G22G24G23G10G21G18G31G01G32
  -8056973.69046  -6249383.70546  23716872.2194                   23716865.3164
        40.2504         36.2504
  -8540699.18646  -6431005.52445  23992083.2664                   23992075.1334
        37.7504         33.5004
  -9537768.22847  -8226462.58745  21956757.0474                   21956747.2154
        44.7504         32.7504
 -12613232.23746 -10465100.62544  22836373.0164                   22836363.5354
        39.7504         29.0004
 -10560491.13647 -12220901.00846  21902143.4614                   21902132.2234
        45.0004         36.0004
 -27489645.59648 -21290752.74649  20535464.8674                   20535456.0314
        51.7504         54.7504
 -12131516.03047  -8761498.70444  23573627.0704                   23573613.4884
        42.2504         27.5004
  -9631389.82446  -6652278.71144  24332577.1884                   24332568.4104
        39.0004         25.5004
  -2775136.51246  -2094466.22945  24807079.5474                   24807069.1294
        37.2504         33.5004
                                  25065000.1094                   25064994.4384
        29.2504         16.2504
 -25334431.81248 -21157965.93949  20635264.0474                   20635254.8014
        51.7504         54.7504
 23  1 10  0  2  0.0000000  0 10G08G27G22G24G23G10G21G18G31G32
  -8009489.78646  -6212383.30246  23725908.5634                   23725900.6054
        40.5004         36.0004
  -8452719.96646  -6362450.29745  24008825.4304                   24008817.9414
        36.7504         33.2504
  -9607111.16747  -8280496.00345  21943562.5864                   21943551.5234
        45.7504         33.0004
 -12544897.14546 -10411852.52844  22849375.7734                   22849367.2894
        38.5004         29.0004
 -10496516.85047 -12171050.91646  21914317.7114                   21914306.5314
        44.5004         36.2504
 -27480771.85048 -21283838.14049  20537153.5944                   20537144.3484
        52.0004         54.7504
 -12205143.24847  -8818870.54944  23559613.9844                   23559603.4494
        42.0004         28.0004
  -9517313.15246  -6563387.83544  24354286.3754                   24354275.9574
        39.2504         25.5004
  -2894382.89646  -2187385.54945  24784388.4224                   24784377.0664
        38.0004         33.0004
 -25358327.76748 -21176586.15449  20630717.1724                   20630707.9844
        52.0004         54.7504
 23  1 10  0  2 30.0000000  0 11G08G27G22G24G23G10G21G18G31G01G32
  -7961576.93247  -6175048.61945  23735026.5004                   23735016.8444
        42.0004         35.2504
  -8364563.67745  -6293757.10845  24025599.4924                   24025593.3524
        35.5004         32.7504
  -9676140.04647  -8334284.69145  21930426.0234                   21930415.9574
        45.0004         33.2504
 -12476051.34146 -10358206.44544  22862476.4384                   22862467.7194
        38.5004         28.0004
 -10432307.03847 -12121017.31545  21926535.5864                   21926525.4614
        44.7504         35.5004
 -27471600.29448 -21276691.48249  20538898.6484                   20538889.8134
        51.0004         55.0004
 -12278506.74647  -8876036.90344  23545653.8594                   23545641.8014
        42.5004         28.0004
  -9403123.02846  -6474408.55144  24376015.2424                   24376005.7034
        40.0004         26.0004
  -3013662.54046  -2280330.77345  24761689.9924                   24761678.5784
        37.5004         33.5004
                                  25022491.3674                   25022484.3484
        29.7504         16.2504
 -25381810.91648 -21194884.69449  20626248.3674                   20626239.0044
        51.5004         55.0004
 23  1 10  0  3  0.0000000  0 11G08G27G22G24G23G10G21G18G31G01G32
  -7913239.23046  -6137382.87946  23744224.6414                   23744216.0984
        40.0004         36.0004
  -8276235.58146  -6224930.01745  24042408.8914                   24042401.7544
        37.0004         33.0004
  -9744856.50747  -8387829.96745  21917350.1094                   21917339.5744
        46.0004         33.7504
 -12406699.26046 -10304165.85644  22875673.5944                   22875664.9344
        38.5004         27.2504
 -10367864.01247 -12070801.98446  21938799.5944                   21938788.1804
        45.5004         36.0004
 -27462132.73948 -21269314.16849  20540700.2504                   20540691.4144
        51.0004         54.7504
 -12351606.69046  -8932997.89644  23531743.4224                   23531731.0124
        41.7504         27.0004
  -9288823.55346  -6385344.03344  24397766.6804                   24397755.8524
        40.2504         26.2504
  -3132974.49346  -2373301.14645  24738986.1174                   24738974.6454
        38.5004         33.5004
    129184.10354   -324517.31352  25001264.7274                   25001256.2424
        29.0004         16.7504
 -25404883.55748 -21212863.36549  20621857.3134                   20621848.3014
        51.5004         55.0004
 23  1 10  0  3 30.0000000  0 11G08G27G22G24G23G10G21G18G31G01G32
  -7864475.00846  -6099384.83246  23753503.7274                   23753497.2344
        40.0004         36.7504
  -8187734.13946  -6155967.90245  24059250.4454                   24059243.1334
        36.5004         32.5004
  -9813254.82247  -8441127.31145  21904333.8984                   21904323.7734
        45.0004         33.2504
 -12336838.64746 -10249729.01844  22888968.5314                   22888959.2274
        39.0004         28.2504
 -10303183.43047 -12020401.53845  21951107.8674                   21951096.9224
        45.0004         35.7504
 -27452363.69348 -21261701.92349  20542559.1484                   20542550.4304
        51.0004         54.7504
 -12424436.27346  -8989748.20344  23517884.1954                   23517873.3094
        41.5004         28.0004
  -9174412.20946  -6296192.36144  24419537.0004                   24419528.1054
        38.5004         25.7504
  -3252311.32446  -2466290.92745  24716276.2504                   24716265.2464
        38.0004         33.0004
                                  24980062.2274                   24980054.0354
        30.7504         17.7504
 -25427541.37748 -21230518.79249  20617545.9454                   20617536.5824
        51.7504         54.7504
 23  1 10  0  4  0.0000000  0 11G08G27G22G24G23G10G21G18G31G01G32
  -7815290.51946  -6061059.31046  23762864.1254                   23762857.1644
        40.2504         36.5004
  -8099066.45146  -6086876.20145  24076124.0314                   24076115.3134
        36.7504         32.2504
  -9881338.40347  -8494179.42545  21891378.7194                   21891367.8914
        46.0004         33.0004
 -12266475.72146 -10194900.78844  22902357.9224                   22902348.9694
        39.0004         27.7504
 -10238269.40747 -11969819.21446  21963460.6174                   21963449.6724
        44.7504         36.0004
 -27442296.96048 -21253857.72649  20544474.8914                   20544466.0554
        52.7504         54.7504
 -12496997.34047  -9046289.27744  23504075.9454                   23504064.4734
        42.0004         28.0004
  -9059895.13546  -6206958.29944  24441330.5474                   24441319.7194
        39.7504         25.2504
  -3371674.13446  -2559300.94445  24693562.4144                   24693551.8204
        37.2504         33.7504
                                  24958877.6094                   24958871.2344
        29.2504         18.5004
 -25449788.55248 -21247854.24349  20613312.1724                   20613303.1024
        52.0004         54.7504
 23  1 10  0  4 30.0000000  0 11G08G27G22G24G23G10G21G18G31G01G32
  -7765689.10346  -6022408.88245  23772303.2344                   23772295.1024
        40.5004         35.5004
  -8010236.26145  -6017657.88345  24093026.6644                   24093020.0554
        35.7504         33.0004
  -9949107.42347  -8546986.43445  21878482.1094                   21878471.9844
        45.5004         33.5004
 -12195613.69246 -10139683.60444  22915843.1334                   22915833.6524
        39.5004         28.0004
 -10173122.97147 -11919055.76246  21975857.1644                   21975846.5124
        45.0004         36.0004
 -27431932.46048 -21245781.49849  20546447.2664                   20546438.4884
        51.5004         55.0004
 -12569288.89746  -9102620.36744  23490319.9384                   23490307.4104
        41.5004         27.7504
  -8945275.11346  -6117644.00444  24463139.6804                   24463131.6054
        38.7504         25.2504
  -3491060.82546  -2652329.56245  24670843.0944                   24670833.3794
        37.0004         33.0004
   -204757.57655   -497485.89453  24937716.0704                   24937709.4614
        31.5004         18.2504
 -25471626.18248 -21264870.56249  20609156.6254                   20609147.5554
        51.7504         55.0004
 23  1 10  0  5  0.0000000  0 11G08G27G22G24G23G10G21G18G31G01G32
  -7715668.10946  -5983431.50545  23781820.5474                   23781812.1804
        39.5004         34.7504
  -7921242.59846  -5948312.20145  24109962.1094                   24109954.1524
        36.5004         32.2504
 -10016556.85747  -8599544.41245  21865646.9224                   21865636.8554
        46.5004         33.7504
 -12124250.72546 -10084076.10844  22929420.9844                   22929413.3794
        37.7504         25.7504
 -10107740.14447 -11868108.11445  21988298.9384                   21988288.0514
        44.5004         35.5004
 -27421265.17048 -21237469.32049  20548477.1254                   20548468.2894
        51.2504         55.0004
 -12641304.62647  -9158736.51944  23476615.0704                   23476604.2424
        42.0004         27.2504
  -8830550.14946  -6028247.94943  24484973.2344                   24484962.8754
        39.7504         23.7504
  -3610464.32146  -2745371.29445  24648122.3914                   24648111.4454
        37.5004         33.7504
                                  24916575.0394                   24916569.5434
        29.0004         15.5004
 -25493050.34748 -21281564.70149  20605080.3444                   20605070.7464
        51.7504         55.0004
 23  1 10  0  5 30.0000000  0 11G08G27G22G24G23G10G21G18G31G01G32
  -7665233.76446  -5944132.07345  23791418.3984                   23791410.1484
        39.0004         34.7504
  -7832091.94746  -5878844.15645  24126926.6644                   24126919.4104
        36.2504         32.5004
 -10083689.66347  -8651855.63645  21852871.5554                   21852861.9574
        45.7504         34.5004
 -12052392.78346 -10028082.90544  22943097.2194                   22943087.7384
        39.7504         27.5004
 -10042124.70147 -11816979.22345  22000785.5314                   22000774.7624
        46.0004         35.0004
 -27410298.44348 -21228923.82649  20550564.0084                   20550555.4064
        50.5004         54.7504
 -12713046.03547  -9214638.88244  23462963.7424                   23462951.8594
        42.2504         28.5004
  -8715725.85446  -5938774.50144  24506821.7274                   24506812.8324
        37.2504         25.5004
  -3729885.73145  -2838426.94645  24625395.8204                   24625386.8674
        35.7504         33.5004
   -426824.86955   -670525.47252  24895458.4844                   24895451.4064
        31.5004         16.2504
 -25514064.89248 -21297939.65649  20601081.0314                   20601071.6094
        51.0004         54.7504
 23  1 10  0  6  0.0000000  0 11G08G27G22G24G23G10G21G18G31G01G32
  -7614387.77446  -5904511.83645  23801094.0704                   23801087.6374
        40.0004         35.5004
  -7742786.65146  -5809255.65845  24143922.2734                   24143913.6724
        37.2504         33.0004
 -10150504.39047  -8703919.02045  21840157.9774                   21840147.6764
        47.0004         35.0004
 -11980041.62946  -9971705.38544  22956864.6724                   22956855.4844
        38.0004         26.0004
  -9976276.24247 -11765668.74745  22013316.3444                   22013305.1644
        45.7504         35.7504
 -27399030.86148 -21220143.89849  20552708.1254                   20552699.0554
        51.0004         54.7504
 -12784510.65146  -9270325.62444  23449364.3524                   23449352.0004
        41.7504         27.2504
  -8600803.72346  -5849224.78644  24528693.3444                   24528682.4574
        39.7504         24.5004
  -3849321.46846  -2931493.78345  24602669.3204                   24602658.5514
        38.2504         34.2504
   -537680.32955   -756906.38652  24874361.4304                   24874355.5234
        30.2504         15.5004
 -25534669.43748 -21313995.13549  20597160.1254                   20597150.7034
        51.0004         55.0004
 23  1 10  0  6 30.0000000  0 11G08G27G22G24G23G10G21G18G31G01G32
  -7563131.83946  -5864572.20946  23810848.0164                   23810841.9344
        39.7504         36.0004
  -7653329.12846  -5739548.50745  24160944.0004                   24160936.6294
        36.5004         32.0004
 -10216999.55147  -8755733.38445  21827503.3674                   21827493.3014
        46.0004         34.5004
 -11907198.84646  -9914944.78344  22970725.5164                   22970716.5044
        38.5004         26.7504
  -9910194.18447 -11714176.24345  22025890.9384                   22025880.2854
        45.7504         35.7504
 -27387461.38748 -21211128.72449  20554909.8524                   20554900.9574
        50.5004         54.7504
 -12855695.38047  -9325794.22144  23435818.3284                   23435806.7384
        43.0004         27.7504
  -8485785.05946  -5759599.85243  24550578.6484                   24550569.5204
        37.5004         22.5004
  -3968767.75646  -3024568.83845  24579939.8834                   24579928.6454
        38.5004         34.5004
   -648412.57555   -843191.25353  24853292.3834                   24853283.6054
        33.2504         18.2504
 -25554863.57548 -21329730.80949  20593316.9694                   20593308.1334
        50.7504         54.7504
 23  1 10  0  7  0.0000000  0 11G08G27G22G24G23G10G21G18G31G01G32
  -7511469.58846  -5824315.94145  23820677.7894                   23820671.5904
        37.5004         34.0004
  -7563723.60246  -5669726.03345  24177996.5234                   24177988.5084
        38.0004         32.5004
 -10283175.55647  -8807299.05445  21814911.5084                   21814900.7974
        47.5004         34.5004
 -11833868.01046  -9857803.86244  22984681.1954                   22984671.5984
        38.5004         27.0004
  -9843879.83147 -11662502.73245  22038509.9844                   22038499.2734
        45.5004         35.5004
 -27375590.25148 -21201878.48849  20557168.9144                   20557160.0784
        50.7504         54.7504
 -12926599.25947  -9381043.99444  23422325.7274                   23422313.9614
        42.5004         27.5004
  -8370673.04546  -5669902.19743  24572483.5004                   24572474.3714
        37.0004         23.2504
  -4088222.76046  -3117650.66645  24557208.0944                   24557197.3244
        37.7504         34.0004
   -759020.03255   -929378.94852  24832242.8594                   24832236.5434
        31.7504         17.2504
 -25574648.65948 -21345147.74249  20589552.0704                   20589543.0594
        51.5004         55.0004
 23  1 10  0  7 30.0000000  0 11G08G27G22G24G23G10G21G18G31G01G32
  -7459401.44346  -5783743.39945  23830586.3594                   23830578.2274
        37.7504         33.2504
  -7473971.44346  -5599789.30345  24195074.9064                   24195067.0664
        37.2504         31.7504
 -10349030.25747  -8858614.37145  21802378.9534                   21802368.5944
        46.5004         35.0004
 -11760049.95546  -9800283.31944  22998727.3284                   22998718.1994
        37.7504         26.0004
  -9777331.90847 -11610647.22345  22051173.5394                   22051163.3554
        46.2504         35.2504
 -27363415.49748 -21192391.67049  20559485.4924                   20559476.5394
        51.7504         54.7504
 -12997219.02847  -9436072.38844  23408887.6094                   23408875.1994
        42.2504         29.2504
  -8255468.26546  -5580132.23543  24594406.6724                   24594396.8984
        38.0004         22.5004
  -4207682.31046  -3210736.06045  24534475.5554                   24534464.9024
        38.5004         34.7504
   -869498.54845  -1015466.15842  24811221.6254                   24811213.3164
        33.5004         17.7504
 -25594023.52948 -21360245.03349  20585865.2814                   20585856.1524
        52.0004         54.7504
 23  1 10  0  8  0.0000000  0 11G08G27G22G24G23G10G21G18G31G01G32
  -7406932.83246  -5742858.77845  23840572.9694                   23840563.9574
        39.0004         35.2504
  -7384078.78446  -5529743.06845  24212181.0004                   24212173.4534
        37.5004         32.0004
 -10414566.25047  -8909681.31245  21789908.7114                   21789897.4144
        47.2504         35.0004
 -11685750.16946  -9742387.37244  23012865.3364                   23012856.9694
        37.5004         27.0004
  -9710553.65647 -11558612.23746  22063881.5314                   22063870.8794
        46.7504         36.0004
 -27350939.50948 -21182670.11549  20561859.5314                   20561850.5784
        51.2504         54.7504
 -13067555.66447  -9490880.15144  23395503.8134                   23395491.0514
        42.7504         29.2504
  -8140175.83346  -5490293.98743  24616345.0634                   24616337.3404
        37.0004         22.2504
  -4327146.28646  -3303824.89445  24511740.3444                   24511731.6844
        36.5004         35.2504
   -979848.48545  -1101453.13642  24790221.7734                   24790214.1094
        32.0004         17.7504
 -25612991.51648 -21375025.26449  20582256.0164                   20582246.5944
        51.7504         55.0004
 23  1 10  0  8 30.0000000  0 11G08G27G22G24G23G10G21G18G31G01G32
  -7354063.86446  -5701662.21545  23850631.7664                   23850625.9184
        38.2504         34.5004
  -7294046.02946  -5459587.68145  24229312.8524                   24229307.2384
        36.7504         32.7504
 -10479780.23847  -8960497.36145  21777498.3834                   21777488.0824
        47.2504         34.7504
 -11610968.68646  -9684116.08144  23027096.0944                   23027087.3164
        37.5004         26.5004
  -9643542.78147 -11506395.98946  22076632.8364                   22076622.2424
        46.5004         36.0004
 -27338159.07848 -21172711.33349  20564291.6644                   20564282.4774
        50.2504         55.0004
 -13137604.90747  -9545463.99644  23382172.3134                   23382160.9574
        42.0004         28.0004
  -8024795.33646  -5400387.12543  24638303.2894                   24638292.5204
        39.2504         23.7504
  -4446609.50946  -3396913.10246  24489009.1644                   24488998.6294
        38.5004         36.2504
  -1090064.63945  -1187335.82942  24769248.3754                   24769240.9454
        33.7504         16.2504
 -25631550.44648 -21389486.75649  20578724.0474                   20578715.2704
        51.0004         55.0004
 23  1 10  0  9  0.0000000  0 11G08G27G22G24G23G10G21G18G31G01G32
  -7300797.13046  -5660155.73445  23860767.9534                   23860761.9304
        37.0004         33.2504
  -7203876.93246  -5389326.07045  24246473.4304                   24246464.8284
        37.5004         32.0004
 -10544671.79947  -9011062.14645  21765149.9614                   21765139.3094
        47.5004         34.7504
 -11535708.32746  -9625471.65744  23041417.0164                   23041409.2934
        36.5004         25.7504
  -9576299.99447 -11453999.02545  22089429.5784                   22089418.2234
        45.7504         35.7504
 -27325074.39148 -21162515.48249  20566781.6094                   20566772.6564
        51.5004         54.7504
 -13207364.73947  -9599822.28344  23368897.6174                   23368885.6174
        42.5004         28.2504
  -7909329.34146  -5310413.61443  24660273.7734                   24660265.1134
        37.2504         22.7504
  -4566069.54446  -3489998.84645  24466276.7584                   24466265.7544
        38.5004         34.5004
  -1200144.77645  -1273112.64642  24748300.9454                   24748293.1644
        32.5004         17.7504
 -25649701.21548 -21403630.20649  20575270.2504                   20575261.1214
        52.0004         55.0004
 23  1 10  0  9 30.0000000  0 11G08G27G22G24G23G10G21G18G31G01G32
  -7247136.40246  -5618342.21345  23870981.1174                   23870972.5164
        37.5004         33.5004
  -7113575.31846  -5318961.19545  24263656.8834                   24263648.3984
        38.2504         33.0004
 -10609241.30347  -9061376.00345  21752863.3524                   21752852.2304
        46.7504         35.0004
 -11459972.58046  -9566456.78844  23055829.5164                   23055821.0314
        37.2504         24.5004
  -9508826.46847 -11401422.26545  22102268.5784                   22102257.7504
        45.7504         35.2504
 -27311685.53948 -21152082.60649  20569329.6564                   20569320.4694
        50.7504         54.7504
 -13276834.01147  -9653954.17444  23355679.1884                   23355666.6604
        42.2504         29.0004
  -7793780.97446  -5220375.90043  24682263.4694                   24682253.5204
        38.5004         22.5004
  -4685524.11246  -3583080.35445  24443545.1954                   24443534.4844
        38.2504         35.0004
  -1310087.33345  -1358782.19343  24727379.5234                   24727370.9804
        33.7504         18.5004
 -25667444.99448 -21417456.51049  20571893.5234                   20571884.4534
        52.0004         54.7504
 23  1 10  0 10  0.0000000  0 11G08G27G22G24G23G10G21G18G31G01G32
  -7193083.77046  -5576223.27245  23881267.3594                   23881257.9964
        39.2504         33.0004
  -7023144.27046  -5248495.45445  24280863.9614                   24280857.7034
        37.2504         32.5004
 -10673488.19347  -9111438.46845  21740637.5474                   21740626.6024
        47.2504         35.2504
 -11383763.94946  -9507073.42744  23070332.7344                   23070323.1954
        38.0004         25.5004
  -9441122.45547 -11348665.90745  22115152.6024                   22115141.5984
        45.7504         35.2504
 -27297992.03648 -21141412.34049  20571935.5394                   20571926.1764
        52.0004         55.0004
 -13346011.08647  -9707858.38744  23342514.4144                   23342502.5904
        42.0004         28.0004
  -7678152.29645  -5130275.60843  24704265.2664                   24704257.0164
        35.7504         22.5004
  -4804970.82646  -3676155.72745  24420814.2974                   24420804.7584
        37.5004         34.5004
  -1419889.45945  -1444342.34343  24706484.2194                   24706476.7894
        33.2504         18.5004
 -25684782.31148 -21430966.09349  20568594.1884                   20568585.3524
        52.2504         54.7504
 23  1 10  0 10 30.0000000  0 11G08G27G22G24G23G10G21G18G31G01G32
  -7138640.98346  -5533800.33145  23891624.2424                   23891618.5704
        36.5004         31.7504
  -6932586.06346  -5177930.67345  24298096.5784                   24298089.2664
        37.7504         32.5004
 -10737411.12847  -9161248.50745  21728472.7664                   21728461.7624
        46.5004         35.0004
 -11307084.04646  -9447322.88044  23084923.9534                   23084915.0594
        37.5004         26.7504
  -9373187.37547 -11295729.50445  22128080.2894                   22128069.3444
        46.0004         35.5004
 -27283992.74748 -21130503.79549  20574599.6644                   20574590.4774
        51.0004         54.7504
 -13414892.96147  -9761532.56644  23329406.8054                   23329394.8054
        42.7504         28.7504
  -7562444.51846  -5040113.76343  24726284.0784                   24726275.4774
        36.7504         22.5004
  -4924405.62546  -3769221.80745  24398087.5084                   24398077.1484
        38.0004         35.2504
  -1529547.74745  -1529790.34642  24685617.5314                   24685609.4574
        33.7504         17.7504
 -25701712.65348 -21444158.55649  20565372.3134                   20565363.5354
        51.5004         54.7504
 23  1 10  0 11  0.0000000  0 11G08G27G22G24G23G10G21G18G31G01G32
  -7083811.18245  -5491075.91945  23902059.1334                   23902053.1684
        35.5004         32.2504
  -6841904.67246  -5107269.85445  24315353.7504                   24315345.3834
        38.5004         33.0004
 -10801010.43447  -9210806.35245  21716370.2344                   21716359.6994
        46.0004         35.5004
 -11229936.37846  -9387207.83044  23099604.9694                   23099595.3134
        38.2504         25.5004
  -9305022.34147 -11242613.89845  22141051.5634                   22141040.5004
        46.5004         35.5004
 -27269687.99748 -21119357.24249  20577321.8364                   20577312.5904
        50.5004         54.7504
 -13483478.63647  -9814975.97244  23316355.9844                   23316343.5164
        43.0004         29.7504
  -7446660.86646  -4949892.70743  24748318.4454                   24748307.9694
        38.0004         22.5004
  -5043826.74846  -3862277.22845  24375361.7034                   24375351.5784
        38.2504         34.7504
  -1639060.33245  -1615124.86443  24664778.3204                   24664770.1884
        34.2504         19.2504
 -25718237.35948 -21457034.93849  20562228.1174                   20562218.9884
        52.5004         54.7504
 23  1 10  0 11 30.0000000  0 11G08G27G22G24G23G10G21G18G31G01G32
  -7028596.88646  -5448051.80845  23912568.4694                   23912559.1644
        38.5004         33.7504
  -6751102.60046  -5036515.00345  24332633.1024                   24332625.3794
        38.0004         33.7504
 -10864285.18747  -9260111.32345  21704329.2194                   21704318.8014
        46.7504         35.0004
 -11152323.08046  -9326729.89744  23114373.3674                   23114364.5314
        37.5004         24.7504
  -9236627.26347 -11189319.05145  22154066.7504                   22154055.8634
        46.5004         35.0004
 -27255076.72248 -21107971.83849  20580101.8134                   20580092.6844
        51.5004         54.7504
 -13551765.66547  -9868186.62444  23303360.0944                   23303348.9734
        42.0004         28.5004
  -7330802.80646  -4859613.69143  24770365.1954                   24770355.1884
        36.5004         22.2504
  -5163230.67446  -3955319.22745  24352640.2424                   24352629.5314
        37.5004         34.7504
  -1748424.19345  -1700343.46543  24643966.3674                   24643958.1764
        34.2504         19.0004
 -25734356.46248 -21469595.26149  20559160.6414                   20559151.6294
        52.0004         55.0004
 23  1 10  0 12  0.0000000  0 11G08G27G22G24G23G10G21G18G31G01G32
  -6973000.95546  -5404730.27245  23923146.8834                   23923138.3984
        37.2504         32.7504
  -6660183.62646  -4965669.06345  24349935.0004                   24349925.7544
        39.2504         32.5004
 -10927235.21947  -9309163.26745  21692350.5864                   21692339.9344
        45.2504         35.5004
 -11074247.22046  -9265891.61144  23129231.9614                   23129222.7154
        39.0004         26.0004
  -9168002.95947 -11135845.59145  22167125.6024                   22167114.4804
        46.2504         35.0004
 -27240158.74148 -21096347.42849  20582940.5704                   20582931.6764
        51.0004         54.7504
 -13619752.84347  -9921163.63344  23290423.3204                   23290410.8524
        42.7504         29.0004
  -7214873.23445  -4769278.95743  24792423.9694                   24792416.1294
        34.7504         21.7504
  -5282615.22246  -4048346.13445  24329923.3134                   24329911.8984
        39.2504         35.5004
  -1857637.02345  -1785444.44743  24623183.4454                   24623176.7774
        34.2504         20.2504
 -25750070.90948 -21481840.27049  20556170.1254                   20556161.1724
        52.5004         54.7504
 23  1 10  0 12 30.0000000  0 11G08G27G22G24G23G10G21G18G31G01G32
  -6917025.02445  -5361112.70345  23933795.9144                   23933791.1844
        33.0004         31.5004
  -6569149.73146  -4894733.60645  24367258.2974                   24367249.8714
        39.0004         33.5004
 -10989859.22947  -9357961.15545  21680433.6484                   21680422.7034
        46.2504         35.0004
 -10995710.52846  -9204694.16244  23144176.8524                   23144167.4884
        38.0004         26.0004
  -9099148.76947 -11082192.98945  22180228.0634                   22180216.9414
        46.2504         35.0004
 -27224932.76148 -21084483.03549  20585837.8674                   20585828.9734
        51.2504         55.0004
 -13687436.99947  -9973904.55144  23277543.2194                   23277531.2774
        43.0004         28.0004
  -7098873.26545  -4678889.40043  24814498.1564                   24814490.2584
        35.7504         22.0004
  -5401976.75146  -4141355.16445  24307207.9774                   24307197.9694
        36.0004         35.2504
  -1966695.53445  -1870425.07843  24602430.5554                   24602423.8874
        34.7504         19.0004
 -25765380.23648 -21493769.60849  20553256.6884                   20553248.2034
        52.0004         55.0004
 23  1 10  0 13  0.0000000  0 11G08G27G22G24G23G10G21G18G31G01G32
  -6860672.09645  -5317201.39845  23944521.8204                   23944514.8014
        35.5004         32.0004
  -6478004.77946  -4823711.56145  24384600.8204                   24384593.6254
        37.0004         32.7504
 -11052157.28347  -9406505.06845  21668578.2274                   21668567.9844
        46.5004         35.2504
 -10916716.28546  -9143140.21944  23159209.3754                   23159199.4264
        39.5004         26.0004
  -9030065.71847 -11028362.05745  22193374.1804                   22193363.4694
        46.2504         35.0004
 -27209399.15048 -21072378.91849  20588793.6804                   20588784.5514
        51.5004         55.0004
 -13754817.03247 -10026408.47044  23264721.4064                   23264709.5824
        42.5004         29.2504
  -6982805.79745  -4588447.16243  24836586.5474                   24836576.1884
        35.2504         21.5004
  -5521312.68046  -4234344.15245  24284498.5474                   24284489.1844
        36.5004         35.0004
  -2075597.43745  -1955283.74643  24581708.1334                   24581699.7074
        35.0004         18.5004
 -25780285.68748 -21505384.22649  20550420.4534                   20550412.3794
        52.5004         54.7504
 23  1 10  0 13 30.0000000  0 11G08G27G22G24G23G10G21G18G31G01G32
  -6803945.27946  -5272998.68945  23955317.3914                   23955309.4924
        37.0004         32.2504
  -6386751.93546  -4752605.46745  24401966.7974                   24401958.7814
        37.7504         33.2504
 -11114128.85547  -9454794.56945  21656785.6484                   21656774.9384
        45.7504         35.2504
 -10837267.20746  -9081231.84944  23174327.1954                   23174318.4184
        38.5004         26.5004
  -8960754.18847 -10974353.07945  22206562.9144                   22206553.0234
        45.5004         34.7504
 -27193557.35348 -21060034.65849  20591808.9774                   20591800.0234
        51.7504         55.0004
 -13821891.14147 -10078674.00044  23251957.7664                   23251945.2974
        42.2504         29.0004
  -6866673.05845  -4497954.08143  24858684.8834                   24858676.3404
        35.5004         22.0004
  -5640620.43146  -4327311.22445  24261796.7504                   24261785.6294
        37.0004         35.5004
  -2184340.19045  -2040018.38943  24561014.3984                   24561006.3244
        35.2504         18.5004
 -25794787.81548 -21516684.56949  20547661.0314                   20547651.9024
        53.2504         54.7504
 23  1 10  0 14  0.0000000  0 11G08G27G22G24G23G10G21G18G31G01G32
  -6746846.62645  -5228506.23244  23966181.9924                   23966174.0944
        34.0004         29.7504
  -6295393.80846  -4681417.31345  24419350.0864                   24419344.0044
        36.7504         33.0004
 -11175773.09847  -9502829.01045  21645055.0164                   21645044.4224
        45.7504         35.2504
 -10757365.41046  -9018970.73144  23189531.3834                   23189523.0164
        39.5004         26.0004
  -8891214.03647 -10920165.98045  22219796.3914                   22219786.0314
        45.5004         34.7504
 -27177406.68548 -21047449.71749  20594882.0944                   20594873.0234
        51.5004         55.0004
 -13888656.93347 -10130699.29644  23239252.7114                   23239240.1844
        42.7504         28.5004
  -6750476.74046  -4407411.48843  24880798.1954                   24880787.3094
        36.5004         21.5004
  -5759896.45945  -4420253.57345  24239097.2344                   24239087.8134
        34.7504         34.0004
  -2292920.72445  -2124626.59043  24540353.0084                   24540344.4654
        35.2504         19.2504
 -25808886.64248 -21527670.65649  20544978.1094                   20544969.0984
        52.5004         54.7504
 23  1 10  0 14 30.0000000  0 11G08G27G22G24G23G10G21G18G31G01G32
  -6689378.65845  -5183726.06345  23977117.6724                   23977109.8914
        33.5004         31.0004
  -6203934.00746  -4610149.95045  24436755.0864                   24436747.5394
        37.5004         32.7504
 -11237090.27347  -9550608.59145  21633386.7274                   21633376.2504
        46.2504         35.2504
 -10677014.18246  -8956359.37044  23204822.8134                   23204813.2734
        39.5004         26.0004
  -8821446.13347 -10865801.38645  22233072.8284                   22233062.3524
        46.0004         34.2504
 -27160946.89448 -21034623.90049  20598014.2424                   20598004.7624
        51.7504         55.0004
 -13955112.92647 -10182483.18744  23226606.2504                   23226594.5434
        42.5004         29.0004
  -6634219.61146  -4316821.51143  24902920.7894                   24902910.3134
        37.0004         20.5004
  -5879138.53246  -4513169.44345  24216408.9064                   24216396.8484
        38.0004         34.7504
  -2401336.99046  -2209106.80543  24519720.9384                   24519713.9184
        36.0004         19.7504
 -25822583.27548 -21538343.34849  20542371.3134                   20542362.6524
        53.0004         55.0004
 23  1 10  0 15  0.0000000  0 11G08G27G22G24G23G10G21G18G31G01G32
  -6631544.73346  -5138660.71745  23988124.4384                   23988116.3634
        36.2504         32.0004
  -6112375.66346  -4538805.77345  24454178.0314                   24454170.8954
        36.5004         32.5004
 -11298079.81147  -9598132.85745  21621780.9224                   21621770.2704
        46.5004         35.0004
 -10596216.16846  -8893399.89744  23220197.4304                   23220189.1804
        37.5004         25.2504
  -8751450.81547 -10811259.60045  22246392.2584                   22246381.8984
        45.0004         34.5004
 -27144177.56348 -21021556.89749  20601205.3594                   20601196.1724
        51.7504         55.2504
 -14021257.34947 -10234024.29244  23214019.9064                   23214007.1454
        43.5004         29.7504
  -6517903.81046  -4226185.80843  24925054.6024                   24925045.3554
        36.0004         21.2504
  -5998344.29946  -4606057.05845  24193722.8364                   24193712.4774
        37.0004         34.5004
  -2509586.07646  -2293456.77943  24499123.2344                   24499113.9884
        37.5004         20.0004
 -25835878.24848 -21548703.05749  20539841.8204                   20539833.1024
        52.0004         54.7504
 23  1 10  0 15 30.0000000  0 11G08G27G22G24G23G10G21G18G31G01G32
  -6573347.04945  -5093311.88845  23999198.0944                   23999190.3134
        33.5004         30.2504
  -6020721.24046  -4467386.76345  24471619.8444                   24471612.0634
        37.5004         32.2504
 -11358740.66547  -9645401.03245  21610237.9844                   21610226.9224
        47.0004         35.5004
 -10514973.43046  -8830093.88144  23235658.3834                   23235648.8444
        39.0004         25.7504
  -8681227.86447 -10756540.43745  22259755.1024                   22259745.0354
        45.5004         34.7504
 -27127097.65448 -21008247.87049  20604455.7194                   20604446.4144
        51.7504         55.0004
 -14087087.48247 -10285320.50144  23201492.1254                   23201480.0084
        43.0004         28.7504
  -6401530.91145  -4135505.59743  24947198.9224                   24947189.6174
        35.0004         20.0004
  -6117509.67646  -4698913.18745  24171046.2424                   24171036.3524
        36.0004         34.2504
  -2617664.92645  -2377674.04143  24478554.8524                   24478547.9494
        35.5004         18.5004
 -25848771.54148 -21558749.76549  20537387.6884                   20537379.0274
        51.7504         54.7504
 23  1 10  0 16  0.0000000  0 11G08G27G22G24G23G10G21G18G31G01G32
  -6514788.36045  -5047681.86045  24010340.9064                   24010333.6524
        32.7504         30.7504
  -5928974.66445  -4395895.88945  24489076.8284                   24489070.5704
        34.0004         31.5004
 -11419073.26347  -9692413.40945  21598756.0164                   21598745.6564
        46.0004         35.5004
 -10433289.49446  -8766444.05944  23251201.2424                   23251192.2304
        38.7504         25.5004
  -8610778.40047 -10701644.76745  22273161.9774                   22273151.0904
        45.5004         33.7504
 -27109707.49148 -20994697.09949  20607765.0554                   20607755.7504
        52.0004         54.7504
 -14152602.68447 -10336371.30745  23189026.2114                   23189013.5664
        44.0004         30.5004
  -6285103.99646  -4044783.30743  24969355.0164                   24969344.4224
        36.0004         21.0004
  -6236632.59646  -4791736.23145  24148378.5784                   24148368.2774
        38.5004         35.5004
  -2725571.50446  -2461757.08643  24458024.3754                   24458013.8404
        39.2504         20.5004
 -25861264.52548 -21568484.54549  20535010.5004                   20535001.7234
        51.7504         55.0004
 23  1 10  0 16 30.0000000  0 11G08G27G22G24G23G10G21G18G31G01G32
  -6455870.41345  -5001771.79145  24021553.7344                   24021545.7194
        33.7504         30.0004
  -5837137.95146  -4324334.84845  24506555.3524                   24506546.9264
        38.2504         32.5004
 -11479076.19447  -9739168.90345  21587338.3674                   21587327.3634
        46.7504         35.0004
 -10351166.12446  -8702451.84744  23266829.1094                   23266820.6254
        39.0004         26.5004
  -8540101.79547 -10646572.10245  22286611.1804                   22286600.2344
        45.5004         34.2504
 -27092005.60948 -20980903.41949  20611133.5084                   20611124.3794
        52.0004         55.0004
 -14217799.66047 -10387174.14445  23176618.1414                   23176606.9614
        43.0004         30.2504
  -6168624.19446  -3954019.82443  24991522.3914                   24991509.8054
        38.0004         21.7504
  -6355709.14846  -4884523.13545  24125718.1484                   24125708.4924
        37.0004         34.2504
  -2833302.19146  -2545703.08543  24437520.6884                   24437513.1994
        37.0004         19.5004
 -25873356.74548 -21577907.04749  20532709.7734                   20532700.8204
        52.0004         55.0004
 23  1 10  0 17  0.0000000  0 11G08G27G22G24G23G10G21G18G31G01G32
  -6396597.53845  -4955585.18345  24032834.6094                   24032825.3054
        35.5004         30.5004
  -5745215.93145  -4252707.25945  24524047.0944                   24524039.2544
        35.7504         32.5004
 -11538750.79147  -9785668.55245  21575982.5004                   21575971.7304
        47.5004         35.7504
 -10268607.56846  -8638120.50544  23282539.9614                   23282530.8324
        39.2504         26.5004
  -8469200.04347 -10591323.99845  22300103.2034                   22300092.3164
        45.0004         34.0004
 -27073993.19748 -20966867.76949  20614561.0944                   20614552.1994
        52.0004         55.0004
 -14282678.28347 -10437728.90545  23164273.3594                   23164260.2464
        44.5004         31.2504
  -6052095.18745  -3863217.90243  25013691.8444                   25013684.6484
        32.2504         21.2504
  -6474738.37445  -4977273.25345  24103066.4534                   24103058.7304
        34.0004         34.7504
  -2940855.94646  -2629511.20543  24417056.5634                   24417045.9104
        39.2504         20.5004
 -25885050.43548 -21587019.00149  20530484.1954                   20530475.4774
        52.7504         54.7504
 23  1 10  0 17 30.0000000  0 11G08G27G22G24G23G10G21G18G31G01G32
 -12638650.77155  -9819522.82555  24044177.7424                   24044171.5434
        31.7504         30.0004
  -5653209.43346  -4181013.90245  24541554.8754                   24541547.2704
        36.0004         30.5004
 -11598094.30447  -9831910.21145  21564690.1884                   21564678.8914
        47.0004         35.7504
 -10185614.49546  -8573450.59844  23298332.3984                   23298323.7384
        39.0004         25.0004
  -8398071.32047 -10535899.05545  22313639.0784                   22313627.9574
        45.7504         34.0004
 -27055667.88648 -20952588.29949  20618048.2894                   20618039.1604
        51.5004         55.2504
 -14347234.86547 -10488032.74645  23151988.1094                   23151976.2274
        44.5004         30.7504
  -5935517.23346  -3772378.04443  25035880.7424                   25035869.3284
        37.2504         22.0004
  -6593715.25546  -5069982.44645  24080428.5164                   24080417.3364
        38.2504         35.7504
  -3048227.82846  -2713177.64943  24396622.1094                   24396614.3874
        37.7504         19.0004
 -25896344.08148 -21595819.23049  20528335.3754                   20528326.2464
        52.2504         54.7504
 23  1 10  0 18  0.0000000  0 11G08G27G22G24G23G10G21G18G31G01G32
 -12578673.91545  -9772787.68645  24055592.7504                   24055584.7934
        34.2504         30.7504
  -5561123.15146  -4109258.33745  24559079.2814                   24559070.3874
        36.2504         31.7504
 -11657107.93647  -9877894.83045  21553459.5704                   21553448.8014
        46.2504         35.5004
 -10102191.17446  -8508445.39444  23314207.6484                   23314198.9304
        38.2504         24.0004
  -8326717.65947 -10480298.79945  22327217.1414                   22327205.9614
        45.5004         34.0004
 -27037030.68148 -20938065.81049  20621594.7734                   20621585.7034
        51.7504         55.0004
 -14411468.64847 -10538085.02445  23139763.8204                   23139753.0514
        43.0004         31.0004
  -5818894.11346  -3681502.78643  25058071.7424                   25058061.3834
        36.5004         19.7504
  -6712638.53946  -5162649.94745  24057795.8834                   24057787.3984
        36.0004         35.2504
  -3155416.74046  -2796701.49143  24376225.9384                   24376216.5744
        38.7504         19.5004
 -25907239.84648 -21604309.42349  20526261.9384                   20526252.9844
        52.5004         55.0004
 23  1 10  0 18 30.0000000  0 11G08G27G22G24G23G10G21G18G31G01G32
 -12518349.17945  -9725781.42245  24067072.4384                   24067064.2464
        34.5004         31.2504
  -5468959.59746  -4037442.58145  24576617.6334                   24576608.9734
        36.5004         31.7504
 -11715790.78947  -9923621.67546  21542292.7814                   21542282.1884
        47.2504         36.0004
 -10018339.74946  -8443106.61644  23330164.0704                   23330155.0594
        39.0004         24.2504
  -8255138.77547 -10424523.07545  22340837.2424                   22340826.7664
        45.0004         33.5004
 -27018080.08748 -20923299.10649  20625200.9924                   20625191.9224
        51.0004         55.0004
 -14475377.10447 -10587883.81845  23127604.5314                   23127591.2424
        45.5004         31.2504
  -5702227.27445  -3590593.48243  25080271.2114                   25080263.7814
        33.5004         21.0004
  -6831504.19946  -5255272.55746  24035177.4454                   24035167.9064
        36.7504         36.0004
  -3262419.50846  -2880080.27943  24355862.5004                   24355854.3094
        36.5004         19.2504
 -25917737.78748 -21612489.62449  20524264.1564                   20524255.0274
        52.0004         55.0004
 23  1 10  0 19  0.0000000  0 11G08G27G22G24G23G10G21G18G31G01G32
 -12457679.09345  -9678506.09845  24078615.0554                   24078609.3244
        31.5004         30.0004
  -5376721.28446  -3965568.54944  24594168.6884                   24594160.4964
        36.2504         29.7504
 -11774141.90247  -9969090.03946  21531189.2584                   21531178.0204
        47.0004         36.5004
  -9934062.47146  -8377436.02744  23346201.0474                   23346192.3284
        39.0004         24.5004
  -8183334.48847 -10368571.70045  22354501.7584                   22354490.9304
        45.7504         34.2504
 -26998815.55948 -20908287.78749  20628866.8134                   20628857.8594
        51.5004         55.5004
 -14538958.42647 -10637427.71145  23115503.7974                   23115491.9734
        42.7504         30.5004
                                  25102479.1414                   25102472.7074
        34.5004         20.5004
  -6950309.23746  -5347847.89246  24012571.0084                   24012559.8284
        39.0004         36.0004
  -3369232.65746  -2963311.31543  24335537.2034                   24335529.0124
        38.0004         21.0004
 -25927837.95848 -21620359.88249  20522342.3364                   20522333.1484
        53.0004         54.7504
 23  1 10  0 19 30.0000000  0 11G08G27G22G24G23G10G21G18G31G01G32
                                  24090228.2974                   24090219.6954
        34.2504         30.7504
  -5284412.10046  -3893639.30045  24611734.8674                   24611727.1454
        36.2504         30.2504
 -11832162.09747 -10014300.54046  21520147.7974                   21520137.1454
        47.0004         36.5004
  -9849362.91646  -8311436.38544  23362320.1174                   23362310.5204
        39.5004         25.5004
  -8111306.06147 -10312445.65445  22368208.3524                   22368197.3484
        45.0004         34.0004
 -26979237.37448 -20893032.05849  20632592.3364                   20632583.2074
        51.0004         55.5004
 -14602211.21047 -10686715.58245  23103467.5864                   23103456.2304
        44.2504         31.2504
 -18072130.48646 -13229479.18043  25124701.9454                   25124688.8324
        39.5004         20.5004
  -7069051.35746  -5440374.19346  23989974.6024                   23989964.5354
        38.7504         36.7504
  -3475854.42446  -3046393.21543  24315247.1414                   24315239.2424
        36.2504         19.7504
 -25937541.82548 -21627921.33349  20520496.0164                   20520486.7704
        52.2504         54.7504
 23  1 10  0 20  0.0000000  0 11G08G27G22G24G23G10G21G18G31G01G32
 -12335314.61545  -9583157.26445  24101901.4844                   24101894.9924
        32.5004         31.0004
  -5192034.92045  -3821657.10145  24629314.9694                   24629306.6024
        35.7504         30.5004
 -11889850.56647 -10059252.57246  21509170.4144                   21509159.4104
        46.5004         36.2504
  -9764243.68646  -8245109.70844  23378517.3134                   23378507.9494
        39.0004         25.5004
  -8039053.64147 -10256145.09345  22381957.4774                   22381946.7664
        45.2504         33.7504
 -26959345.18648 -20877531.64649  20636377.7814                   20636368.5354
        50.7504         54.7504
 -14665133.79847 -10735746.17545  23091493.9844                   23091481.8094
        45.0004         31.5004
 -17955345.58154 -13138477.76153  25146917.9454                   25146912.5084
        29.0004         18.5004
  -7187727.68146  -5532849.21645  23967389.5944                   23967380.6414
        37.7504         35.7504
  -3582281.84346  -3129323.75243  24294996.3444                   24294986.7464
        38.5004         19.7504
 -25946849.89648 -21635174.36149  20518724.3054                   20518715.5274
        52.5004         55.0004
 23  1 10  0 20 30.0000000  0 11G08G27G22G24G23G10G21G18G31G01G32
 -12273625.37445  -9535087.78745  24113641.7274                   24113634.5314
        31.5004         30.0004
  -5099592.28045  -3749623.86144  24646905.0704                   24646896.0004
        35.5004         28.5004
 -11947206.49647 -10103945.46246  21498255.6724                   21498244.6094
        47.2504         36.7504
  -9678706.94846  -8178457.70544  23394794.0704                   23394784.8834
        38.2504         25.2504
  -7966577.05447 -10199669.85445  22395749.8674                   22395739.0984
        45.7504         33.2504
 -26939137.72848 -20861785.58049  20640222.9144                   20640213.6094
        49.5004         55.0004
 -14727723.58247 -10784517.42345  23079582.1414                   23079570.5514
        43.0004         31.0004
 -17838525.28145 -13047449.11043  25169151.9844                   25169143.9694
        35.0004         21.7504
  -7306334.35146  -5625270.04646  23944821.2664                   23944810.6724
        38.0004         37.2504
  -3688511.62246  -3212100.16943  24274779.1484                   24274772.4224
        36.0004         20.0004
 -25955762.18148 -21642118.98649  20517028.6024                   20517019.5904
        51.5004         55.0004
 23  1 10  0 21  0.0000000  0 11G08G27G22G24G23G10G21G18G31G01G32
 -12211602.17745  -9486758.12144  24125446.2424                   24125436.5274
        34.2504         29.7504
  -5007087.64745  -3677542.37044  24664507.2894                   24664500.4454
        35.0004         29.7504
 -12004229.93847 -10148379.28446  21487404.2584                   21487393.7814
        46.5004         37.2504
  -9592755.94946  -8111482.91944  23411149.5784                   23411141.0944
        38.0004         24.5004
  -7893877.18247 -10143020.61845  22409583.5084                   22409572.4454
        45.0004         33.5004
 -26918614.98248 -20845793.84149  20644128.5554                   20644119.4264
        51.0004         55.0004
 -14789978.83147 -10833027.99845  23067737.5634                   23067725.3874
        44.0004         31.0004
 -17721672.32445 -12956394.77843  25191387.0784                   25191379.2384
        35.2504         19.0004
  -7424869.30746  -5717634.91346  23922263.5394                   23922254.0004
        38.0004         37.7504
  -3794541.48346  -3294720.83543  24254605.6094                   24254595.4264
        38.2504         21.5004
 -25964279.82648 -21648756.10249  20515407.2504                   20515398.5904
        52.5004         54.7504
 23  1 10  0 21 30.0000000  0 11G08G27G22G24G23G10G21G18G31G01G32
 -12149247.80945  -9438170.33544  24137309.6094                   24137301.6524
        33.0004         29.5004
  -4914524.44145  -3605415.18944  24682122.5944                   24682113.9344
        35.7504         28.5004
 -12060920.99547 -10192554.09246  21476616.6804                   21476605.3244
        46.5004         37.0004
  -9506393.89746  -8044187.81144  23427584.3284                   23427575.0824
        38.2504         25.2504
  -7820954.73047 -10086197.94545  22423460.7504                   22423449.5124
        45.0004         33.7504
 -26897776.91348 -20829556.38049  20648094.2114                   20648084.6724
        50.5004         54.7504
 -14851898.50747 -10881277.10145  23055953.8674                   23055942.2774
        43.5004         32.0004
 -17604789.29546 -12865317.15843  25213633.5944                   25213621.6524
        37.5004         20.7504
  -7543329.81646  -5809941.75046  23899723.6484                   23899712.0004
        40.0004         38.5004
  -3900369.05646  -3377183.94043  24234464.6724                   24234457.2424
        36.7504         21.0004
 -25972403.91148 -21655086.55149  20513861.8444                   20513852.6564
        51.7504         54.7504
 23  1 10  0 22  0.0000000  0 11G08G27G22G24G23G10G21G18G31G01G32
 -12086564.57445  -9389326.31945  24149237.8444                   24149230.7664
        32.5004         30.5004
  -4821905.10646  -3533244.24944  24699747.0004                   24699739.1024
        36.0004         28.5004
 -12117278.56347 -10236469.06046  21465892.3134                   21465881.5434
        47.0004         37.0004
  -9419622.95446  -7976574.08544  23444096.3594                   23444087.2894
        38.7504         24.5004
  -7747809.53847 -10029201.70245  22437379.9694                   22437368.7894
        45.7504         33.7504
 -26876622.60148 -20813072.50649  20652119.2114                   20652110.3754
        50.2504         54.7504
 -14913480.23847 -10929262.84945  23044233.8524                   23044222.3204
        42.5004         30.7504
                                  25235874.9454                   25235870.5664
        34.2504         20.2504
  -7661712.33146  -5902187.89646  23877195.0394                   23877184.2114
        39.2504         38.2504
  -4005990.91046  -3459486.67443  24214367.2344                   24214358.8094
        38.2504         22.0004
 -25980134.44448 -21661110.33249  20512390.6724                   20512381.6604
        51.7504         55.0004
 23  1 10  0 22 30.0000000  0 11G08G27G22G24G23G10G21G18G31G01G32
 -12023555.87845  -9340228.68645  24161229.7424                   24161221.1994
        33.7504         31.0004
  -4729233.76045  -3461032.87744  24717381.9534                   24717373.8794
        34.7504         28.2504
 -12173303.80447 -10280125.06846  21455230.1174                   21455219.8754
        46.5004         36.5004
  -9332446.95746  -7908644.74743  23460685.0314                   23460676.5474
        37.7504         23.7504
  -7674443.01547  -9972033.00345  22451340.9844                   22451330.5084
        44.5004         33.5004
 -26855152.77448 -20796342.76849  20656204.7974                   20656195.6094
        50.5004         55.0004
 -14974722.93347 -10976984.44145  23032581.6174                   23032568.7384
        44.7504         30.7504
 -17370939.36955 -12724547.12953  25258132.6954                   25258120.6954
        33.5004         22.5004
  -7780015.01146  -5994371.75746  23854682.0784                   23854672.5394
        38.7504         38.0004
  -4111405.46046  -3541627.89343  24194305.5234                   24194298.3284
        36.2504         21.0004
 -25987473.20848 -21666828.84449  20510994.0704                   20510984.9414
        52.5004         55.0004
 23  1 10  0 23  0.0000000  0 11G08G27G22G24G23G10G21G18G31G01G32
 -11960223.76345  -9290879.06445  24173278.4224                   24173272.7504
        31.0004         30.2504
  -4636512.11145  -3388782.25044  24735026.0234                   24735017.5984
        34.2504         28.5004
 -12228994.76247 -10323520.58746  21444633.3134                   21444622.6604
        47.0004         37.2504
  -9244867.41546  -7840400.96744  23477351.0474                   23477342.4454
        38.0004         25.7504
  -7600854.22947  -9914691.11545  22465345.0084                   22465333.3014
        45.0004         32.5004
 -26833365.52148 -20779365.69449  20660350.9614                   20660342.4184
        50.0004         55.0004
 -15035623.40947 -11024439.35345  23020991.2734                   23020980.2704
        42.7504         31.2504
 -17253977.41255 -12648629.87253  25280385.4924                   25280379.0004
        33.0004         19.7504
  -7898233.43546  -6086490.00846  23832187.2664                   23832175.8524
        40.5004         39.5004
  -4216608.48146  -3623604.29043  24174288.0474                   24174279.0354
        37.5004         22.5004
 -25994419.53348 -21672241.55849  20509672.2974                   20509663.2274
        51.7504         55.0004
 23  1 10  0 23 30.0000000  0 11G08G27G22G24G23G10G21G18G31G01G32
 -11896569.31245  -9241278.26245  24185393.1954                   24185385.2384
        32.0004         30.2504
  -4543741.76645  -3316493.67344  24752679.4614                   24752670.5664
        34.2504         27.7504
 -12284350.09147 -10366654.60146  21434099.4304                   21434088.7194
        46.5004         37.5004
  -9156885.79946  -7771843.87043  23494093.5944                   23494085.1684
        37.7504         23.5004
  -7527042.29447  -9857175.32145  22479390.1024                   22479379.1564
        43.7504         33.2504
 -26811259.10648 -20762139.91749  20664557.0554                   20664548.5704
        50.5004         55.2504
 -15096178.90447 -11071625.41745  23009468.2194                   23009456.5704
        43.5004         31.5004
 -17136991.84245 -12557472.27843  25302645.3444                   25302640.3204
        31.0004         19.0004
  -8016363.63646  -6178539.50046  23809706.3134                   23809696.6564
        39.2504         39.5004
  -4321596.07246  -3705412.77743  24154307.7584                   24154300.6804
        36.5004         20.0004
 -26000972.82748 -21677348.01149  20508424.7814                   20508416.0634
        52.0004         54.7504
 23  1 10  0 24  0.0000000  0 11G08G27G22G24G23G10G21G18G31G01G32
 -11832599.36745  -9191431.60945  24197566.4774                   24197558.7544
        33.2504         31.2504
  -4450929.58145  -3244172.49044  24770341.3594                   24770333.8714
        35.0004         29.0004
 -12339372.94247 -10409529.51446  21423629.1254                   21423618.0634
        47.7504         37.0004
  -9068508.64446  -7702978.55043  23510910.9924                   23510902.5084
        37.2504         23.7504
  -7453011.22547  -9799488.80045  22493477.7664                   22493466.7624
        43.7504         33.5004
 -26788836.95648 -20744668.11649  20668824.1884                   20668815.4104
        50.5004         55.2504
 -15156391.21447 -11118544.13345  22998010.6564                   22997997.8954
        45.0004         31.2504
 -17019988.50945 -12466300.87143  25324914.4144                   25324905.6374
        33.7504         19.0004
  -8134406.10246  -6270520.61346  23787244.2424                   23787234.0004
        40.2504         39.5004
  -4426368.85746  -3787053.92843  24134370.6024                   24134362.3524
        37.0004         20.5004
 -26007137.42148 -21682151.58849  20507252.2194                   20507243.0314
        52.0004         54.7504
 23  1 10  0 24 30.0000000  0 11G08G27G22G24G23G10G21G18G31G01G32
 -11768313.78245  -9141338.98045  24209801.5704                   24209792.6174
        33.7504         31.0004
  -4358075.50945  -3171818.73144  24788010.5784                   24788002.6214
        33.2504         26.0004
 -12394060.28247 -10452142.99546  21413221.7274                   21413210.9574
        46.5004         36.7504
  -8979735.81246  -7633804.92044  23527803.6254                   23527795.1994
        38.0004         24.5004
  -7378758.59047  -9741629.61245  22507607.9534                   22507597.3014
        44.5004         33.5004
 -26766095.52548 -20726947.52749  20673151.6804                   20673142.8444
        50.2504         55.7504
 -15216255.55647 -11165191.65145  22986617.6024                   22986607.0664
        42.5004         31.2504
 -16902966.45655 -12389294.93553  25347181.2344                   25347173.2194
        32.5004         18.2504
  -8252355.06346  -6362428.88446  23764799.2974                   23764788.5864
        40.7504         40.2504
  -4530921.41145  -3868523.43945  24114474.0394                   24114467.0784
        35.2504         32.2504
 -26012911.17848 -21686650.61349  20506153.4844                   20506144.3554
        52.0004         55.0004
 23  1 10  0 25  0.0000000  0 11G08G27G22G24G23G10G21G18G31G01G32
                                  24222089.5554                   24222085.1174
        30.2504         29.5004
  -4265183.87845  -3099435.60644  24805688.8364                   24805678.4184
        35.2504         27.7504
 -12448413.09147 -10494495.79746  21402879.4774                   21402868.1214
        47.5004         37.0004
  -8890571.46246  -7564326.20144  23544771.5554                   23544762.4844
        38.0004         25.5004
  -7304286.06147  -9683599.09845  22521779.3134                   22521769.0704
        44.5004         32.7504
 -26743035.65848 -20708978.79149  20677540.0944                   20677531.0824
        49.5004         54.7504
 -15275771.25047 -11211567.49145  22975293.8594                   22975281.2154
        45.0004         32.0004
 -16785929.11645 -12298096.82842  25369453.2814                   25369445.0904
        32.5004         17.7504
  -8370208.97947  -6454263.06246  23742374.1564                   23742361.8634
        42.2504         40.5004
  -4635252.10346  -3949820.08545  24094622.7194                   24094613.4734
        36.2504         32.2504
 -26018296.05848 -21690846.61149  20505128.8444                   20505119.6564
        50.7504         55.0004
 23  1 10  0 25 30.0000000  0 11G08G27G22G24G23G10G21G18G31G01G32
 -11638809.32245  -9040426.53044  24234444.8834                   24234436.0474
        32.7504         29.7504
  -4172257.07645  -3027025.11344  24823370.2114                   24823363.5434
        33.0004         27.2504
 -12502430.31847 -10536587.11146  21392599.8054                   21392589.3284
        46.2504         37.2504
  -8801017.57946  -7494543.96644  23561812.3134                   23561804.0634
        38.2504         24.2504
  -7229593.22847  -9625396.91945  22535992.7814                   22535982.5394
        44.0004         34.0004
 -26719656.38448 -20690761.18449  20681989.0084                   20681979.9384
        50.5004         55.0004
 -15334935.90547 -11257669.84645  22964034.9224                   22964022.1024
        44.5004         32.2504
                                  25391728.1024                   25391716.5704
        33.5004         19.0004
  -8487963.91446  -6546020.15046  23719964.8524                   23719953.4384
        41.5004         40.5004
  -4739357.47145  -4030941.10945  24074810.4064                   24074803.5044
        35.0004         31.7504
 -26023292.00948 -21694739.54749  20504178.0084                   20504168.5864
        52.5004         54.7504
 23  1 10  0 26  0.0000000  0 11G08G27G22G24G23G10G21G18G31G01G32
 -11573596.62645  -8989611.40645  24246851.9694                   24246845.4184
        32.2504         30.5004
  -4079299.05645  -2954590.36444  24841062.1884                   24841052.1804
        35.7504         26.7504
 -12556113.30547 -10578417.96246  21382384.1804                   21382373.6454
        47.0004         37.0004
  -8711078.25646  -7424461.37843  23578927.9454                   23578918.8754
        38.7504         23.0004
  -7154681.75047  -9567024.34445  22550247.0864                   22550237.2544
        43.7504         33.7504
 -26695958.22848 -20672295.09949  20686498.7194                   20686489.5904
        50.0004         55.2504
 -15393749.24547 -11303498.40345  22952841.7194                   22952831.0664
        43.2504         32.5004
                                  25414008.9694                   25413995.6804
        37.2504         20.2504
  -8605618.03347  -6637698.65146  23697576.8914                   23697564.9494
        42.0004         40.7504
  -4843235.67645  -4111885.15145  24055044.4694                   24055035.2814
        35.5004         31.5004
 -26027900.96048 -21698330.93049  20503301.1334                   20503292.0634
        52.0004         54.7504
 23  1 10  0 26 30.0000000  0 11G08G27G22G24G23G10G21G18G31G01G32
 -11508079.25245  -8938558.91845  24259320.7034                   24259313.7424
        31.5004         30.2504
  -3986311.26545  -2882132.28544  24858753.9924                   24858746.6214
        32.5004         25.5004
 -12609459.63747 -10619986.50646  21372233.2814                   21372221.9264
        47.5004         37.0004
  -8620754.62446  -7354079.30343  23596115.5944                   23596106.0554
        38.0004         23.2504
  -7079550.32247  -9508480.39145  22564544.8594                   22564534.5594
        45.5004         33.0004
 -26671939.27848 -20653579.03049  20691069.3984                   20691060.4454
        50.5004         55.5004
 -15452207.57947 -11349050.33645  22941720.2034                   22941706.9734
        45.2504         32.5004
 -16434742.18455 -12099038.21053  25436282.6254                   25436270.6844
        32.0004         20.2504
  -8723166.65047  -6729294.95646  23675206.8444                   23675196.1334
        42.0004         40.7504
  -4946882.59045  -4192648.96045  24035319.0394                   24035311.9024
        34.7504         30.7504
 -26032122.01148 -21701620.04949  20502497.7734                   20502488.4694
        53.5004         54.7504
 23  1 10  0 27  0.0000000  0 11G08G27G22G24G23G10G21G18G31G01G32
 -11442261.68055  -8887272.58054  24271844.7274                   24271838.1764
        31.7504         29.2504
  -3893298.28445  -2809654.69444  24876455.5004                   24876447.6024
        34.0004         27.0004
 -12662471.00147 -10661294.03146  21362145.0004                   21362134.2894
        46.5004         37.0004
  -8530051.10846  -7283401.26843  23613375.4454                   23613367.5474
        37.5004         23.2504
  -7004200.96247  -9449766.63045  22578883.2274                   22578872.6914
        45.0004         32.7504
 -26647600.93848 -20634614.09949  20695700.5084                   20695691.8484
        50.0004         55.0004
 -15510310.46547 -11394325.31745  22930661.4694                   22930649.8204
        44.2504         32.5004
                                  25458562.570
        26.250
  -8840608.49147  -6820808.06446  23652858.4774                   23652847.6484
        42.0004         40.0004
  -5050296.67645  -4273231.38245  24015641.7504                   24015633.3834
        35.0004         31.7504
 -26035957.42748 -21704608.68049  20501768.1024                   20501758.5634
        51.7504         55.0004
 23  1 10  0 27 30.0000000  0 10G08G27G22G24G23G10G21G31G01G32
                                  24284424.3524                   24284419.1484
        29.2504         30.2504
  -3800262.86245  -2737159.53244  24894159.6174                   24894150.9574
        33.5004         26.5004
 -12715147.02847 -10702340.25446  21352121.3914                   21352110.2704
        47.2504         37.0004
  -8438970.33046  -7212429.22743  23630707.9694                   23630699.0164
        37.5004         22.5004
  -6928633.87647  -9390883.20045  22593263.7114                   22593252.8834
        45.5004         33.0004
 -26622941.94848 -20615399.29549  20700392.8834                   20700384.0474
        49.5004         55.0004
 -15568056.13047 -11439321.92145  22919673.1804                   22919661.0044
        45.0004         33.0004
  -8957940.39347  -6912235.48246  23630531.0634                   23630520.1764
        42.0004         40.5004
  -5153475.11645  -4353630.14344  23996005.3134                   23995998.1764
        34.2504         29.7504
 -26039407.77148 -21707297.25149  20501111.2504                   20501102.0634
        51.7504         54.7504
 23  1 10  0 28  0.0000000  0 11G08G27G22G24G23G10G21G31G01G25G32
 -11309735.68155  -8784005.59355  24297063.5554                   24297056.5944
        31.2504         30.2504
  -3707205.89745  -2664647.61144  24911867.8984                   24911859.2974
        35.0004         27.7504
 -12767485.26547 -10743123.26146  21342161.4064                   21342151.0474
        46.5004         37.2504
  -8347513.22146  -7141163.94543  23648112.5084                   23648102.3834
        38.0004         22.5004
  -6852847.55247  -9331828.94645  22607684.5394                   22607675.2934
        45.5004         33.2504
 -26597960.67648 -20595933.37149  20705146.6094                   20705137.7154
        50.2504         55.0004
 -15625440.77647 -11484037.23645  22908753.9064                   22908741.7304
        45.5004         33.5004
  -9075157.41047  -7003573.39246  23608224.8594                   23608214.4414
        42.5004         40.5004
  -5256413.01345  -4433841.49845  23976417.9614                   23976410.8834
        35.0004         30.5004
                                  25406534.414
        38.000
 -26042471.85248 -21709684.84249  20500528.2424                   20500519.0554
        52.0004         54.7504
 23  1 10  0 28 30.0000000  0 10G08G27G22G24G23G10G21G31G01G32
 -11243032.98345  -8732029.52044  24309756.7974                   24309750.3634
        31.2504         28.5004
  -3614132.98745  -2592123.29844  24929577.3674                   24929571.4024
        32.7504         27.0004
 -12819488.29247 -10783645.07646  21332265.8754                   21332254.6954
        47.0004         37.5004
  -8255685.25746  -7069609.69943  23665586.5394                   23665576.9414
        37.7504         23.5004
  -6776844.97147  -9272606.16645  22622147.6804                   22622136.6764
        45.0004         33.0004
 -26572658.92848 -20576217.73349  20709961.9844                   20709952.7974
        50.0004         55.0004
 -15682465.34347 -11528471.95945  22897901.9614                   22897890.1374
        44.5004         33.2504
  -9192259.14747  -7094821.49246  23585942.3444                   23585930.6954
        42.5004         40.5004
  -5359110.24245  -4513865.29644  23956874.2664                   23956867.6564
        33.0004         29.0004
 -26045152.98148 -21711774.02149  20500017.9774                   20500008.6134
        51.5004         55.0004
 23  1 10  0 29  0.0000000  0 11G08G27G22G24G23G10G21G31G01G25G32
                                  24322503.7814                   24322498.2854
        29.5004         28.2504
  -3521046.33645  -2519588.23144  24947292.3444                   24947283.6844
        34.2504         26.5004
 -12871154.99647 -10823904.81746  21322433.4454                   21322422.9694
        47.0004         37.5004
  -8163488.39746  -6997767.98943  23683130.7114                   23683121.3484
        37.5004         23.0004
  -6700625.75947  -9213214.60145  22636651.8984                   22636641.7154
        44.7504         33.5004
 -26547035.39048 -20556251.33849  20714838.0474                   20714828.7424
        50.5004         54.7504
 -15739127.49947 -11572624.27345  22887119.6334                   22887106.9884
        45.7504         32.7504
  -9309241.77347  -7185976.77646  23563681.2894                   23563669.7584
        42.7504         40.7504
  -5461563.08245  -4593698.68045  23937380.1724                   23937371.1604
        35.2504         30.0004
                                  25374497.7274                   25374489.2424
        35.5004         29.5004
 -26047451.13948 -21713564.79049  20499580.6174                   20499571.4884
        51.5004         55.0004
 23  1 10  0 29 30.0000000  0 10G08G27G22G24G23G10G21G31G01G32
 -11108761.19145  -8627402.27044  24335307.7424                   24335301.0744
        31.0004         28.2504
  -3427947.23645  -2447043.47044  24965008.0554                   24965002.5594
        33.2504         28.0004
 -12922483.20447 -10863900.79346  21312666.4384                   21312655.4924
        46.5004         36.7504
  -8070923.77846  -6925639.73043  23700744.6954                   23700735.9184
        36.7504         22.7504
  -6624188.61647  -9153653.24145  22651198.5314                   22651187.1174
        46.0004         33.0004
 -26521088.33148 -20536032.84349  20719775.2504                   20719766.1804
        50.2504         55.0004
 -15795423.33447 -11616491.17045  22876407.4384                   22876394.7344
        45.5004         33.0004
  -9426100.51947  -7277035.51046  23541443.2114                   23541432.3834
        42.2504         41.0004
  -5563766.99745  -4673338.08944  23917930.4614                   23917922.6804
        34.5004         29.2504
 -26049365.40748 -21715056.42449  20499216.3364                   20499207.2664
        51.5004         54.7504
 23  1 10  0 30  0.0000000  0 12G08G27G22G24G23G10G21G12G31G01G25G32
 -11041198.19354  -8574755.81154  24348162.2894                   24348158.1454
        27.2504         27.7504
  -3334840.71045  -2374492.99744  24982726.2974                   24982718.2814
        34.0004         28.0004
 -12973475.47847 -10903634.99946  21302962.6174                   21302952.2584
        45.7504         37.2504
  -7977996.59746  -6853228.93043  23718429.1414                   23718419.7194
        37.7504         23.0004
  -6547536.21547  -9093924.10245  22665784.4534                   22665774.5044
        45.5004         32.5004
 -26494819.29948 -20515563.47849  20724773.9844                   20724765.2664
        50.0004         55.0004
 -15851353.56747 -11660073.16645  22865762.4614                   22865752.0434
        44.0004         33.2504
   -356657.68215                  25600680.453
        34.750
  -9542834.80047  -7367997.30046  23519229.0634                   23519218.2344
        42.0004         41.5004
  -5665721.38745  -4752783.06345  23898529.8594                   23898521.4344
        35.2504         30.5004
                                  25342504.625
        30.250
 -26050898.71748 -21716251.20149  20498924.8754                   20498915.5124
        53.2504         55.0004
 23  1 10  0 30 30.0000000  0 11G08G27G22G24G23G10G21G12G31G01G32
 -10973355.86255  -8521891.69754  24361077.4064                   24361068.2194
        31.5004         28.2504
  -3241730.38145  -2301939.39444  25000443.7664                   25000436.9804
        32.7504         28.5004
 -13024132.15747 -10943107.70846  21293323.6724                   21293312.3754
        46.5004         37.2504
  -7884710.18046  -6780538.20543  23736179.4144                   23736170.9884
        36.0004         22.0004
  -6470669.53647  -9034028.00245  22680411.5944                   22680401.0004
        44.5004         32.5004
 -26468228.66448 -20494843.51349  20729834.4224                   20729825.1764
        50.2504         55.0004
 -15906916.77647 -11703369.14845  22855190.3754                   22855178.3164
        44.7504         33.2504
   -426365.32045   -311855.76952  25587414.6414                   25587405.5124
        31.5004         17.2504
  -9659441.94246  -7458859.96246  23497038.9304                   23497029.0984
        41.2504         41.5004
  -5767423.97145  -4832031.88145  23879176.4614                   23879167.5664
        34.7504         31.0004
 -26052052.44048 -21717150.19349  20498705.1334                   20498695.5944
        52.5004         54.7504
 23  1 10  0 31  0.0000000  0 11G08G27G22G24G23G10G21G12G31G01G32
 -10905234.82144  -8468810.35644  24374037.3754                   24374031.1174
        29.5004         29.5004
  -3148616.86645  -2229383.51844  25018163.0164                   25018156.7584
        33.0004         27.5004
 -13074450.84247 -10982317.03546  21283747.6334                   21283736.9804
        45.7504         37.0004
  -7791065.11646  -6707568.05043  23753999.9924                   23753991.4494
        36.0004         23.0004
  -6393586.62847  -8973963.43745  22695079.5784                   22695069.1604
        44.5004         32.5004
 -26441313.28148 -20473870.48949  20734956.2034                   20734947.0744
        50.2504         55.0004
 -15962109.20547 -11746376.25445  22844688.1884                   22844675.3094
        44.5004         33.2504
   -495821.80745   -365977.75942  25574196.4064                   25574188.2734
        30.7504         15.5004
  -9775916.64546  -7549619.47646  23474874.4454                   23474864.0274
        41.2504         41.7504
  -5868869.78045  -4911080.52245  23859871.2274                   23859864.2664
        35.2504         31.7504
 -26052825.15248 -21717752.30549  20498558.3054                   20498548.8244
        52.5004         54.7504
 23  1 10  0 31 30.0000000  0 12G08G27G22G24G23G10G21G12G31G01G25G32
 -10836837.95154  -8415514.12254  24387051.3674                   24387046.8134
        26.2504         28.5004
  -3055503.15945  -2156827.30744  25035881.1644                   25035873.5594
        31.5004         27.5004
 -13124431.54547 -11021263.01246  21274237.0554                   21274225.6994
        46.5004         37.0004
  -7697064.49246  -6634320.79543  23771888.4224                   23771878.7664
        36.7504         21.7504
  -6316288.35147  -8913731.05345  22709790.4774                   22709778.7114
        46.0004         32.5004
 -26414073.54248 -20452644.72149  20740139.8284                   20740130.5824
        51.0004         55.2504
 -16016929.09747 -11789093.04245  22834254.9774                   22834243.9734
        43.7504         33.2504
   -565024.45346   -407967.84853  25561031.1644                   25561019.9844
        36.5004         20.7504
  -9892256.15946  -7640273.61247  23452736.5784                   23452726.2194
        41.7504         42.2504
  -5970055.93146  -4989926.90045  23840616.9844                   23840608.0904
        36.0004         31.7504
                                  25294602.7424                   25294599.1254
        36.5004         31.2504
 -26053217.77048 -21718058.22949  20498483.5084                   20498474.0274
        53.7504         54.7504
 23  1 10  0 32  0.0000000  0 11G08G27G22G24G23G10G21G12G31G01G32
 -10768169.42855  -8362006.25554  24400122.4924                   24400113.8324
        32.2504         28.0004
  -2962393.78645  -2084274.62844  25053601.3204                   25053593.8914
        33.5004         27.2504
 -13174075.34847 -11059946.46446  21264789.5634                   21264778.9694
        46.0004         36.5004
  -7602712.66546  -6560799.90743  23789842.6804                   23789833.7854
        37.2504         22.7504
  -6238776.52247  -8853332.23145  22724538.5474                   22724528.5394
        44.0004         31.2504
 -26386510.29048 -20431166.86249  20745384.6414                   20745375.7464
        50.0004         54.7504
 -16071376.55947 -11831519.62245  22823894.7194                   22823882.6024
        44.2504         33.0004
   -633971.54846   -461692.71443  25547911.6484                   25547900.2934
        40.0004         18.5004
 -10008458.88646  -7730821.18947  23430622.9534                   23430612.8874
        41.2504         42.5004
  -6070981.18646  -5068569.96845  23821410.8364                   23821403.1724
        36.5004         32.2504
 -26053232.58648 -21718069.76149  20498480.3984                   20498470.8594
        52.5004         54.7504
 23  1 10  0 32 30.0000000  0 12G08G27G22G24G23G10G21G12G31G01G25G32
 -10699232.51444  -8308289.16844  24413237.4694                   24413231.9734
        29.0004         28.2504
  -2869291.65245  -2011727.45844  25071318.4534                   25071309.2074
        32.5004         25.2504
 -13223382.22647 -11098367.37746  21255406.9694                   21255396.1994
        46.5004         37.2504
  -7508012.49846  -6487007.54943  23807862.3914                   23807855.1374
        36.2504         21.7504
  -6161051.58847  -8792767.38945  22739330.3204                   22739319.7274
        45.2504         32.2504
 -26358623.12748 -20409436.61149  20750691.4454                   20750682.4924
        50.0004         54.7504
 -16125450.06047 -11873654.82745  22813605.4614                   22813592.8164
        45.5004         33.5004
   -702660.25545   -515216.39242  25534836.0784                   25534828.8834
        33.0004         17.2504
 -10124522.02846  -7821259.97147  23408537.3674                   23408527.0664
        41.7504         43.0004
  -6171642.67246  -5147007.47845  23802255.8364                   23802248.4654
        36.0004         32.7504
   -275214.61714                  25262733.117
        27.500
 -26052870.41848 -21717787.54649  20498549.3284                   20498540.2584
        52.0004         55.0004
 23  1 10  0 33  0.0000000  0 11G27G22G24G23G10G21G12G31G01G25G32
 -10653297.33655  -8077186.43254  25089032.8674                   25089024.3244
        31.5004         26.2504
 -13272349.91947 -11136523.99646  21246088.2814                   21246077.7464
        47.0004         37.0004
  -7412964.61845  -6412944.29543  23825949.4454                   23825942.2504
        35.7504         22.2504
  -6083111.71947  -8732035.04145  22754161.3984                   22754150.9224
        44.0004         32.2504
 -26330409.50348 -20387451.96949  20756060.6254                   20756051.3794
        50.2504         55.5004
 -16179145.08747 -11915495.11645  22803385.9844                   22803375.1564
        43.2504         33.5004
   -771085.03646   -568534.42342  25521818.4774                   25521808.5274
        38.0004         17.2504
 -10240440.17647  -7911585.75347  23386479.8364                   23386468.6564
        42.7504         42.7504
  -6272035.25046  -5225235.46945  23783153.1414                   23783143.8364
        37.5004         34.2504
   -358832.74955   -417538.14755  25246824.9064                   25246819.1174
        35.5004         31.7504
 -26052129.81548 -21717210.44349  20498690.4614                   20498681.0984
        52.5004         55.0004
 23  1 10  0 33 30.0000000  0 12G08G27G22G24G23G10G21G12G31G01G25G32
 -10560561.22455  -8200233.74754  24439628.0864                   24439620.7154
        30.2504         29.0004
 -10560217.06045  -8004656.35744  25106746.0004                   25106737.9264
        33.2504         27.0004
 -13320981.47647 -11174418.68746  21236834.3914                   21236823.8554
        46.7504         37.0004
  -7317575.16245  -6338614.82143  23844102.4454                   23844093.9024
        35.5004         21.7504
  -6004960.69147  -8671138.17245  22769033.1804                   22769022.4694
        44.2504         32.2504
 -26301872.37548 -20365215.25149  20761490.8984                   20761481.7114
        50.5004         55.0004
 -16232463.53347 -11957041.93845  22793240.2974                   22793229.0004
        44.5004         33.2504
   -839246.23545   -621646.95742  25508845.0084                   25508837.8714
        33.2504         17.2504
 -10356213.46546  -8001798.69647  23364447.7974                   23364437.7894
        41.5004         43.2504
  -6372159.34146  -5303254.23745  23764099.5164                   23764091.5594
        37.5004         34.0004
                                  25230928.0164                   25230916.6024
        38.5004         23.2504
 -26051014.88548 -21716341.66249  20498902.3754                   20498893.2464
        52.5004         54.7504
 23  1 10  0 34  0.0000000  0 12G08G27G22G24G23G10G21G12G31G01G25G32
 -10490832.13054  -8145899.40954  24452895.3284                   24452889.1294
        29.5004         29.7504
 -10467150.03045  -7932136.57344  25124454.5474                   25124447.6454
        31.7504         26.0004
 -13369273.26847 -11212048.62646  21227644.6414                   21227633.9304
        46.2504         37.2504
  -7221843.45946  -6264018.70843  23862320.5084                   23862311.4384
        37.2504         22.7504
  -5926595.39047  -8610074.32545  22783945.8364                   22783934.7154
        44.2504         31.2504
 -26273007.88148 -20342723.43749  20766983.7894                   20766974.5434
        50.7504         55.5004
 -16285400.23047 -11998291.31445  22783167.4224                   22783155.3054
        45.5004         33.5004
   -907137.29146   -674549.05243  25495927.7894                   25495918.3094
        36.2504         20.0004
 -10471835.40746  -8091893.69347  23342445.3754                   23342435.2504
        41.5004         43.0004
  -6472008.61246  -5381058.84745  23745097.8754                   23745090.6804
        36.5004         33.5004
   -525823.08556   -519226.94855  25215046.8594                   25215036.5594
        36.5004         30.0004
 -26049522.91348 -21715179.08749  20499186.4064                   20499176.9844
        52.2504         55.0004
 23  1 10  0 34 30.0000000  0 12G08G27G22G24G23G10G21G12G31G01G25G32
 -10420846.45355  -8091365.18054  24466214.2584                   24466207.5314
        30.2504         29.2504
                                  25142160.3284                   25142153.3674
        31.7504         26.5004
 -13417228.33747 -11249416.17546  21218519.4924                   21218508.3714
        47.0004         36.7504
  -7125775.42846  -6189160.45943  23880601.0164                   23880591.9454
        36.7504         22.2504
  -5848019.24847  -8548846.19745  22798898.5554                   22798887.5514
        44.0004         31.2504
 -26243818.41348 -20319978.40849  20772538.3914                   20772529.0864
        51.2504         55.5004
 -16337956.40647 -12039244.17045  22773165.2894                   22773154.0514
        43.5004         33.0004
   -974757.66946   -727240.26342  25483060.7114                   25483049.6484
        36.0004         17.7504
 -10587305.90347  -8181870.63847  23320473.0784                   23320462.1914
        42.7504         43.5004
  -6571583.12446  -5458649.37045  23726151.0634                   23726142.0514
        38.7504         35.0004
   -609191.25955   -584189.08654  25199179.5944                   25199172.0474
        35.0004         27.0004
 -26047657.68548 -21713725.65749  20499541.4384                   20499531.8404
        53.0004         54.7504
 23  1 10  0 35  0.0000000  0 12G08G27G22G24G23G10G21G12G31G01G25G32
 -10350605.47045  -8036631.97244  24479580.4534                   24479574.4304
        30.5004         29.5004
 -10281077.08355  -7787145.05754  25159864.4144                   25159856.2814
        31.7504         25.0004
 -13464844.72047 -11286519.82246  21209457.5554                   21209446.9614
        46.0004         36.5004
  -7029372.06646  -6114040.98843  23898946.3284                   23898937.6094
        36.5004         23.7504
  -5769230.90447  -8487452.71845  22813891.4224                   22813880.3594
        43.7504         30.7504
 -26214301.87248 -20296978.50249  20778155.2894                   20778145.7504
        50.5004         54.7504
 -16390128.20547 -12079897.49945  22763238.2974                   22763225.8874
        44.5004         33.2504
  -1042103.04946   -779717.09742  25470246.2734                   25470234.6254
        38.5004         17.2504
 -10702620.23247  -8271725.93747  23298529.0084                   23298518.1804
        42.0004         43.5004
  -6670878.18146  -5536022.13345  23707253.2504                   23707246.8164
        37.0004         34.5004
   -692468.82644   -649080.82644  25183329.6724                   25183324.4694
        28.7504         24.5004
 -26045418.21848 -21711980.61849  20499967.5704                   20499958.0314
        53.0004         54.7504
 23  1 10  0 35 30.0000000  0 12G08G27G22G24G23G10G21G12G31G01G25G32
 -10280113.42145  -7981703.13844  24492994.7344                   24492988.0664
        30.5004         29.7504
                                  25177562.5234                   25177553.8054
        32.5004         27.5004
 -13512123.75147 -11323360.58546  21200461.2344                   21200450.4654
        46.0004         36.7504
  -6932637.75645  -6038663.60143  23917353.5864                   23917345.0434
        35.7504         21.0004
  -5690232.31147  -8425895.39745  22828923.1024                   22828913.2704
        43.5004         31.0004
 -26184459.45448 -20273724.66849  20783833.7814                   20783824.5944
        50.5004         54.7504
 -16441916.31747 -12120251.88245  22753383.2584                   22753371.4344
        45.2504         33.7504
  -1109171.68045   -831978.38243  25457480.4844                   25457471.3554
        35.2504         18.2504
 -10817776.79647  -8361458.28047  23276616.0314                   23276604.7344
        42.5004         43.5004
  -6769892.38746  -5613176.05145  23688413.9454                   23688404.9344
        37.7504         35.0004
   -775653.77645   -713900.15844  25167502.4454                   25167496.0124
        32.2504         29.5004
 -26042806.85648 -21709945.78149  20500464.4304                   20500455.1844
        53.7504         54.7504
 23  1 10  0 36  0.0000000  0 12G08G27G22G24G23G10G21G12G31G01G25G32
 -10209371.47645  -7926579.57445  24506456.9304                   24506449.7934
        31.5004         30.0004
                                  25195252.2814                   25195246.0234
        28.7504         24.5004
 -13559064.05147 -11359937.42846  21191528.1644                   21191517.9224
        45.7504         37.0004
  -6835574.23746  -5963029.68943  23935823.9064                   23935814.8954
        36.5004         21.5004
  -5611022.80647  -8364173.72345  22843996.6724                   22843986.4304
        44.0004         30.0004
 -26154289.50248 -20250215.62949  20789574.9844                   20789565.9734
        51.5004         55.0004
 -16493317.01047 -12160304.36045  22743601.5784                   22743590.1054
        44.5004         33.2504
  -1175959.26646   -884020.58043  25444774.2974                   25444762.9414
        38.2504         19.5004
 -10932771.13646  -8451064.22647  23254732.0394                   23254721.9734
        41.5004         43.2504
  -6868621.77946  -5690107.98945  23669625.3524                   23669616.9844
        37.5004         34.0004
   -858742.02645   -778644.19244  25151691.7894                   25151684.1844
        34.5004         27.5004
 -26039823.25548 -21707620.89549  20501032.3134                   20501022.7734
        53.7504         54.7504
 23  1 10  0 36 30.0000000  0 12G08G27G22G24G23G10G21G12G31G01G25G32
 -10138384.59945  -7871265.18145  24519964.4144                   24519958.1564
        32.0004         30.5004
 -10002151.54555  -7569800.46054  25212942.7344                   25212934.9534
        32.7504         27.5004
 -13605666.83747 -11396251.26546  21182660.5164                   21182649.5124
        46.0004         37.5004
  -6738185.43146  -5887142.29543  23954357.6254                   23954347.9694
        36.5004         22.0004
  -5531603.89347  -8302288.89845  22859110.4384                   22859099.5514
        43.5004         31.2504
 -26123793.07648 -20226452.17849  20795378.2584                   20795368.9534
        51.0004         54.7504
 -16544330.27147 -12200054.94245  22733894.7114                   22733882.0664
        44.5004         33.2504
  -1242464.24946   -935842.63042  25432116.6414                   25432107.2774
        36.2504         17.7504
 -11047601.59947  -8540542.47247  23232881.8444                   23232870.4884
        42.7504         43.5004
  -6967064.46946  -5766816.59445  23650891.8054                   23650884.2584
        37.0004         34.5004
   -941731.43745   -843311.28944  25135897.3204                   25135891.4734
        31.0004         24.2504
 -26036469.33548 -21705007.44449  20501670.3204                   20501661.0164
        53.0004         55.0004
 23  1 10  0 37  0.0000000  0 12G08G27G22G24G23G10G21G12G31G01G25G32
 -10067154.06455  -7815760.94154  24533517.0784                   24533512.5234
        30.2504         29.0004
  -9909236.99155  -7497399.46954  25230622.6484                   25230615.1024
        32.0004         24.5004
 -13651930.62647 -11432300.94446  21173856.6094                   21173845.5474
        45.5004         37.0004
  -6640472.65945  -5811002.45343  23972951.2034                   23972941.0784
        35.7504         21.5004
  -5451974.47447  -8240240.02845  22874262.1094                   22874252.5704
        42.0004         30.2504
 -26092967.93348 -20202432.58449  20801244.0084                   20801234.8794
        50.7504         54.7504
 -16594953.63547 -12239501.71745  22724261.3754                   22724249.1994
        45.0004         34.2504
  -1308681.64445   -987440.55442  25419514.4384                   25419506.8914
        33.7504         17.7504
 -11162263.56747  -8629889.41047  23211061.9924                   23211051.3984
        42.5004         43.5004
  -7065216.08846  -5843298.35345  23632214.0004                   23632206.6884
        36.2504         33.5004
  -1024617.26445   -907897.62344  25120124.5784                   25120118.9654
        31.0004         28.0004
 -26032744.38248 -21702104.87849  20502379.1564                   20502369.8524
        53.0004         54.7504
 23  1 10  0 37 30.0000000  0 12G08G27G22G24G23G10G21G12G31G01G25G32
  -9995684.12745  -7760070.06645  24547119.7274                   24547113.1174
        31.7504         31.0004
    -40977.76555  -7442207.79554  25248297.7274                   25248288.0124
        32.2504         25.0004
 -13697857.14947 -11468087.81146  21165116.7114                   21165106.0594
        45.7504         37.0004
  -6542440.83345  -5734614.05743  23991605.5234                   23991596.2194
        35.2504         20.5004
  -5372137.10347  -8178029.11245  22889455.0704                   22889445.1214
        43.5004         30.5004
 -26061815.74548 -20178158.15549  20807172.1174                   20807162.8714
        50.5004         54.7504
 -16645186.06847 -12278643.86445  22714702.2274                   22714690.5204
        44.5004         34.0004
  -1374610.64946  -1038813.66243  25406972.4694                   25406961.2304
        37.7504         18.5004
 -11276755.89647  -8719104.18947  23189274.9384                   23189263.6994
        42.2504         43.5004
  -7163075.78246  -5919552.64845  23613593.1724                   23613584.3364
        37.2504         34.5004
  -1107398.22945   -972402.23844  25104372.8204                   25104366.0944
        32.2504         26.0004
 -26028651.30948 -21698915.47349  20503158.3054                   20503148.7664
        52.7504         54.7504
 23  1 10  0 38  0.0000000  0 12G08G27G22G24G23G10G21G12G31G01G25G32
  -9923975.32245  -7704193.11145  24560766.7974                   24560759.4264
        33.5004         31.0004
     51863.69655  -7369863.79954  25265965.4454                   25265956.6094
        32.7504         26.0004
 -13743443.86747 -11503609.91846  21156442.7034                   21156431.2894
        46.7504         37.0004
  -6444090.47945  -5657977.40943  24010320.2034                   24010312.1884
        35.0004         20.2504
  -5292089.82147  -8115654.63544  22904689.2504                   22904677.3094
        44.7504         29.7504
 -26030334.00848 -20153626.93949  20813162.8054                   20813153.7934
        51.5004         55.0004
 -16695024.18647 -12317478.74845  22705218.0004                   22705206.4104
        45.5004         34.5004
  -1440245.25146  -1089957.59243  25394482.0704                   25394471.0664
        38.5004         18.5004
 -11391072.91247  -8808182.34547  23167520.5944                   23167509.7664
        42.0004         43.7504
  -7260638.31846  -5995575.37445  23595026.6804                   23595019.3674
        36.7504         34.2504
  -1190068.76745  -1036820.88744  25088641.6804                   25088634.4264
        31.7504         26.7504
 -26024188.52548 -21695437.98449  20504007.3204                   20503998.2504
        53.2504         54.7504
 23  1 10  0 38 30.0000000  0 12G08G27G22G24G23G10G21G12G31G01G25G32
  -9852032.81045  -7648134.04745  24574456.9454                   24574448.8714
        33.7504         31.5004
                                  25283623.5164                   25283614.5634
        33.0004         23.0004
 -13788692.26147 -11538868.38246  21147831.2114                   21147820.5594
        46.0004         37.2504
  -6345425.98745  -5581095.96243  24029095.0084                   24029087.1684
        34.2504         19.7504
  -5211834.65547  -8053118.18345  22919960.6334                   22919949.5124
        43.2504         30.5004
 -25998523.87348 -20128839.81749  20819216.1094                   20819206.8634
        50.7504         55.0004
 -16744467.71547 -12356006.16345  22695809.8444                   22695797.3164
        45.5004         33.7504
  -1505584.34946  -1140871.17942  25382046.2194                   25382036.7974
        36.2504         17.2504
 -11505213.37247  -8897122.92347  23145800.8524                   23145789.6134
        43.0004         43.7504
  -7357902.23346  -6071365.43845  23576519.2194                   23576510.0314
        38.5004         34.2504
  -1272627.10145  -1101151.99044  25072932.5234                   25072924.4494
        33.0004         26.2504
 -26019358.52148 -21691674.34849  20504926.1954                   20504917.1844
        53.7504         54.7504
 23  1 10  0 39  0.0000000  0 12G08G27G22G24G23G10G21G12G31G01G25G32
  -9779859.94145  -7591895.45045  24588189.8674                   24588183.0824
        33.7504         31.0004
    237419.57555  -7225274.73653  25301273.2584                   25301266.5904
        30.5004         23.7504
 -13833603.23847 -11573863.93446  21139285.6414                   21139275.1644
        46.5004         37.5004
  -6246450.78745  -5503972.46243  24047930.0314                   24047921.9574
        34.2504         21.5004
  -5131372.67547  -7990420.57345  22935271.6644                   22935261.1884
        43.7504         30.2504
 -25966385.66648 -20103797.06949  20825331.7344                   20825322.7234
        50.7504         54.7504
 -16793515.75047 -12394225.41745  22686476.4224                   22686463.9534
        46.0004         34.7504
  -1570625.26545  -1191552.38643  25369669.2344                   25369659.4024
        34.2504         18.2504
 -11619174.68647  -8985923.90647  23124114.3204                   23124103.6684
        43.0004         44.0004
  -7454865.33446  -6146921.07445  23558066.5164                   23558058.5004
        38.0004         35.0004
  -1355070.68045  -1165393.74744  25057242.9224                   25057235.0234
        32.5004         27.0004
 -26014162.63248 -21687625.59749  20505915.0084                   20505905.9384
        52.7504         55.0004
 23  1 10  0 39 30.0000000  0 12G08G27G22G24G23G10G21G12G31G01G25G32
  -9707458.33645  -7535478.63345  24601966.4384                   24601960.7074
        32.7504         30.0004
                                  25318918.2974                   25318909.9304
        33.0004         28.7504
 -13878175.97747 -11608595.91446  21130803.6724                   21130791.9654
        46.0004         37.5004
  -6147167.04345  -5426608.53843  24066823.4224                   24066815.2894
        35.0004         21.2504
  -5050703.70247  -7927561.63745  22950622.1884                   22950612.0634
        43.5004         30.5004
 -25933918.15748 -20078497.71449  20831510.2114                   20831501.2584
        50.7504         55.0004
 -16842166.07747 -12432134.75245  22677217.8984                   22677206.1914
        44.5004         34.2504
  -1635364.82946  -1241998.75242  25357351.3834                   25357340.6134
        37.0004         17.7504
 -11732953.21047  -9074582.46647  23102462.5314                   23102452.1134
        42.7504         44.0004
  -7551523.96946  -6222239.49345  23539674.0864                   23539665.3094
        38.5004         35.5004
  -1437395.45645  -1229542.86144  25041576.2344                   25041569.6254
        32.5004         29.2504
 -26008601.09948 -21683291.93449  20506973.4454                   20506964.4344
        53.2504         54.7504
 23  1 10  0 40  0.0000000  0 12G08G27G22G24G23G10G21G12G31G01G25G32
  -9634830.61445  -7478885.64145  24615788.8054                   24615781.9024
        33.5004         30.7504
                                  25336550.3364                   25336539.2734
        35.2504         22.7504
 -13922409.52347 -11643063.59146  21122385.3524                   21122375.6374
        46.2504         37.5004
  -6047576.82645  -5349005.67943  24085774.5314                   24085765.7544
        34.2504         20.2504
  -4969827.16247  -7864540.99944  22966012.7974                   22966001.7344
        44.0004         28.5004
 -25901120.09748 -20052940.78649  20837751.3364                   20837742.3244
        51.0004         55.0004
 -16890416.57947 -12469732.53345  22668036.7814                   22668024.8404
        46.5004         34.5004
  -1699798.98646  -1292207.16142  25345089.7894                   25345079.1954
        37.2504         17.7504
 -11846544.85847  -9163095.39447  23080847.1334                   23080836.7734
        43.2504         44.5004
  -7647874.37346  -6297317.69945  23521337.3524                   23521330.3914
        36.7504         35.2504
  -1519597.18245  -1293596.19644  25025935.0704                   25025926.9384
        33.0004         26.7504
 -26002673.77248 -21678673.23749  20508101.3204                   20508092.2504
        53.5004         54.7504
 23  1 10  0 40 30.0000000  0 12G08G27G22G24G23G10G21G12G31G01G25G32
  -9561982.39045  -7422120.84345  24629652.5784                   24629644.3874
        35.0004         32.0004
    143408.34254  -7061681.05554  25354169.8444                   25354163.2934
        28.5004         24.5004
 -13966306.91747 -11677269.33646  21114032.8984                   21114022.0124
        46.5004         37.2504
  -5947685.76445  -5271168.51343  24104784.0234                   24104774.9534
        35.0004         19.2504
  -4888746.61847  -7801361.39544  22981442.4224                   22981431.4184
        43.5004         29.7504
 -25867994.38748 -20027128.55249  20844054.9774                   20844045.8484
        50.7504         54.7504
 -16938267.75247 -12507019.16445  22658930.7584                   22658918.4654
        46.0004         34.5004
  -1763927.31045  -1342177.33542  25332884.8834                   25332875.4024
        34.2504         17.7504
 -11959949.87647  -9251462.90747  23059266.1484                   23059256.3754
        43.5004         44.5004
  -7743916.54646  -6372155.75546  23503063.3914                   23503054.0864
        39.2504         36.5004
  -1601675.78944  -1357553.48344  25010312.6174                   25010308.3554
        29.5004         26.2504
 -25996384.61648 -21673772.58949  20509298.0864                   20509289.1914
        53.5004         54.7504
 23  1 10  0 41  0.0000000  0 12G08G27G22G24G23G10G21G12G31G01G25G32
  -9488912.07145  -7365183.01645  24643553.8594                   24643548.7194
        32.2504         30.2504
                                  25371782.6644                   25371775.0594
        30.7504         24.5004
 -14009862.98447 -11711209.10046  21105744.6174                   21105733.6134
        46.2504         37.5004
  -5847492.29345  -5193095.63443  24123850.1884                   24123841.0594
        34.2504         21.5004
  -4807457.92247  -7738019.58145  22996909.7734                   22996900.3524
        43.0004         30.0004
 -25834535.69948 -20001056.85549  20850422.1804                   20850412.9924
        51.0004         54.7504
 -16985713.74447 -12543990.05545  22649901.2664                   22649890.0864
        44.5004         34.5004
  -1827742.37445  -1391903.28843  25320740.8984                   25320732.8244
        35.2504         19.0004
 -12073160.38147  -9339678.83947  23037723.4844                   23037712.6564
        42.5004         44.5004
  -7839643.02146  -6446747.77845  23484845.4384                   23484838.3594
        37.5004         35.5004
  -1683623.22645  -1421408.58344  24994722.6804                   24994714.2544
        34.0004         29.0004
 -25989729.78648 -21668586.99949  20510564.5704                   20510555.3834
        53.0004         55.0004
 23  1 10  0 41 30.0000000  0 12G08G27G22G24G23G10G21G12G31G01G25G32
  -9415627.35845  -7308078.10745  24657503.2894                   24657494.3364
        35.0004         31.5004
    328462.51555  -6929406.74754  25389385.7344                   25389376.6644
        32.5004         25.5004
 -14053082.71947 -11744886.79346  21097519.8284                   21097508.9414
        45.5004         37.5004
  -5747003.52745  -5114792.72043  24142972.0004                   24142962.7544
        33.5004         20.2504
  -4725965.94647  -7674519.37345  23012418.6484                   23012407.6454
        43.5004         30.5004
 -25800748.52748 -19974729.18949  20856851.5554                   20856842.3674
        51.0004         54.7504
 -17032757.84947 -12580647.80245  22640950.0474                   22640937.7544
        44.7504         34.5004
  -1891245.45846  -1441386.16343  25308659.2734                   25308648.7974
        37.0004         19.7504
 -12186177.29247  -9427743.92047  23016217.3364                   23016206.2734
        43.5004         44.5004
  -7935055.25146  -6521094.94946  23466690.1644                   23466681.5634
        40.2504         36.5004
  -1765440.69845  -1485162.43844  24979151.3444                   24979144.0904
        32.2504         27.2504
 -25982714.61748 -21663120.62749  20511899.2814                   20511890.6214
        53.5004         55.0004
 23  1 10  0 42  0.0000000  0 12G08G27G22G24G23G10G21G12G31G01G25G32
  -9342129.13545  -7250806.74745  24671488.1174                   24671480.8054
        34.0004         31.5004
    420896.02854  -6857380.49753  25406971.6414                   25406967.3794
        26.2504         22.7504
 -14095964.30947 -11778301.00046  21089359.8284                   21089348.8244
        46.2504         37.5004
  -5646220.99345  -5036260.82943  24162149.0164                   24162141.7034
        31.5004         19.7504
  -4644269.66047  -7610859.97744  23027963.8054                   23027953.6214
        42.5004         28.7504
 -25766630.65948 -19948143.84349  20863343.8054                   20863334.7344
        50.7504         55.0004
 -17079396.56347 -12616989.66545  22632075.0634                   22632062.7114
        45.7504         35.2504
  -1954431.94745  -1490622.36643  25296634.4774                   25296624.6454
        35.0004         18.2504
 -12298996.40547  -9515654.87447  22994747.3204                   22994737.6644
        43.0004         45.0004
  -8030148.85446  -6595193.86246  23448593.9064                   23448586.1844
        39.2504         36.5004
  -1847123.42755  -1548811.23354  24963608.0084                   24963600.8134
        32.2504         26.2504
 -25975338.46648 -21657372.98049  20513302.9614                   20513293.8914
        53.7504         54.7504
 23  1 10  0 42 30.0000000  0 12G08G27G22G24G23G10G21G12G31G01G25G32
  -9268419.08845  -7193370.40045  24685514.8984                   24685507.0004
        33.7504         30.7504
    513267.27355  -6785402.91354  25424551.8444                   25424544.2384
        30.5004         25.5004
 -14138506.63347 -11811450.85346  21081264.2734                   21081253.2114
        45.0004         38.0004
  -5545146.06845  -4957501.21643  24181384.5864                   24181376.0434
        34.2504         19.2504
  -4562368.35347  -7547040.80045  23043549.2734                   23043539.2664
        43.5004         30.0004
 -25732180.80148 -19921299.81049  20869899.5004                   20869890.3134
        51.2504         54.7504
 -17125627.00747 -12653013.38445  22623276.6174                   22623265.3794
        44.2504         34.2504
  -2017297.77246  -1539608.69743  25284671.7034                   25284660.5234
        36.5004         18.5004
 -12411613.24047  -9603408.21647  22973318.3054                   22973307.4184
        43.5004         45.5004
  -8124919.72646  -6669041.26346  23430560.0784                   23430551.4774
        39.5004         37.5004
  -1928669.83555  -1612353.55554  24948090.8674                   24948082.7934
        33.2504         25.7504
 -25967600.92748 -21651343.72949  20514775.2504                   20514766.4144
        53.2504         55.0004
 23  1 10  0 43  0.0000000  0 11G08G22G24G23G10G21G12G31G01G25G32
  -9194502.32746  -7135772.90745  24699582.0234                   24699572.8954
        36.2504         31.7504
 -14180711.61147 -11844337.83046  21073232.5704                   21073222.0944
        46.5004         38.2504
  -5443783.68145  -4878517.49643  24200672.8754                   24200664.2734
        33.5004         19.2504
  -4480264.36547  -7483063.70444  23059174.4224                   23059163.2424
        44.5004         29.7504
 -25697400.43048 -19894198.22149  20876517.8754                   20876508.9224
        50.7504         55.0004
 -17171449.87847 -12688719.50845  22614557.1724                   22614545.2304
        45.0004         34.5004
  -2079842.00146  -1588344.43542  25272770.2274                   25272757.8754
        36.0004         17.7504
 -12524026.70247  -9691003.07347  22951926.5864                   22951915.4654
        43.5004         45.2504
  -8219366.74146  -6742636.33246  23412586.1724                   23412578.8014
        38.7504         36.5004
                                  24932601.5164                   24932592.9734
        33.0004         28.5004
 -25959504.83248 -21645035.08649  20516315.8284                   20516306.9924
        53.2504         55.0004
 23  1 10  0 43 30.0000000  0 12G08G27G22G24G23G10G21G12G31G01G25G32
  -9120379.35045  -7078014.77145  24713686.5394                   24713678.9924
        35.2504         31.5004
                                  25459671.3054                   25459661.6484
        33.0004         28.0004
 -14222577.71247 -11876960.75746  21065265.9774                   21065254.9734
        46.5004         38.5004
  -5342135.18945  -4799310.87843  24220017.8444                   24220007.8954
        35.5004         19.5004
  -4397956.66847  -7418927.87444  23074835.7194                   23074825.9454
        43.0004         29.5004
 -25662287.57648 -19866837.56249  20883199.8754                   20883190.5124
        51.0004         54.7504
 -17216861.67347 -12724105.32145  22605916.7034                   22605904.0004
        45.5004         34.7504
  -2142059.84845  -1636825.85642  25260929.2274                   25260918.8674
        34.7504         17.2504
 -12636232.12647  -9778435.82947  22930575.1484                   22930563.7344
        44.0004         45.5004
  -8313485.55146  -6815975.62046  23394677.2584                   23394669.0084
        39.0004         37.0004
  -2091329.75055  -1739101.46154  24917137.4614                   24917131.0274
        33.0004         27.5004
 -25951049.48148 -21638446.49149  20517924.9064                   20517915.9534
        52.5004         54.7504
 23  1 10  0 44  0.0000000  0 12G08G27G22G24G23G10G21G12G31G01G25G32
  -9046058.03745  -7020102.16245  24727828.6254                   24727821.4884
        34.0004         31.7504
    789968.38555  -6581268.82554  25477207.0394                   25477197.5004
        32.5004         26.0004
 -14264109.32947 -11909323.02846  21057362.6804                   21057352.1454
        46.5004         38.5004
  -5240207.50745  -4719886.66843  24239412.4454                   24239403.6684
        33.5004         19.7504
  -4315450.00247  -7354637.00244  23090536.8284                   23090526.0004
        43.2504         29.7504
 -25626846.31748 -19839221.00349  20889944.1484                   20889934.7854
        51.0004         54.7504
 -17261865.22647 -12759173.04145  22597352.4924                   22597340.1414
        45.0004         34.5004
  -2203952.59945  -1685053.93943  25249150.9534                   25249140.7114
        35.7504         18.5004
 -12748230.59047  -9865707.31247  22909262.1334                   22909251.3634
        43.5004         45.5004
  -8407277.41246  -6889060.16746  23376828.0784                   23376820.3554
        37.5004         36.0004
  -2172442.41555  -1802306.14454  24901701.8674                   24901694.9654
        32.7504         26.2504
 -25942240.02248 -21631581.97249  20519601.2814                   20519592.1524
        53.2504         55.0004
 23  1 10  0 44 30.0000000  0 12G08G27G22G24G23G10G21G12G31G01G25G32
  -8971534.31045  -6962031.76945  24742009.9224                   24742002.3754
        34.2504         31.5004
    882059.04455  -6509509.72854  25494732.6484                   25494724.0474
        31.0004         24.0004
 -14305298.96147 -11941418.83546  21049524.8204                   21049513.5234
        46.5004         38.7504
  -5137996.40745  -4640241.68043  24258862.2034                   24258853.4264
        34.0004         18.5004
  -4232737.73147  -7290185.91944  23106276.9224                   23106265.8014
        44.0004         29.7504
 -25591069.24648 -19811342.76749  20896752.4844                   20896742.8874
        52.2504         54.7504
 -17306452.21847 -12793916.15545  22588866.6094                   22588855.7234
        45.2504         34.5004
  -2265510.12446  -1733020.74443  25237438.8754                   25237427.5204
        36.7504         19.2504
 -12860012.00047  -9952809.67047  22887990.7274                   22887979.8404
        43.5004         45.5004
  -8500732.32446  -6961882.15146  23359045.1334                   23359037.0004
        38.7504         36.2504
  -2253400.08555  -1865390.04554  24886295.4534                   24886290.0164
        31.0004         28.2504
 -25933070.18748 -21624436.64349  20521346.4304                   20521337.3014
        53.0004         54.7504
 23  1 10  0 45  0.0000000  0 12G08G27G22G24G23G10G21G12G31G01G25G32
  -8896813.91845  -6903808.10645  24756228.7814                   24756222.0554
        35.2504         32.0004
                                  25512240.9534                   25512232.9964
        31.7504         24.7504
 -14346150.21947 -11973250.97046  21041750.7034                   21041740.3444
        46.5004         39.0004
  -5035508.04445  -4560380.60043  24278365.4774                   24278356.6994
        33.0004         20.0004
  -4149823.61246  -7225577.55244  23122053.1484                   23122044.0204
        41.7504         28.7504
 -25554959.29148 -19783205.13849  20903623.6564                   20903614.4104
        52.0004         55.0004
 -17350624.15047 -12828335.83745  22580461.7664                   22580450.4104
        46.0004         34.5004
  -2326732.83945  -1780726.68343  25225787.4534                   25225777.0944
        35.0004         19.2504
 -12971576.33447 -10039742.86547  22866760.2034                   22866749.5514
        43.5004         45.5004
  -8593850.62246  -7034441.84746  23341324.4844                   23341317.2304
        37.0004         36.0004
  -2334202.78555  -1928353.20554  24870920.3364                   24870913.5514
        32.0004         27.5004
 -25923544.17748 -21617013.77649  20523159.1414                   20523150.3054
        53.2504         54.7504
 23  1 10  0 45 30.0000000  0 12G08G27G22G24G23G10G21G12G31G01G25G32
  -8821903.58045  -6845436.44445  24770485.4064                   24770476.9804
        35.2504         32.0004
   1066006.78055  -6376447.33054  25529735.8284                   25529725.4694
        32.0004         27.5004
 -14386667.16247 -12004822.59146  21034040.8054                   21034029.9774
        47.5004         38.7504
  -4932748.89545  -4480308.57443  24297920.5704                   24297911.7934
        34.2504         19.2504
  -4066711.81947  -7160815.14244  23137870.7034                   23137859.5234
        43.2504         29.7504
 -25518519.83048 -19754810.76749  20910557.8364                   20910548.9414
        51.5004         55.0004
 -17394383.53847 -12862434.07445  22572134.5554                   22572123.3164
        47.0004         34.7504
  -2387621.29945  -1828172.17343  25214200.2664                   25214190.9614
        35.0004         18.2504
 -13082924.50747 -10126507.64247  22845571.8834                   22845560.7624
        44.0004         45.5004
  -8686633.11146  -7106739.85345  23323669.3134                   23323660.9454
        38.7504         35.5004
  -2414850.74645  -1991195.74144  24855573.2504                   24855567.5204
        32.7504         29.0004
 -25913666.53549 -21609316.90249  20525038.7664                   20525029.5204
        54.0004         55.0004
 23  1 10  0 46  0.0000000  0 12G08G27G22G24G23G10G21G12G31G01G25G32
  -8746802.71546  -6786916.31145  24784777.4224                   24784768.2344
        37.0004         31.2504
   1157855.36655  -6304877.24354  25547213.3984                   25547204.9734
        32.7504         24.0004
 -14426845.79047 -12036130.59946  21026395.3834                   21026384.3794
        46.5004         39.0004
  -4829718.03645  -4400024.74143  24317526.3204                   24317516.3134
        34.0004         19.0004
  -3983399.07947  -7095896.18744  23153724.7194                   23153714.3014
        42.7504         29.0004
 -25481746.65648 -19726156.35849  20917555.5164                   20917546.4454
        52.5004         54.7504
 -17437724.88047 -12896206.55945  22563887.0394                   22563875.2734
        45.7504         34.5004
  -2448168.57745  -1875351.84443  25202677.8984                   25202668.1844
        34.7504         19.0004
 -13194049.47447 -10213098.47247  22824425.0084                   22824414.4734
        43.7504         45.5004
  -8779073.08546  -7178771.00045  23306078.0944                   23306070.0204
        36.7504         35.5004
  -2495337.05145  -2053912.33944  24840257.2664                   24840251.0084
        32.7504         29.2504
 -25903434.39648 -21601343.79549  20526985.5394                   20526976.8204
        53.5004         55.0004
 23  1 10  0 46 30.0000000  0 12G08G27G22G24G23G10G21G12G31G01G25G32
  -8671514.57845  -6728250.24745  24799103.1094                   24799094.8014
        35.7504         31.7504
   1249619.99154  -6233372.19454  25564672.8054                   25564666.6054
        27.5004         25.0004
 -14466686.07947 -12067174.95546  21018813.6334                   21018802.7464
        47.2504         39.0004
  -4726418.79145  -4319531.82243  24337183.7734                   24337174.6454
        35.5004         22.0004
  -3899886.47147  -7030821.43444  23169615.5944                   23169605.2934
        42.5004         27.7504
 -25444640.29948 -19697242.30849  20924616.8754                   20924607.6294
        51.5004         54.7504
 -17480646.48547 -12929651.96545  22555719.3984                   22555707.3984
        45.5004         34.5004
  -2508372.37845  -1922263.90942  25191220.9384                   25191211.5164
        34.5004         17.2504
 -13304948.36047 -10299513.14847  22803321.7734                   22803310.8284
        43.2504         45.5004
  -8871168.07846  -7250533.30345  23288553.0234                   23288545.1254
        37.5004         35.5004
  -2575658.74045  -2116500.67644  24824973.2274                   24824965.5634
        33.7504         28.2504
 -25892849.12748 -21593095.52849  20528999.9384                   20528991.0434
        52.5004         55.2504
 23  1 10  0 47  0.0000000  0 12G08G27G22G24G23G10G21G12G31G01G25G32
  -8596043.39246  -6669441.59545  24813464.4844                   24813456.7624
        36.2504         32.2504
   1341296.05255  -6161936.29154  25582120.2424                   25582111.9344
        30.5004         24.0004
 -14506189.66847 -12097956.96446  21011296.5234                   21011285.4614
        45.7504         39.2504
  -4622855.05745  -4238832.82243  24356891.6804                   24356882.0234
        34.5004         19.0004
  -3816175.48347  -6965592.13144  23185545.9844                   23185534.5704
        43.5004         28.2504
 -25407201.44548 -19668069.18549  20931741.3834                   20931731.8444
        52.0004         55.0004
 -17523148.39347 -12962770.35245  22547631.4614                   22547619.6954
        44.0004         35.0004
  -2568231.01446  -1968906.91342  25179833.0164                   25179821.4264
        36.0004         16.7504
 -13415619.24447 -10385750.15847  22782262.3834                   22782251.2624
        44.0004         45.7504
  -8962916.29046  -7322025.39645  23271093.6174                   23271085.6604
        37.2504         35.5004
  -2655813.59145  -2178959.01044  24809720.4694                   24809712.6294
        32.7504         28.5004
 -25881912.67848 -21584573.62049  20531080.9534                   20531071.7664
        51.7504         54.7504
 23  1 10  0 47 30.0000000  0 12G08G27G22G24G23G10G21G12G31G01G25G32
  -8520389.90546  -6610490.82745  24827862.3674                   24827853.1214
        36.0004         33.5004
                                  25599548.9384                   25599541.0394
        33.0004         26.0004
 -14545355.27547 -12128475.59746  21003843.2424                   21003832.3554
        47.2504         39.0004
  -4519028.22445  -4157928.77343  24376648.8754                   24376638.9844
        35.0004         19.0004
  -3732265.29647  -6900207.61244  23201513.0554                   23201502.6954
        42.5004         29.2504
 -25369428.12648 -19638635.43649  20938929.2194                   20938919.7974
        51.0004         54.7504
 -17565228.53947 -12995560.07445  22539623.3364                   22539612.2734
        45.2504         34.7504
  -2627740.39645  -2015277.83343  25168507.9144                   25168497.2034
        35.7504         18.2504
 -13526057.87447 -10471806.18147  22761245.5554                   22761235.0204
        43.5004         45.7504
  -9054313.44646  -7393243.95645  23253701.2814                   23253693.2074
        37.7504         35.7504
  -2735796.84545  -2241283.65544  24794498.6804                   24794492.5394
        31.7504         28.5004
 -25870624.63948 -21575777.74749  20533228.9694                   20533220.1334
        51.5004         55.0004
 23  1 10  0 48  0.0000000  0 12G08G27G22G24G23G10G21G12G31G01G25G32
  -8444560.24245  -6551402.81345  24842288.2584                   24842283.7034
        35.0004         32.7504
   1524373.46844  -6019278.39544  25616956.9224                   25616950.8984
        29.2504         27.2504
 -14584185.55147 -12158732.94046  20996454.1334                   20996443.2464
        47.2504         39.2504
  -4414943.81745  -4076824.05243  24396455.6174                   24396446.8984
        34.2504         21.7504
  -3648159.03447  -6834670.30044  23217518.4844                   23217508.3594
        43.0004         29.0004
 -25331322.99348 -19608943.13949  20946180.3444                   20946171.2154
        51.0004         54.7504
 -17606887.72047 -13028021.76945  22531696.1024                   22531684.5124
        45.7504         35.0004
  -2686899.63046  -2061375.92943  25157249.1954                   25157239.5984
        36.2504         19.5004
 -13636263.64847 -10557680.77547  22740274.4384                   22740263.7274
        44.2504         46.2504
  -9145359.24346  -7464188.70846  23236376.4454                   23236368.4884
        38.2504         36.7504
  -2815607.93745  -2303474.07644  24779312.5004                   24779305.4224
        33.2504         29.5004
 -25858988.51048 -21566710.62749  20535443.4534                   20535434.2074
        51.5004         55.2504
 23  1 10  0 48 30.0000000  0 12G08G27G22G24G23G10G21G12G31G01G25G32
  -8368554.80945  -6492177.87245  24856753.7734                   24856746.4024
        35.7504         33.7504
   1615769.55255  -5948060.69854  25634349.2194                   25634342.7854
        30.5004         24.2504
 -14622677.84347 -12188726.91846  20989129.2194                   20989118.3914
        46.2504         39.7504
  -4310601.94545  -3995518.68843  24416310.8284                   24416301.8754
        34.2504         19.0004
  -3563854.55847  -6768978.55244  23233560.5164                   23233550.5084
        42.0004         28.5004
 -25292882.95948 -19578989.87249  20953495.1334                   20953486.0044
        51.0004         54.7504
 -17648121.16847 -13060151.73545  22523849.9304                   22523838.1644
        44.5004         34.7504
  -2745703.60646  -2107197.17143  25146060.1174                   25146049.8164
        36.7504         20.7504
 -13746230.86947 -10643369.47247  22719348.5004                   22719337.7894
        44.2504         46.5004
  -9236048.15046  -7534855.36746  23219118.6884                   23219110.6724
        38.5004         37.2504
  -2895240.81645  -2365525.64844  24764159.4384                   24764152.2424
        34.7504         29.7504
 -25847002.53748 -21557370.90749  20537724.6024                   20537715.4734
        51.5004         55.0004
 23  1 10  0 49  0.0000000  0 12G08G27G22G24G23G10G21G12G31G01G25G32
  -8292376.70645  -6432818.29645  24871248.4844                   24871242.8134
        34.0004         32.5004
                                  25651721.6724                   25651715.6484
        31.0004         23.0004
 -14660832.72447 -12218457.97046  20981868.2664                   20981857.4384
        47.2504         39.2504
  -4206006.01245  -3914015.32843  24436214.9454                   24436206.2274
        34.2504         20.7504
  -3479352.91447  -6703133.12344  23249641.1884                   23249629.8324
        43.2504         29.0004
 -25254108.33648 -19548775.88549  20960873.8524                   20960863.9614
        51.0004         54.7504
 -17688928.21347 -13091949.43845  22516085.0634                   22516073.1804
        46.7504         34.5004
  -2804149.63445  -2152739.56943  25134935.9924                   25134927.2734
        32.7504         18.5004
 -13855956.93747 -10728870.24747  22698467.8594                   22698457.1484
        44.0004         46.5004
  -9326377.65946  -7605242.00746  23201929.9064                   23201921.3054
        39.5004         37.5004
  -2974692.62145  -2427436.18144  24749039.3444                   24749031.1524
        33.5004         28.2504
 -25834668.00348 -21547759.56649  20540071.6414                   20540062.6294
        51.5004         54.7504
 23  1 10  0 49 30.0000000  0 12G08G27G22G24G23G10G21G12G31G01G25G32
  -8216031.24745  -6373328.37945  24885778.6804                   24885771.4264
        35.0004         34.0004
   1798262.66645  -5805858.11044  25669076.6254                   25669069.6054
        31.7504         25.2504
 -14698652.62747 -12247928.01546  20974671.8594                   20974660.5634
        46.7504         39.5004
  -4101160.67745  -3832317.67643  24456166.3594                   24456156.8794
        34.0004         18.5004
  -3394656.64247  -6637136.07244  23265758.3754                   23265747.6644
        42.0004         29.0004
 -25215000.80448 -19518302.49849  20968315.8984                   20968306.4184
        51.0004         54.7504
 -17729310.19747 -13123415.91445  22508399.3134                   22508388.6604
        43.7504         34.7504
  -2862236.92845  -2198002.34842  25123881.9924                   25123872.9224
        32.7504         16.7504
 -13965440.85347 -10814182.34747  22677634.2734                   22677622.9184
        44.7504         46.5004
  -9416347.02146  -7675347.98846  23184809.5314                   23184800.9884
        39.7504         38.5004
  -3053962.07145  -2489204.55144  24733954.4224                   24733947.6954
        33.2504         29.5004
 -25821988.05548 -21537879.09449  20542484.6334                   20542475.5044
        51.0004         55.0004
 23  1 10  0 50  0.0000000  0 12G08G27G22G24G23G10G21G12G31G01G25G32
  -8139519.40846  -6313708.78845  24900339.0864                   24900331.2464
        37.2504         34.0004
   1889353.78045  -5734877.97143  25686410.0164                   25686403.8754
        31.0004         23.0004
 -14736136.21148 -12277135.98546  20967538.9774                   20967528.0314
        48.0004         39.5004
  -3996067.60545  -3750426.89443  24476164.8524                   24476155.3134
        33.5004         19.0004
  -3309764.89247  -6570986.68644  23281912.4064                   23281902.8674
        42.0004         28.5004
 -25175558.71148 -19487568.40649  20975821.1804                   20975812.4024
        52.0004         54.7504
 -17769263.23847 -13154548.14545  22500797.2114                   22500785.5044
        46.2504         35.0004
  -2919961.08046  -2242982.17642  25112899.9224                   25112888.9184
        36.0004         17.2504
 -14074677.84347 -10899302.02447  22656846.4454                   22656836.2034
        44.2504         46.7504
  -9505951.85746  -7745169.90946  23167757.4064                   23167749.6254
        39.7504         38.5004
  -3133044.46045  -2550827.16944  24718907.1884                   24718899.4654
        35.0004         29.5004
 -25808962.10548 -21527728.99149  20544963.3364                   20544954.2074
        51.7504         55.0004
 23  1 10  0 50 30.0000000  0 12G08G27G22G24G23G10G21G12G31G01G25G32
  -8062844.39945  -6253961.98545  24914927.7274                   24914920.5904
        35.0004         32.7504
   1980338.56755  -5663980.66654  25703723.6174                   25703716.8914
        32.2504         24.7504
 -14773283.16148 -12306081.64546  20960470.1484                   20960459.3204
        48.2504         39.5004
  -3890729.09545  -3668345.02543  24496210.1024                   24496201.4414
        34.0004         20.0004
  -3224678.02747  -6504685.29544  23298104.0314                   23298094.0824
        42.0004         28.2504
 -25135781.73748 -19456573.37149  20983390.6254                   20983381.3204
        50.7504         54.7504
 -17808786.41847 -13185345.43445  22493276.4614                   22493264.4024
        46.5004         35.5004
  -2977318.98445  -2287676.60843  25101984.2584                   25101973.9574
        35.7504         19.5004
 -14183664.82247 -10984226.89947  22636106.8984                   22636096.6564
        44.5004         47.0004
  -9595189.11046  -7814705.44246  23150777.3594                   23150768.3484
        41.5004         39.0004
  -3211936.26245  -2612301.29445  24703893.5634                   24703886.9534
        34.0004         31.0004
 -25795590.97148 -21517309.92249  20547507.6484                   20547498.2274
        50.5004         54.7504
 23  1 10  0 51  0.0000000  0 12G08G27G22G24G23G10G21G12G31G01G25G32
  -7986008.65146  -6194090.00945  24929550.6564                   24929542.8164
        36.2504         34.0004
   2071214.55455  -5593168.13754  25721017.4064                   25721010.5044
        31.5004         27.5004
 -14810093.51748 -12334765.02346  20953465.5084                   20953454.3284
        48.0004         39.5004
  -3785148.32645  -3586074.25643  24516300.5704                   24516291.7934
        35.2504         18.5004
  -3139396.52046  -6438232.20544  23314332.9144                   23314322.3204
        41.0004         28.5004
 -25095669.48648 -19425317.08649  20991023.7424                   20991014.6724
        52.0004         54.7504
 -17847878.36447 -13215806.69045  22485837.4224                   22485825.5984
        46.5004         35.0004
  -3034307.54845  -2332083.27443  25091139.1564                   25091129.7934
        34.2504         19.0004
 -14292398.85247 -11068954.66047  22615415.6884                   22615405.0354
        45.0004         47.0004
  -9684055.86246  -7883952.25246  23133864.7814                   23133857.9964
        39.2504         39.5004
  -3290634.17345  -2673624.29745  24688918.0084                   24688910.6954
        34.2504         30.7504
 -25781875.49648 -21506622.53249  20550117.3914                   20550108.2034
        51.0004         55.5004
 23  1 10  0 51 30.0000000  0 12G08G27G22G24G23G10G21G12G31G01G25G32
  -7909016.33146  -6134096.03345  24944202.2344                   24944194.6294
        36.5004         33.5004
   2161978.09845  -5522443.21544  25738289.5864                   25738282.0394
        30.5004         24.7504
 -14846568.40247 -12363186.99946  20946524.6484                   20946513.2344
        46.5004         40.0004
  -3679328.56745  -3503617.28443  24536438.3674                   24536428.7704
        34.7504         18.5004
  -3053921.81347  -6371628.57244  23330598.5234                   23330587.6954
        42.0004         29.2504
 -25055222.67148 -19393800.09449  20998720.8594                   20998711.5554
        51.5004         55.0004
 -17886538.83947 -13245931.73345  22478480.0864                   22478468.2624
        44.7504         35.5004
  -3090925.20446  -2376200.90942  25080366.4064                   25080355.5204
        37.0004         17.7504
 -14400877.35347 -11153483.31247  22594773.0394                   22594762.2114
        44.2504         46.7504
  -9772550.06646  -7952908.75446  23117026.3524                   23117017.6334
        41.2504         39.7504
  -3369135.62145  -2734794.23745  24673979.7814                   24673972.5274
        33.5004         30.2504
 -25767817.41448 -21495668.18549  20552792.9844                   20552783.6214
        50.5004         54.7504
 23  1 10  0 52  0.0000000  0 12G08G27G22G24G23G10G21G12G31G01G25G32
  -7831869.99545  -6073981.99545  24958881.1484                   24958873.7774
        35.5004         32.2504
   2252627.33055  -5451807.45653  25755539.1724                   25755532.2114
        32.0004         23.5004
 -14882707.63147 -12391347.42446  20939647.3284                   20939635.9734
        47.5004         39.5004
  -3573272.61746  -3420976.34043  24556619.2734                   24556611.6684
        36.0004         21.5004
  -2968254.19946  -6304874.62544  23346899.4924                   23346889.8364
        40.7504         28.2504
 -25014440.83648 -19362022.05149  21006480.9844                   21006472.1484
        51.0004         54.7504
 -17924765.47047 -13275718.70946  22471205.8444                   22471194.3714
        46.2504         36.0004
  -3147168.68446  -2420027.00543  25069664.9534                   25069653.0124
        37.0004         19.0004
 -14509097.16347 -11237810.39047  22574179.4534                   22574168.5084
        45.0004         47.0004
  -9860668.52046  -8021572.48946  23100257.7734                   23100249.2304
        40.5004         40.0004
  -3447437.11645  -2795808.36144  24659079.1024                   24659070.7934
        33.7504         29.7504
 -25753417.43748 -21484447.41749  20555532.9924                   20555523.8634
        50.7504         55.0004
 23  1 10  0 52 30.0000000  0 12G08G27G22G24G23G10G21G12G31G01G25G32
  -7754572.52845  -6013750.19145  24973589.9384                   24973583.2704
        35.0004         32.5004
    416817.19355  -5416902.02954  25772766.0164                   25772758.9384
        30.5004         25.0004
 -14918511.42047 -12419246.46346  20932833.8674                   20932823.0394
        47.5004         40.0004
  -3466983.15345  -3338153.35343  24576845.9144                   24576836.7274
        33.7504         18.5004
  -2882394.23946  -6237970.80544  23363238.8524                   23363228.0824
        41.5004         29.2504
 -24973323.82748 -19329982.82549  21014305.4534                   21014296.3244
        52.7504         54.7504
 -17962556.85747 -13305166.54146  22464015.3754                   22464002.7304
        47.2504         36.0004
  -3203035.21745  -2463559.30043  25059031.7974                   25059021.9654
        35.7504         18.5004
 -14617055.14647 -11321933.44047  22553635.4774                   22553624.8834
        45.7504         47.0004
  -9948408.48446  -8089941.26546  23083560.9304                   23083553.0314
        40.2504         39.7504
  -3525535.38645  -2856664.11544  24644217.3444                   24644209.0944
        34.7504         29.5004
 -25738676.54948 -21472960.99649  20558338.1334                   20558329.0634
        51.2504         55.0004
 23  1 10  0 53  0.0000000  0 12G08G27G22G24G23G10G21G12G31G01G25G32
  -7677127.15046  -5953403.17345  24988328.3984                   24988321.6134
        37.0004         33.0004
    507229.46355  -5346450.84854  25789973.8054                   25789964.5004
        32.2504         26.5004
 -14953980.10747 -12446884.38946  20926084.3594                   20926073.1804
        46.5004         40.0004
  -3360463.21145  -3255150.74943  24597115.7894                   24597107.3054
        34.7504         20.0004
  -2796342.63046  -6170917.64444  23379614.2194                   23379603.5084
        41.2504         28.7504
 -24931871.56748 -19297682.36449  21022193.3524                   21022184.3984
        50.7504         54.7504
 -17999912.19347 -13334274.59945  22456906.4924                   22456894.5514
        45.2504         35.2504
  -3258522.04646  -2506795.77542  25048474.2894                   25048463.1684
        37.0004         17.7504
 -14724748.46847 -11405850.27647  22533142.8134                   22533131.2814
        45.0004         47.0004
 -10035767.08746  -8158012.90446  23066937.3284                   23066928.5514
        40.7504         39.7504
  -3603427.04645  -2917358.87245  24629394.7034                   24629387.8014
        35.0004         30.7504
 -25723595.75648 -21461209.72449  20561207.8594                   20561198.7304
        50.5004         54.7504
 23  1 10  0 53 30.0000000  0 11G08G22G24G23G10G21G12G31G01G25G32
  -7599535.09346  -5892941.82445  25003094.5474                   25003085.8284
        37.5004         32.7504
 -14989112.49048 -12474260.26246  20919399.1484                   20919387.9104
        48.0004         39.7504
  -3253713.98445  -3171969.60043  24617430.1644                   24617421.3284
        34.5004         18.5004
  -2710098.47046  -6103714.45544  23396025.7584                   23396015.3404
        41.5004         29.0004
 -24890082.13648 -19265119.18749  21030145.5474                   21030136.5354
        50.5004         55.0004
 -18036828.77547 -13363040.76646  22449881.0314                   22449869.3244
        47.0004         36.0004
  -3313624.79746  -2549732.93343  25037987.1414                   25037977.2504
        36.0004         19.2504
 -14832172.52147 -11489557.28347  22512700.9064                   22512689.1414
        45.0004         47.0004
 -10122740.12146  -8225784.08846  23050386.8754                   23050379.0944
        40.2504         40.5004
  -3681107.45645  -2977889.02745  24614613.2344                   24614606.0984
        34.0004         30.0004
 -25708174.60548 -21449193.22849  20564142.2114                   20564133.4344
        50.2504         55.0004
 23  1 10  0 54  0.0000000  0 11G08G22G24G23G10G21G12G31G01G25G32
  -7521802.22345  -5832370.71645  25017885.7114                   25017878.1054
        35.7504         33.0004
 -15023911.43248 -12501376.30146  20912777.0474                   20912765.9844
        48.0004         40.0004
  -3146741.47345  -3088614.36343  24637785.6884                   24637777.1454
        34.7504         21.2504
  -2623665.44446  -6036364.08344  23412473.3674                   23412462.8324
        41.0004         27.7504
 -24847958.62048 -19232295.68049  21038161.7504                   21038152.4454
        51.7504         54.7504
 -18073308.84747 -13391466.79745  22442939.2664                   22442927.3834
        46.2504         35.7504
  -3368343.80045  -2592371.17043  25027574.1724                   25027564.5164
        35.5004         18.5004
 -14939327.24347 -11573054.42747  22492308.3594                   22492298.0004
        44.5004         46.7504
 -10209327.64046  -8293254.86046  23033909.5864                   23033901.6884
        40.5004         40.0004
  -3758576.42645  -3038254.41345  24599870.9924                   24599862.8594
        34.5004         31.5004
 -25692417.05748 -21436914.61349  20567140.9614                   20567131.8324
        50.7504         55.0004
 23  1 10  0 54 30.0000000  0 11G08G22G24G23G10G21G12G31G01G25G32
  -7443929.19346  -5771690.46545  25032705.6954                   25032697.3284
        36.5004         33.0004
 -15058374.85748 -12528230.91346  20906218.7114                   20906207.5314
        48.2504         39.7504
  -3039545.67645  -3005085.20343  24658183.6644                   24658176.2934
        33.5004         19.0004
  -2537041.42146  -5968864.88644  23428957.6414                   23428946.7544
        41.5004         27.5004
 -24805498.20448 -19199209.64849  21046241.2344                   21046232.0474
        52.7504         54.7504
 -18109347.55047 -13419548.89046  22436081.5634                   22436069.8554
        47.0004         36.2504
  -3422673.77446  -2634706.14442  25017237.1484                   25017225.3244
        37.2504         17.7504
 -15046206.83947 -11656337.17147  22471970.7424                   22471959.6804
        45.2504         47.0004
 -10295524.26346  -8360421.05646  23017507.1414                   23017498.3054
        41.0004         40.0004
  -3835827.87545  -3098450.29044  24585170.6724                   24585162.3054
        35.0004         29.7504
 -25676321.41748 -21424372.53849  20570204.1334                   20570194.7704
        51.2504         55.0004
 23  1 10  0 55  0.0000000  0 11G08G22G24G23G10G21G12G31G01G25G32
  -7365921.59945  -5710905.26945  25047547.8284                   25047541.5704
        34.5004         32.5004
 -15092505.44247 -12554826.15846  20899723.9454                   20899712.5314
        47.5004         40.0004
  -2932132.23745  -2921386.41043  24678625.5084                   24678615.9694
        35.0004         19.7504
  -2450229.76846  -5901219.48644  23445476.9224                   23445466.2114
        40.7504         27.2504
 -24762703.26048 -19165862.94949  21054385.2274                   21054376.0394
        51.7504         54.7504
 -18144946.55747 -13447288.38146  22429307.2664                   22429295.2074
        46.7504         36.2504
  -3476614.57146  -2676737.92742  25006972.5944                   25006960.0084
        37.5004         17.2504
 -15152811.09047 -11739405.37847  22451684.1644                   22451673.2774
        45.0004         46.7504
 -10381329.74946  -8427282.47246  23001178.7344                   23001171.1294
        40.7504         40.7504
  -3912861.21745  -3158476.23445  24570511.3984                   24570504.4964
        34.2504         31.2504
 -25659891.40648 -21411569.92949  20573330.2034                   20573321.2504
        50.7504         55.2504
 23  1 10  0 55 30.0000000  0 11G08G22G24G23G10G21G12G31G01G25G32
  -7287779.61045  -5650015.45145  25062418.3754                   25062410.5944
        35.0004         31.2504
 -15126301.47347 -12581160.71446  20893292.9534                   20893281.3634
        47.5004         40.2504
  -2824501.85745  -2837518.58843  24699105.0864                   24699097.5984
        33.0004         19.7504
  -2363229.04146  -5833426.76044  23462032.5084                   23462022.4414
        40.7504         27.5004
 -24719571.89148 -19132254.09949  21062592.7034                   21062583.5164
        51.0004         55.0004
 -18180102.60047 -13474682.69645  22422616.6174                   22422605.3794
        46.0004         35.5004
  -3530161.13146  -2718462.54943  24996783.0394                   24996770.6884
        37.2504         18.2504
 -15259134.93247 -11822255.08247  22431451.3914                   22431440.6214
        45.0004         47.0004
 -10466739.40046  -8493835.40946  22984925.5394                   22984917.2304
        40.2504         40.5004
  -3989671.17445  -3218328.11345  24555893.7894                   24555887.8244
        34.2504         30.0004
 -25643126.03248 -21398505.99149  20576520.5394                   20576511.6454
        51.0004         55.5004
 23  1 10  0 56  0.0000000  0 11G08G22G24G23G10G21G12G31G01G25G32
  -7209508.16946  -5589024.67345  25077312.9304                   25077305.6764
        36.5004         32.5004
 -15159764.00448 -12607235.40046  20886925.1954                   20886913.8984
        48.2504         40.2504
  -2716658.30645  -2753484.62743  24719628.9144                   24719619.4924
        34.2504         21.0004
  -2276040.87346  -5765487.96944  23478624.7274                   23478614.2504
        41.0004         27.0004
 -24676104.38548 -19098383.33349  21070864.1954                   21070855.1844
        51.2504         54.7504
 -18214815.55047 -13501731.74246  22416011.5394                   22415999.7154
        47.0004         36.2504
  -3583311.92946  -2759878.74643  24986669.2584                   24986657.1414
        37.5004         18.5004
 -15365176.29747 -11904884.65947  22411272.3284                   22411261.7934
        44.7504         47.0004
 -10551751.19546  -8560078.37146  22968749.4144                   22968740.0514
        41.0004         40.5004
  -4066255.46345  -3278004.14344  24541321.7584                   24541313.9184
        33.2504         29.5004
 -25626027.06848 -21385182.10449  20579774.4064                   20579765.2194
        51.0004         55.0004
 23  1 10  0 56 30.0000000  0 11G08G22G24G23G10G21G12G31G01G25G32
  -7131109.60845  -5527934.80745  25092232.2584                   25092225.2384
        35.5004         32.2504
 -15192893.17347 -12633050.32346  20880620.9774                   20880609.7384
        47.7504         40.2504
  -2608604.02545  -2669286.50443  24740188.5084                   24740181.0784
        32.7504         18.5004
  -2188665.42846  -5697403.25444  23495250.7194                   23495240.5944
        40.5004         27.5004
 -24632300.67448 -19064250.56949  21079200.0944                   21079190.7894
        51.5004         55.0004
 -18249084.41947 -13528434.75146  22409490.2894                   22409478.4064
        45.7504         36.2504
  -3636064.02246  -2800984.24743  24976628.4694                   24976619.1644
        37.0004         19.0004
 -15470931.79247 -11987291.50047  22391148.0394                   22391136.9774
        45.5004         47.0004
 -10636362.04346  -8626008.87946  22952647.9534                   22952640.1724
        40.5004         41.0004
  -4142610.40545  -3337501.43645  24526791.3834                   24526784.0704
        33.7504         30.2504
 -25608595.22748 -21371598.84949  20583091.6954                   20583082.3914
        49.7504         54.7504
 23  1 10  0 57  0.0000000  0 11G08G22G24G23G10G21G12G31G01G25G32
  -7052586.26545  -5466747.80145  25107173.2034                   25107166.8284
        34.0004         31.7504
 -15225688.98347 -12658605.49346  20874379.7194                   20874368.4224
        46.7504         40.5004
  -2500341.79545  -2584926.33543  24760792.2344                   24760783.1644
        35.0004         20.7504
  -2101103.41446  -5629173.13844  23511913.6884                   23511903.0944
        40.7504         27.7504
 -24588160.52648 -19029855.65049  21087599.4454                   21087590.3754
        50.2504         54.7504
 -18282907.12047 -13554790.11046  22403054.5554                   22403042.1454
        45.5004         36.2504
  -3688414.47545  -2841776.78443  24966667.0634                   24966657.6414
        35.7504         18.2504
 -15576398.47647 -12069473.28347  22371077.9454                   22371067.5864
        45.2504         47.2504
 -10720569.12946  -8691624.77846  22936623.9454                   22936614.8754
        41.5004         40.7504
  -4218732.60645  -3396817.41145  24512306.7974                   24512298.6644
        35.0004         30.5004
 -25590831.52348 -21357757.00249  20586472.1024                   20586462.8554
        50.5004         55.2504
 23  1 10  0 57 30.0000000  0 11G08G22G24G23G10G21G12G31G01G25G32
  -6973941.96546  -5405466.50745  25122139.8054                   25122131.3794
        36.0004         31.0004
 -15258152.02247 -12683901.35546  20868201.9694                   20868191.3164
        46.0004         40.5004
  -2391874.48945  -2500406.36243  24781431.4304                   24781423.5904
        32.5004         19.0004
  -2013355.48046  -5560798.19144  23528611.7344                   23528601.6684
        40.7504         27.5004
 -24543683.70448 -18995198.40049  21096063.3444                   21096053.8634
        51.5004         55.0004
 -18316282.68047 -13580797.04746  22396703.5084                   22396691.0394
        45.7504         36.0004
  -3740360.71945  -2882254.31743  24956781.3984                   24956772.2114
        35.2504         18.5004
 -15681573.12647 -12151427.51347  22351063.8914                   22351053.0044
        45.5004         47.5004
 -10804369.73746  -8756923.94446  22920676.6884                   22920669.1414
        41.0004         41.2504
  -4294618.94145  -3455949.59744  24497864.9844                   24497857.9064
        34.5004         29.5004
 -25572736.96948 -21343657.34249  20589915.5554                   20589906.0744
        51.0004         55.0004
 23  1 10  0 58  0.0000000  0 11G08G22G24G23G10G21G12G31G01G25G32
  -6895179.10746  -5344092.83545  25137129.9144                   25137121.3714
        36.5004         32.5004
 -15290282.01247 -12708937.70346  20862088.5784                   20862076.9884
        47.7504         40.2504
  -8584884.73755  -7326128.64453  24802111.1094                   24802102.1564
        33.5004         18.5004
  -1925422.26346  -5492278.83444  23545344.2034                   23545333.7854
        41.0004         26.0004
 -24498870.34948 -18960278.91249  21104590.6334                   21104581.8554
        50.7504         54.7504
 -18349210.05847 -13606454.75046  22390437.0234                   22390425.3754
        45.7504         36.2504
  -3791899.99345  -2922414.79342  24946973.2814                   24946963.6844
        34.2504         17.7504
 -15786452.80347 -12233151.88047  22331105.9924                   22331094.9884
        46.0004         47.7504
 -10887760.87646  -8821904.03746  22904808.5084                   22904800.3164
        41.2504         41.7504
  -4370265.99045  -3514895.34245  24483470.1334                   24483462.5274
        34.7504         30.0004
 -25554312.46948 -21329300.58149  20593421.5004                   20593412.0204
        51.0004         55.0004
 23  1 10  0 58 30.0000000  0 11G08G22G24G23G10G21G12G31G01G25G32
  -6816300.94745  -5282629.28845  25152137.7974                   25152130.9534
        34.2504         31.0004
 -15322080.02047 -12733715.36346  20856037.3134                   20856025.9574
        47.5004         40.7504
  -8476015.60745  -7241295.55943  24822827.3914                   24822819.5514
        32.0004         20.5004
  -1837304.53746  -5423615.72044  23562112.9224                   23562102.5634
        40.5004         26.5004
 -24453720.48548 -18925097.21449  21113182.3054                   21113173.7034
        49.5004         54.7504
 -18381688.18047 -13631762.36146  22384256.0004                   22384245.1134
        46.0004         36.5004
  -3843029.99146  -2962256.32843  24937244.9774                   24937234.7934
        36.2504         19.2504
 -15891034.71247 -12314644.23947  22311204.4534                   22311194.0354
        45.0004         47.7504
 -10970740.18446  -8886563.21946  22889017.1804                   22889008.8714
        41.2504         41.5004
  -4445670.83045  -3573652.32245  24469120.9844                   24469113.0864
        35.0004         30.0004
 -25535559.30648 -21314687.72449  20596990.1484                   20596980.9024
        50.5004         55.0004
 23  1 10  0 59  0.0000000  0 11G08G22G24G23G10G21G12G31G01G25G32
  -6737309.12345  -5221077.19145  25167167.0314                   25167161.7114
        33.2504         30.7504
 -15353544.53747 -12758233.15346  20850049.7584                   20850038.6374
        47.5004         40.2504
                                  24843582.6094                   24843574.0664
        34.0004         18.2504
  -1749001.82646  -5354808.46244  23578917.0864                   23578905.9064
        40.5004         28.0004
 -24408232.76648 -18889652.24349  21121838.3914                   21121829.8484
        50.0004         54.7504
 -18413714.80847 -13656718.18346  22378162.3834                   22378150.0314
        46.0004         36.2504
  -3893746.47946  -3001775.68843  24927595.9144                   24927582.8594
        38.0004         19.7504
 -15995314.63347 -12395901.26448  22291361.2664                   22291350.1454
        46.0004         48.0004
 -11053303.48147  -8950898.24747  22873306.6804                   22873299.1334
        42.2504         42.2504
  -4520828.91745  -3632217.04945  24454819.0944                   24454811.8984
        34.7504         30.7504
 -25516477.23148 -21299818.57449  20600621.4774                   20600612.3484
        50.5004         54.7504
 23  1 10  0 59 30.0000000  0 11G08G22G24G23G10G21G12G31G01G25G32
                                  25182222.3984                   25182214.6174
        35.7504         31.0004
 -15384675.88047 -12782491.32746  20844125.8524                   20844114.3794
        47.0004         40.5004
                                  24864374.4614                   24864366.0354
        31.0004         18.2504
  -1660514.66146  -5285857.46744  23595755.1804                   23595744.9384
        40.0004         26.7504
 -24362406.78048 -18853943.68749  21130558.8984                   21130549.9454
        51.5004         54.7504
 -18445288.90647 -13681321.38646  22372154.2034                   22372141.9694
        46.0004         36.0004
  -3944046.91146  -3040970.76443  24918022.4534                   24918010.3954
        37.2504         18.5004
 -16099289.37347 -12476920.50548  22271575.3914                   22271564.2114
        45.0004         48.0004
 -11135447.98046  -9014906.92846  22857674.0944                   22857666.6054
        41.5004         41.7504
  -4595736.73245  -3690586.75045  24440565.0944                   24440557.2544
        35.0004         30.2504
 -25497067.11448 -21284693.80449  20604314.7584                   20604305.2194
        52.0004         55.0004
 23  1 10  1  0  0.0000000  0 11G08G22G24G23G10G21G12G31G01G25G32
  -6579003.14345  -5097721.88645  25197295.0634                   25197286.8134
        35.5004         30.5004
 -15415481.67247 -12806495.82646  20838263.6414                   20838252.6954
        47.2504         40.5004
  -8148242.32155  -6998999.47252  24885201.4924                   24885192.4804
        31.7504         17.2504
  -1571850.87446  -5216768.89044  23612626.7894                   23612617.0744
        40.2504         26.0004
 -24316250.02348 -18817977.39049  21139342.3444                   21139333.4494
        50.5004         55.0004
 -18476416.46547 -13705576.63246  22366230.2274                   22366218.1684
        45.5004         36.5004
  -3993936.14246  -3079845.51242  24908529.7974                   24908517.0354
        37.2504         16.7504
 -16202963.33147 -12557705.36348  22251846.4844                   22251835.9494
        46.0004         48.2504
 -11217178.14647  -9078592.77047  22842122.9614                   22842113.9494
        42.0004         42.0004
  -4670398.45445  -3748764.68544  24426354.3134                   24426349.9924
        33.5004         29.5004
 -25477337.20448 -21269319.84749  20608069.6414                   20608060.2774
        52.5004         55.0004
 23  1 10  1  0 30.0000000  0 11G08G22G24G23G10G21G12G31G01G25G32
  -6499693.70346  -5035922.13045  25212388.2734                   25212378.5594
        37.2504         30.0004
 -15445953.96447 -12830240.45846  20832464.7424                   20832453.4454
        47.5004         40.5004
  -8038604.31545  -6913567.23343  24906065.7584                   24906056.5704
        32.2504         18.5004
  -1483002.88846  -5147536.72044  23629534.7504                   23629524.2154
        40.0004         26.7504
 -24269753.73248 -18781746.51549  21148189.8594                   21148180.9654
        50.5004         54.7504
 -18507087.76347 -13729476.34346  22360393.3754                   22360382.3714
        45.5004         36.2504
  -4043402.88645  -3118391.06643  24899114.9694                   24899103.5554
        35.2504         19.0004
 -16306325.38847 -12638247.17948  22232177.8834                   22232166.7034
        45.7504         48.2504
 -11298482.85646  -9141947.09347  22826649.9144                   22826642.8954
        40.7504         42.0004
  -4744802.31645  -3806741.70045  24412197.8984                   24412189.5314
        35.2504         30.5004
 -25457280.20948 -21253691.02049  20611886.3834                   20611876.8444
        52.2504         55.0004
 23  1 10  1  1  0.0000000  0 11G08G22G24G23G10G21G12G31G01G25G32
  -6420282.83556  -4974043.59655  25227499.2424                   25227489.6454
        36.5004         31.5004
 -15476093.63247 -12853725.89846  20826729.3984                   20826718.5704
        47.0004         40.2504
                                  24926964.6254                   24926956.4344
        30.7504         17.2504
  -1393972.06346  -5078162.10344  23646476.1884                   23646466.5314
        39.7504         26.7504
 -24222918.97748 -18745251.92049  21157102.3834                   21157093.7234
        51.0004         54.7504
 -18537302.73347 -13753020.47245  22354644.0474                   22354632.5164
        45.5004         35.7504
  -4092445.47145  -3156606.00643  24889781.1334                   24889770.8914
        35.0004         19.0004
 -16409372.83647 -12718543.85348  22212567.7734                   22212557.5314
        45.7504         48.2504
 -11379360.12247  -9204968.29747  22811260.5234                   22811251.9224
        42.2504         42.0004
  -4818945.85945  -3864515.88945  24398089.8444                   24398081.7114
        35.0004         31.0004
 -25436897.87048 -21237808.68049  20615764.7504                   20615755.3874
        53.2504         55.0004
 23  1 10  1  1 30.0000000  0 11G08G22G24G23G10G21G12G31G01G25G32
  -6340776.68055  -4912090.71955  25242627.2894                   25242619.9774
        34.5004         30.7504
 -15505905.73647 -12876956.09646  20821056.2894                   20821045.4614
        47.0004         40.5004
  -7818773.24055  -6756449.10253  24947897.5634                   24947889.4884
        32.2504         18.5004
  -1304764.00246  -5008649.37844  23663452.8444                   23663442.5434
        39.5004         26.2504
 -24175749.92848 -18708496.81849  21166078.7664                   21166069.6374
        50.0004         54.7504
 -18567065.19947 -13776212.00846  22348980.9614                   22348968.9024
        46.0004         37.5004
  -4141066.00045  -3194492.14942  24880529.2114                   24880519.9654
        35.2504         16.7504
 -16512107.62647 -12798596.90348  22193018.4774                   22193007.2384
        45.7504         48.5004
 -11459812.06247  -9267658.14046  22795951.0314                   22795941.8444
        42.0004         41.7504
  -4892830.71345  -3922088.48145  24384024.1954                   24384021.2234
        34.5004         31.0004
 -25416196.04248 -21221677.38849  20619704.4694                   20619694.9884
        52.5004         55.0004
 23  1 10  1  2  0.0000000  0 11G08G22G24G23G10G21G12G31G01G25G32
  -6261174.40645  -4850062.95444  25257772.6884                   25257767.0744
        31.7504         29.2504
 -15535386.17147 -12899927.84846  20815446.5944                   20815435.5314
        47.5004         41.0004
  -7708478.83754  -6691624.63853  24968865.0864                   24968857.9494
        29.5004         18.2504
  -1215374.54146  -4938995.32444  23680462.3364                   23680452.0944
        39.5004         24.5004
 -24128242.31048 -18671477.89949  21175119.3914                   21175110.0274
        50.0004         54.7504
 -18596369.26447 -13799046.35145  22343404.2814                   22343392.4574
        46.0004         35.7504
  -4189257.44246  -3232043.86243  24871360.8134                   24871349.6914
        37.0004         19.0004
 -16614522.13847 -12878400.37048  22173529.1564                   22173518.3284
        46.2504         48.5004
 -11539831.18047  -9330010.68047  22780723.1954                   22780715.7664
        42.5004         42.7504
  -4966448.91346  -3979453.26745  24370020.6644                   24370013.1764
        36.2504         30.2504
 -25395171.00248 -21205294.23849  20623705.1094                   20623696.0984
        52.7504         54.7504
 23  1 10  1  2 30.0000000  0 11G08G22G24G23G10G21G12G31G01G25G32
  -6181480.32445  -4787963.71945  25272938.5554                   25272931.8874
        31.7504         30.2504
 -15564536.74047 -12922642.55646  20809899.3594                   20809887.7704
        47.0004         40.5004
  -7598115.01355  -6605626.85052  24989867.8984                   24989859.2384
        32.5004         17.2504
  -1125806.02746  -4869201.72544  23697507.4454                   23697496.7934
        40.7504         26.2504
 -24080397.73048 -18634196.42549  21184223.4304                   21184214.2424
        50.0004         54.7504
 -18625215.54347 -13821523.97846  22337915.0084                   22337902.8914
        46.5004         36.0004
  -4237018.82746  -3269260.53243  24862271.3204                   24862261.1954
        36.5004         19.5004
 -16716615.04247 -12957953.25848  22154102.3364                   22154090.8054
        45.5004         48.5004
 -11619416.37146  -9392025.11847  22765578.9304                   22765570.2704
        41.7504         42.0004
  -5039798.70145  -4036608.92445  24356062.3914                   24356054.6094
        35.2504         31.2504
 -25373825.35748 -21188661.28049  20627766.8914                   20627757.9384
        53.0004         54.7504
 23  1 10  1  3  0.0000000  0 11G08G22G24G23G10G21G12G31G01G25G32
  -6101697.94945  -4725795.69144  25288122.0234                   25288114.8284
        35.0004         29.2504
 -15593358.57047 -12945101.11146  20804414.3364                   20804403.8014
        47.2504         40.7504
  -7487577.39645  -6519493.61643  25010901.8914                   25010893.2894
        32.0004         18.2504
  -1036059.71946  -4799269.58044  23714585.6094                   23714574.8404
        39.0004         26.0004
 -24032216.39548 -18596652.53149  21193392.1644                   21193383.0944
        50.0004         54.5004
 -18653603.62147 -13843644.56746  22332512.6334                   22332500.9264
        44.5004         36.0004
  -4284348.10146  -3306140.45843  24853265.8594                   24853255.9694
        36.7504         20.2504
 -16818383.84847 -13037253.58348  22134735.6024                   22134725.1254
        45.5004         48.7504
 -11698565.41247  -9453699.69747  22750517.4224                   22750508.9964
        42.0004         42.0004
  -5112877.46545  -4093553.41345  24342155.3284                   24342148.1334
        34.2504         31.7504
 -25352160.67748 -21171779.70849  20631889.7814                   20631880.4774
        53.0004         55.0004
 23  1 10  1  3 30.0000000  0 11G08G22G24G23G10G21G12G31G01G25G32
  -6021829.45746  -4663560.47245  25303323.5634                   25303313.1454
        37.0004         30.7504
 -15621850.70147 -12967302.75046  20798992.8444                   20798981.3134
        46.5004         41.0004
  -7376867.57155  -6433226.28553  25031969.1804                   25031961.2234
        30.0004         18.2504
   -946135.52846  -4729198.84544  23731697.1644                   23731687.3914
        39.2504         25.2504
 -23983697.54848 -18558845.64749  21202624.9924                   21202615.8054
        49.0004         54.5004
 -18681531.72347 -13865406.72246  22327197.9454                   22327186.4144
        45.5004         36.7504
  -4331242.05246  -3342681.17143  24844341.3134                   24844331.9494
        36.0004         20.7504
 -16919824.86847 -13116298.50048  22115431.9774                   22115421.0904
        45.2504         48.7504
 -11777274.92347  -9515031.77747  22735539.3204                   22735531.6564
        42.7504         42.2504
  -5185681.16245  -4150283.55445  24328301.7734                   24328294.7544
        34.0004         32.5004
 -25330177.22348 -21154649.75049  20636073.1644                   20636063.9184
        52.5004         55.0004
 23  1 10  1  4  0.0000000  0 11G08G22G24G23G10G21G12G31G01G25G32
  -5941878.31645  -4601260.88645  25318535.9534                   25318527.0594
        35.2504         30.0004
 -15650014.16947 -12989248.30246  20793633.3364                   20793622.2734
        47.5004         40.7504
  -7265989.03655  -6346827.39952  25053068.5164                   25053060.2074
        31.7504         17.7504
   -856034.79546  -4658990.54044  23748843.0084                   23748832.7074
        39.0004         26.5004
 -23934841.99448 -18520776.39249  21211921.9844                   21211912.9144
        50.0004         54.5004
 -18708999.54447 -13886810.22246  22321971.2034                   22321959.5554
        45.5004         36.5004
  -4377698.37446  -3378880.90443  24835502.4384                   24835491.0824
        38.0004         21.2504
 -17020935.89347 -13195086.27948  22096191.6954                   22096180.6914
        46.5004         48.7504
 -11855542.70746  -9576019.64947  22720645.3594                   22720636.5824
        41.0004         42.0004
  -5258207.18445  -4206797.30245  24314499.6724                   24314492.9454
        34.0004         32.0004
 -25307876.61849 -21137272.65249  20640317.0004                   20640307.5784
        54.0004         54.7504
 23  1 10  1  4 30.0000000  0 11G08G22G24G23G10G21G12G31G01G25G32
  -5861845.95145  -4538897.93245  25333764.4454                   25333757.0744
        33.7504         30.5004
 -15677848.07647 -13010937.05846  20788336.9774                   20788325.6214
        46.2504         40.7504
                                  25074200.6334                   25074192.0904
        31.0004         17.7504
   -765756.92346  -4588644.19644  23766022.8054                   23766012.5044
        39.5004         26.0004
 -23885648.42848 -18482443.75449  21221282.6954                   21221274.4454
        49.5004         54.2504
 -18736004.37247 -13907852.94446  22316832.8054                   22316820.8634
        45.0004         36.5004
  -4423713.35946  -3414736.70343  24826744.5004                   24826734.5514
        36.5004         21.7504
 -17121712.29547 -13273613.30948  22077014.7344                   22077003.4964
        45.7504         49.0004
 -11933364.87347  -9636660.30747  22705836.4534                   22705828.0274
        42.2504         42.0004
  -5330451.00545  -4263091.17445  24300752.3134                   24300745.0594
        35.5004         31.0004
 -25285258.60849 -21119648.23349  20644620.6884                   20644611.5004
        54.7504         54.7504
 23  1 10  1  5  0.0000000  0 10G08G22G23G10G21G12G31G01G25G32
  -5781741.61556  -4476479.05255  25349010.1094                   25349000.9224
        36.2504         31.0004
 -15705354.24347 -13032370.41846  20783102.7504                   20783091.5124
        46.7504         41.0004
   -675303.60446  -4518161.13244  23783234.8054                   23783225.0904
        38.7504         25.0004
 -23836117.46848 -18443848.21649  21230708.7734                   21230699.4694
        50.7504         54.0004
 -18762546.70247 -13928535.29146  22311781.4844                   22311769.9534
        45.0004         36.7504
  -4469285.89346  -3450247.75943  24818071.3054                   24818062.3524
        36.0004         20.5004
 -17222152.30147 -13351878.20148  22057901.5314                   22057890.1764
        45.7504         49.0004
 -12010739.61947  -9696952.30147  22691111.8674                   22691104.2624
        42.2504         42.0004
  -5402410.37545  -4319163.38945  24287059.5474                   24287051.6484
        35.0004         32.0004
 -25262325.16749 -21101778.02049  20648984.8134                   20648975.6844
        54.0004         54.7504
 23  1 10  1  5 30.0000000  0 11G08G22G24G23G10G21G12G31G01G25G32
  -5701561.12145  -4414000.75844  25364265.2584                   25364259.2934
        33.2504         29.0004
 -15732535.56947 -13053550.65946  20777930.2274                   20777918.8714
        47.2504         41.0004
  -8507788.80455  -7382348.14952  25116554.8754                   25116545.6884
        31.0004         16.2504
   -584678.68746  -4447544.37443  23800479.8524                   23800470.6054
        38.7504         22.7504
 -23786252.61948 -18404992.49949  21240197.2974                   21240188.3444
        49.0004         54.0004
 -18788628.28047 -13948858.59746  22306818.7034                   22306806.4694
        46.2504         36.5004
  -4514416.40945  -3485414.37943  24809483.8444                   24809474.6564
        35.5004         19.2504
 -17322256.25647 -13429881.25048  22038852.1804                   22038840.6484
        46.0004         49.0004
 -12087667.48947  -9756896.09047  22676474.0164                   22676464.8284
        42.0004         42.0004
  -5474085.25545  -4375013.94645  24273420.2814                   24273412.4414
        34.2504         31.5004
 -25239080.45448 -21083665.26149  20653408.1094                   20653398.8634
        52.5004         54.7504
 23  1 10  1  6  0.0000000  0 11G08G22G24G23G10G21G12G31G01G25G32
  -5621308.56345  -4351466.24745  25379537.0554                   25379530.6804
        33.7504         31.7504
 -15759388.21347 -13074474.78446  20772820.4774                   20772809.2974
        46.7504         41.2504
  -8396261.27954  -7295443.36352  25137777.5944                   25137769.7544
        29.7504         14.7504
   -493878.47846  -4376791.03644  23817759.7424                   23817748.9144
        39.0004         24.0004
 -23736049.35548 -18365873.08649  21249750.8134                   21249741.8594
        50.0004         54.0004
 -18814244.13047 -13968818.99846  22301943.4144                   22301931.9414
        46.2504         36.0004
  -4559098.32245  -3520231.43643  24800980.6724                   24800971.6604
        35.2504         19.7504
 -17422016.80947 -13507616.71548  22019868.1644                   22019856.9844
        46.0004         49.2504
 -12164141.37247  -9816486.14247  22661921.0394                   22661913.1994
        42.0004         42.0004
  -5545467.86545  -4430636.73145  24259836.3674                   24259828.9964
        34.7504         32.0004
 -25215521.11148 -21065307.32549  20657891.5314                   20657882.4614
        53.5004         54.7504
 23  1 10  1  6 30.0000000  0 10G08G22G23G10G21G12G31G01G25G32
                                  25394825.1174                   25394816.8674
        35.7504         29.7504
 -15785908.45048 -13095139.89546  20767773.6804                   20767762.2074
        48.0004         41.0004
   -402899.59846  -4305898.45044  23835072.3524                   23835061.6994
        38.5004         25.0004
 -23685503.30248 -18326486.56149  21259369.7194                   21259360.9414
        49.2504         54.0004
 -18839389.16647 -13988412.54546  22297159.4614                   22297147.0514
        47.2504         37.0004
  -4603324.86045  -3554693.59543  24792562.2114                   24792555.0744
        35.7504         19.7504
 -17521426.65847 -13585078.90148  22000951.3524                   22000939.4694
        46.2504         49.0004
 -12240154.44946  -9875717.10247  22647455.6804                   22647447.9574
        41.2504         42.2504
  -5616551.01045  -4486026.16345  24246309.8914                   24246302.0514
        35.2504         32.0004
 -25191643.97949 -21046701.77449  20662435.1564                   20662425.6174
        54.0004         54.7504
 23  1 10  1  7  0.0000000  0 10G08G22G23G10G21G12G31G01G25G32
  -7036020.21646  -5453839.02145  25410120.9774                   25410112.9614
        36.5004         31.7504
 -15812112.36847 -13115558.51946  20762786.9454                   20762775.8244
        47.0004         41.5004
   -311758.44046  -4234879.42744  23852414.8134                   23852405.5084
        38.2504         25.0004
 -23634630.33948 -18286845.30349  21269050.1484                   21269041.4884
        49.0004         54.0004
 -18864078.10147 -14007650.66846  22292460.7504                   22292448.9844
        47.0004         37.2504
  -4647109.21545  -3588811.31143  24784232.5944                   24784221.9414
        35.0004         18.2504
 -17620498.68047 -13662277.84148  21982098.3134                   21982087.1914
        45.7504         49.2504
 -12315719.83346  -9934599.21547  22633076.7274                   22633068.4184
        41.5004         42.0004
  -5687347.08145  -4541191.91345  24232837.7194                   24232830.6414
        34.7504         32.7504
 -25167465.83648 -21027861.66249  20667035.7814                   20667026.6524
        53.5004         54.7504
 23  1 10  1  7 30.0000000  0 10G08G22G23G10G21G12G31G01G25G32
  -6955572.18156  -5391152.30855  25425429.9384                   25425421.8054
        36.5004         30.0004
 -15837986.54447 -13135720.20546  20757863.3054                   20757852.2424
        47.5004         41.5004
   -220441.92346  -4163723.73944  23869793.1484                   23869782.6724
        38.7504         25.0004
 -23583416.87648 -18246938.72448  21278796.5234                   21278786.9264
        49.2504         53.7504
 -18888296.51447 -14026522.17346  22287852.2894                   22287840.5824
        47.2504         37.2504
  -4690435.12946  -3622571.70643  24775990.5084                   24775976.9844
        37.2504         19.0004
 -17719216.26047 -13739200.59848  21963313.4454                   21963301.8554
        47.5004         49.2504
 -12390820.94747  -9993119.55947  22618785.5314                   22618777.3984
        42.0004         42.2504
  -5757839.07045  -4596120.71345  24219423.6724                   24219416.3594
        35.0004         33.0004
 -25142973.78648 -21008776.95149  20671696.5394                   20671687.2934
        53.0004         54.7504
 23  1 10  1  8  0.0000000  0 10G08G22G23G10G21G12G31G01G25G32
  -6875068.51655  -5328422.26955  25440748.3594                   25440742.0434
        33.0004         32.2504
 -15863537.84647 -13155630.29546  20753001.1414                   20752989.7274
        47.0004         41.5004
   -128957.33446  -4092437.10744  23887201.1414                   23887191.8364
        37.5004         24.2504
 -23531869.31048 -18206771.79148  21288605.1024                   21288595.9144
        48.5004         53.5004
 -18912049.76047 -14045031.19946  22283332.2814                   22283320.5164
        47.5004         36.7504
  -4733306.97145  -3655978.31743  24767829.8134                   24767819.3954
        35.0004         20.7504
 -17817583.01847 -13815849.98148  21944593.9224                   21944583.0354
        46.2504         49.2504
 -12465461.78247 -10051281.23947  22604581.6484                   22604573.6334
        43.0004         42.5004
  -5828030.35845  -4650815.18945  24206065.7814                   24206058.5864
        34.2504         32.2504
 -25118175.48548 -20989453.60149  20676415.7424                   20676406.2624
        52.5004         54.7504
 23  1 10  1  8 30.0000000  0 10G08G22G23G10G21G12G31G01G25G32
  -6794506.17655  -5265646.92855  25456076.3914                   25456073.2424
        31.5004         32.0004
 -15888760.41748 -13175284.22846  20748201.6954                   20748190.3984
        48.0004         41.0004
    -37299.35646  -4021015.37444  23904643.1174                   23904633.4024
        38.2504         24.5004
 -23479981.53648 -18166339.77548  21298478.9304                   21298469.7424
        49.0004         53.5004
 -18935331.20447 -14063172.59246  22278901.9614                   22278890.1374
        46.2504         36.7504
  -4775716.31145  -3689024.50643  24759760.1024                   24759748.7464
        35.5004         18.2504
 -17915589.99047 -13892219.01248  21925944.4304                   21925933.0164
        46.5004         49.5004
 -12539633.74046 -10109077.57247  22590467.4534                   22590459.3204
        41.0004         42.2504
  -5897911.68845  -4705268.13945  24192767.5394                   24192760.5204
        35.0004         31.7504
 -25093065.92848 -20969887.72049  20681193.8834                   20681184.5204
        53.2504         54.7504
 23  1 10  1  9  0.0000000  0 10G08G22G23G10G21G12G31G01G25G32
  -6713887.38245  -5202827.07144  25471424.2734                   25471412.5084
        35.5004         29.5004
 -15913657.41547 -13194684.47047  20743463.7194                   20743452.5394
        47.0004         42.0004
     54528.51946  -3949461.22944  23922117.2504                   23922107.4184
        37.7504         24.5004
 -23427756.33748 -18125644.82248  21308417.1174                   21308407.8714
        48.5004         53.5004
 -18958142.35347 -14080947.51646  22274560.6414                   22274549.5204
        46.0004         37.0004
  -4817663.46646  -3721710.60843  24751777.7114                   24751766.2974
        36.0004         19.0004
 -18013236.79947 -13968307.40148  21907361.7584                   21907351.2814
        45.5004         49.5004
 -12613336.71647 -10166508.44847  22576442.3914                   22576433.5554
        42.2504         42.2504
  -5967482.47545  -4759479.13045  24179529.4064                   24179522.4454
        35.0004         33.2504
 -25067648.71748 -20950082.09949  20686030.7114                   20686021.1134
        53.2504         54.7504
 23  1 10  1  9 30.0000000  0 10G08G22G23G10G21G12G31G01G25G32
  -6633219.43055  -5139968.91955  25486771.1174                   25486764.2734
        35.0004         32.7504
 -15938231.58447 -13213833.17046  20738787.1954                   20738776.3674
        47.5004         41.0004
    146523.60846  -3877776.81744  23939623.9844                   23939613.8594
        38.5004         25.7504
 -23375195.93048 -18084688.67148  21318419.1954                   21318409.7734
        49.7504         53.2504
 -18980484.70947 -14098357.14146  22270308.8364                   22270297.7154
        46.2504         37.2504
  -4859148.23346  -3754036.40043  24743884.8524                   24743871.9144
        37.0004         19.5004
 -18110522.81047 -14044114.64948  21888849.7894                   21888838.6094
        46.7504         49.5004
 -12686570.28147 -10223573.57547  22562505.9224                   22562498.0234
        42.2504         42.2504
  -6036741.59945  -4813447.25645  24166349.8284                   24166342.8094
        34.7504         32.7504
 -25041927.06448 -20930039.25049  20690925.2034                   20690915.7814
        52.7504         55.0004
 23  1 10  1 10  0.0000000  0 10G08G22G23G10G21G12G31G01G25G32
  -6552503.09244  -5077073.09245  25502127.8364                   25502123.3404
        29.2504         30.5004
 -15962481.58247 -13232729.25846  20734172.6644                   20734161.5434
        47.0004         41.2504
    238686.44046  -3805961.68043  23957162.2424                   23957152.2344
        37.7504         22.7504
 -23322299.03648 -18043470.32248  21328485.0474                   21328475.8014
        48.5004         53.2504
 -19002355.81947 -14115399.56846  22266147.5164                   22266135.9264
        45.2504         37.0004
  -4900166.51246  -3785998.71343  24736078.0164                   24736066.8364
        36.7504         20.2504
 -18207443.61547 -14119637.31948  21870405.8984                   21870394.9534
        46.5004         49.5004
 -12759330.35447 -10280269.71947  22548659.9304                   22548652.1484
        42.0004         42.0004
  -6105684.53145  -4867169.00445  24153229.9224                   24153223.3714
        34.2504         33.2504
 -25015900.36448 -20909758.70749  20695878.0474                   20695868.2154
        52.5004         54.7504
 23  1 10  1 10 30.0000000  0 10G08G22G23G10G21G12G31G01G25G32
  -6471742.15245  -5014142.55145  25517499.4384                   25517492.0084
        34.2504         31.0004
 -15986407.98347 -13251373.19446  20729619.7114                   20729608.5314
        47.7504         41.5004
    331016.24146  -3734016.44543  23974731.0314                   23974721.4344
        37.0004         21.5004
 -23269065.51348 -18001989.67748  21338614.7664                   21338605.7544
        48.0004         53.0004
 -19023754.87147 -14132074.15646  22262075.6334                   22262063.7504
        47.7504         37.2504
  -4940716.44446  -3817596.01143  24728361.7974                   24728351.7304
        36.7504         21.5004
 -18303996.61947 -14194873.40448  21852032.9384                   21852021.5824
        46.7504         50.0004
 -12831614.56146 -10336595.06347  22534905.8754                   22534896.1604
        41.5004         42.0004
  -6174308.22945  -4920641.97645  24140171.2974                   24140164.4534
        34.7504         32.2504
 -24989569.95348 -20889241.51349  20700888.2344                   20700878.6954
        51.7504         55.0004
 23  1 10  1 11  0.0000000  0 10G08G22G23G10G21G12G31G01G25G32
  -6390939.94545  -4951179.71345  25532875.6954                   25532868.4414
        33.5004         32.0004
 -16010012.00348 -13269765.92846  20725128.1254                   20725116.6524
        48.0004         41.0004
    423511.47346  -3661942.28143  23992333.6804                   23992322.9104
        38.2504         22.2504
 -23215496.61748 -17960247.68848  21348809.2194                   21348799.7384
        49.5004         53.2504
 -19044682.21047 -14148381.19346  22258093.2584                   22258081.6684
        47.5004         37.7504
  -4980796.29346  -3848827.04743  24720735.7504                   24720724.5124
        38.0004         21.2504
 -18400179.31047 -14269820.92648  21833730.0314                   21833718.4414
        46.2504         50.0004
 -12903420.92546 -10392548.09147  22521240.4384                   22521232.5394
        40.2504         42.0004
  -6242610.21445  -4973864.28045  24127174.2734                   24127167.1374
        35.0004         32.2504
 -24962937.48348 -20868488.93549  20705956.5474                   20705947.0664
        52.7504         55.0004
 23  1 10  1 11 30.0000000  0 10G08G22G23G10G21G12G31G01G25G32
  -6310097.87055  -4888185.96355  25548259.8364                   25548251.4104
        35.7504         32.0004
 -16033292.93948 -13287906.90546  20720697.8054                   20720686.6844
        48.0004         41.2504
    516172.58946  -3589738.88443  24009965.8674                   24009955.8014
        37.5004         23.0004
 -23161590.68948 -17918243.08848  21359067.0474                   21359057.5084
        49.0004         53.2504
 -19065135.93147 -14164319.15846  22254201.2814                   22254189.3984
        47.2504         37.5004
  -5020402.83246  -3879689.27643  24713198.5394                   24713187.3014
        37.2504         21.0004
 -18495987.76847 -14344476.84548  21815497.8834                   21815486.7034
        47.0004         50.0004
 -12974745.82546 -10448125.91047  22507668.2584                   22507659.5394
        41.2504         42.0004
  -6310586.01546  -5026832.40645  24114239.7504                   24114231.6174
        36.2504         33.2504
 -24936002.77348 -20847500.84449  20711081.8594                   20711072.6134
        51.7504         54.7504
 23  1 10  1 12  0.0000000  0 10G08G22G23G10G21G12G31G01G25G32
  -6229220.46155  -4825164.70054  25563652.9844                   25563648.1954
        34.7504         28.2504
 -16056252.19147 -13305797.22546  20716328.8054                   20716317.6254
        47.5004         41.2504
    608997.62946  -3517407.76343  24027629.9144                   24027620.1994
        38.5004         22.5004
 -23107349.60348 -17875977.31548  21369388.5784                   21369379.5084
        48.5004         53.0004
 -19085116.35347 -14179888.32646  22250398.9224                   22250386.9224
        46.7504         37.2504
  -5059534.90846  -3910181.79443  24705750.4454                   24705741.0824
        36.7504         19.7504
 -18591420.51847 -14418840.00548  21797337.5234                   21797326.4024
        46.5004         50.0004
 -13045587.76147 -10503327.43547  22494187.8524                   22494178.7234
        42.2504         42.0004
  -6378233.78245  -5079544.92145  24101365.5004                   24101359.0664
        35.0004         33.0004
 -24908768.06148 -20826279.00249  20716264.2894                   20716255.0434
        51.2504         54.7504
 23  1 10  1 12 30.0000000  0  9G22G23G10G21G12G31G01G25G32
 -16078881.20747 -13323430.21446  20712022.8204                   20712011.5824
        47.5004         41.5004
    701995.06846  -3444942.28743  24045327.1174                   24045316.9344
        38.5004         22.7504
 -23052763.69648 -17833442.86348  21379775.8204                   21379766.9264
        48.5004         53.0004
 -19104613.12347 -14195080.61446  22246688.2504                   22246676.8364
        45.7504         37.5004
  -5098180.96446  -3940295.57443  24698397.5474                   24698387.3634
        37.5004         20.2504
 -18686465.39647 -14492900.92748  21779250.5704                   21779240.3284
        46.0004         50.0004
 -13115935.00246 -10558143.46747  22480800.2424                   22480792.5204
        41.2504         42.0004
  -6445541.08045  -5131992.13645  24088557.4614                   24088550.8524
        34.2504         32.7504
 -24881225.06348 -20804816.92549  20721505.6884                   20721496.5004
        51.7504         54.7504
 23  1 10  1 13  0.0000000  0 10G08G22G23G10G21G12G31G01G25G32
                                  25594453.1564                   25594447.1334
        36.2504         22.0004
 -16101197.55048 -13340819.56646  20707775.9774                   20707764.5044
        48.2504         41.0004
    795146.84846  -3372356.60143  24063052.6804                   24063043.6094
        37.5004         22.7504
 -22997850.59248 -17790653.43848  21390225.3204                   21390216.6024
        48.5004         53.0004
 -19123643.14948 -14209909.20446  22243067.5314                   22243055.8834
        48.5004         38.2504
  -5136355.96045  -3970042.30743  24691132.7974                   24691123.1414
        35.7504         19.7504
 -18781136.60947 -14566670.67748  21761235.8134                   21761224.6914
        46.5004         50.2504
 -13185802.29947 -10612585.50547  22467505.2114                   22467496.4344
        42.2504         42.2504
  -6512522.05345  -5184185.06245  24075812.0394                   24075804.5514
        35.5004         32.5004
 -24853392.13448 -20783128.93149  20726802.4304                   20726792.9494
        51.0004         55.0004
 23  1 10  1 13 30.0000000  0 10G08G22G23G10G21G12G31G01G25G32
   -393760.03645  -4699143.82945  25609853.2424                   25609850.3874
        30.7504         30.2504
 -16123201.82048 -13357965.75046  20703588.9064                   20703577.2584
        48.0004         41.0004
    888451.42146  -3299651.79343  24080808.2274                   24080798.1024
        38.2504         21.7504
 -22942611.09548 -17747609.68948  21400737.2584                   21400728.2464
        49.0004         53.0004
 -19142206.76148 -14224374.36146  22239535.6644                   22239523.3714
        48.0004         37.5004
  -5174058.63645  -3999420.95443  24683957.1024                   24683948.3244
        35.7504         19.7504
 -18875432.31047 -14640147.81948  21743292.1174                   21743280.8794
        46.5004         50.5004
 -13255187.86446 -10666652.19147  22454301.9064                   22454292.6604
        41.7504         42.0004
  -6579174.23345  -5236121.79745  24063127.3134                   24063120.7034
        34.5004         31.7504
 -24825270.96448 -20761216.32449  20732153.3754                   20732143.8364
        51.5004         55.0004
 23  1 10  1 14  0.0000000  0 10G08G22G23G10G21G12G31G01G25G32
                                  25625265.6174                   25625266.5704
        23.7504         28.0004
 -16144867.75947 -13374848.28046  20699465.9384                   20699454.5824
        47.0004         41.0004
    981935.84846  -3226806.86243  24098598.1334                   24098588.1254
        37.7504         22.2504
 -22887017.60248 -17704290.10248  21411316.8984                   21411307.5354
        49.5004         53.0004
 -19160274.73547 -14238453.31246  22236096.9384                   22236085.0554
        47.5004         37.7504
  -5211258.74445  -4028408.04543  24676878.0704                   24676869.3524
        35.2504         21.5004
 -18969321.88847 -14713308.51348  21725425.0704                   21725414.3594
        46.0004         50.5004
 -13324061.38247 -10720319.87547  22441196.2974                   22441187.4614
        42.5004         42.7504
  -6645466.80545  -5287778.32245  24050512.3524                   24050504.9224
        34.7504         32.5004
 -24796834.81448 -20739058.28949  20737564.5394                   20737555.2934
        50.2504         55.2504
 23  1 10  1 14 30.0000000  0 10G08G22G23G10G21G12G31G01G25G32
   -231746.93655  -4582371.33955  25640682.7974                   25640680.3524
        32.0004         30.7504
 -16166236.03547 -13391498.86946  20695399.5474                   20695388.3094
        46.2504         41.0004
   1075558.69546  -3153854.10043  24116413.9844                   24116404.2114
        37.5004         22.0004
 -22831110.58848 -17660726.21248  21421955.0704                   21421946.4104
        48.5004         53.0004
 -19177887.23847 -14252177.34246  22232745.3364                   22232733.5124
        46.0004         37.7504
  -5247995.12345  -4057033.74243  24669887.6954                   24669878.1564
        35.5004         21.2504
 -19062843.15547 -14786182.20448  21707629.2974                   21707618.0594
        47.0004         50.7504
 -13392460.99346 -10773618.25547  22428179.4844                   22428171.1174
        41.7504         42.5004
  -6711437.19546  -5339183.79145  24037960.7974                   24037951.9024
        36.2504         33.0004
 -24768125.28748 -20716687.22849  20743028.0554                   20743018.8094
        50.5004         54.7504
 23  1 10  1 15  0.0000000  0 11G08G03G22G23G10G21G12G31G01G25G32
   -150711.32755  -4519226.78454  25656102.1954                   25656099.6914
        30.5004         27.0004
                                  25587906.758
        25.250
 -16187271.20947 -13407889.90646  20691396.8594                   20691385.6804
        47.5004         41.0004
   1169354.55946  -3080766.48143  24134262.6024                   24134253.0044
        38.0004         22.5004
 -22774854.90948 -17616890.63648  21432659.9924                   21432651.2154
        48.0004         52.7504
 -19195008.56347 -14265518.64446  22229487.4454                   22229475.3284
        47.0004         37.5004
  -5284229.77046  -4085268.52343  24662992.8204                   24662982.3444
        37.5004         21.0004
 -19155957.67547 -14858738.94748  21689909.8134                   21689898.8674
        46.5004         51.0004
 -13460348.76246 -10826517.82447  22415260.6094                   22415252.3594
        41.5004         42.7504
  -6777046.83845  -5390308.17145  24025474.2194                   24025466.9064
        34.7504         33.0004
 -24739108.00248 -20694076.35249  20748549.8834                   20748540.0514
        50.7504         55.2504
 23  1 10  1 15 30.0000000  0 10G08G22G23G10G21G12G31G01G25G32
    -69661.31945  -4464869.69054  25671528.0784                   25671520.6484
        33.5004         28.2504
 -16207988.94948 -13424033.58446  20687454.5704                   20687442.6884
        48.0004         41.0004
   1263307.77546  -3007556.30343  24152140.3984                   24152131.6804
        36.2504         20.7504
 -22718265.85848 -17572795.28748  21443429.2034                   21443420.0164
        48.5004         53.0004
 -19211652.75247 -14278488.14246  22226319.2424                   22226307.7114
        47.0004         37.2504
  -5319975.80846  -4113122.57143  24656191.9924                   24656179.9344
        37.7504         21.5004
 -19248677.80047 -14930988.37948  21672265.4614                   21672254.5164
        47.0004         51.2504
 -13527737.21947 -10879028.30147  22402437.2894                   22402429.2734
        42.2504         43.2504
  -6842307.58245  -5441160.68045  24013055.2344                   24013048.8594
        34.5004         33.0004
 -24709798.90348 -20671238.09449  20754127.1724                   20754117.8674
        50.0004         55.5004
 23  1 10  1 16  0.0000000  0 11G08G03G22G23G10G21G12G31G01G25G32
     11402.33755  -4401703.29554  25686953.5554                   25686948.1764
        32.5004         28.7504
                                  25549735.3364                   25549724.9774
        33.5004         26.0004
 -16228388.23748 -13439929.12446  20683572.4454                   20683561.0904
        48.0004         41.0004
   1357418.97146  -2934222.94543  24170050.1804                   24170040.2304
        38.2504         21.2504
 -22661341.57848 -17528438.71548  21454261.3754                   21454252.5394
        48.2504         52.7504
 -19227817.75947 -14291084.26546  22223243.7034                   22223231.7034
        47.2504         37.5004
  -5355229.39046  -4140592.84943  24649482.5554                   24649472.0784
        37.0004         21.2504
 -19340998.88747 -15002926.85748  21654697.4224                   21654686.3594
        47.0004         51.2504
 -13594622.32147 -10931146.55947  22389709.2344                   22389701.1024
        42.0004         43.5004
  -6907214.87445  -5491737.74845  24000703.5784                   24000697.2034
        34.7504         33.5004
 -24680197.48248 -20648172.04249  20759760.0944                   20759750.9654
        49.7504         55.0004
 23  1 10  1 16 30.0000000  0 11G08G03G22G23G10G21G12G31G01G25G32
     92474.58845  -4338530.21444  25702382.4614                   25702375.3244
        35.0004         27.5004
   -619883.34345   -548422.80544  25530636.5394                   25530627.9384
        31.5004         25.7504
 -16248471.20248 -13455578.17146  20679750.7194                   20679739.1884
        48.2504         41.0004
   1451685.63346  -2860768.54343  24187988.2664                   24187979.2544
        36.7504         22.7504
 -22604084.63648 -17483822.93548  21465156.8444                   21465148.3594
        48.2504         52.7504
 -19243504.60347 -14303307.78546  22220258.6724                   22220246.7894
        47.2504         37.5004
  -5389990.37246  -4167679.33243  24642869.4144                   24642857.0044
        38.2504         20.7504
 -19432920.22247 -15074553.85448  21637205.6254                   21637194.3284
        47.0004         51.5004
 -13661003.46147 -10982872.09747  22377077.6414                   22377068.6884
        42.0004         43.2504
  -6971767.25845  -5542038.26045  23988419.7194                   23988413.1684
        35.5004         33.5004
 -24650306.47248 -20624880.34149  20765448.1954                   20765438.8324
        50.0004         55.0004
 23  1 10  1 17  0.0000000  0 11G08G03G22G23G10G21G12G31G01G25G32
    173560.25445  -4275346.52044  25717813.4454                   25717805.0784
        35.7504         28.5004
                                  25511530.9694                   25511523.5394
        32.5004         28.5004
 -16268230.85547 -13470975.28846  20675990.2584                   20675979.1954
        47.5004         41.0004
   1546114.33146  -2787187.82443  24205957.7194                   24205948.6484
        37.0004         21.5004
 -22546487.18648 -17438941.82248  21476117.2344                   21476108.4574
        48.5004         52.5004
 -19258705.47547 -14315152.62446  22217366.4454                   22217354.6214
        47.0004         37.2504
  -5424249.46846  -4194374.76143  24636350.5314                   24636336.3054
        38.5004         20.5004
 -19524431.65947 -15145861.44048  21619791.5394                   21619780.2424
        47.5004         51.5004
 -13726870.68647 -11034197.23547  22364543.9144                   22364534.7854
        43.0004         44.0004
  -7035954.30545  -5592054.12745  23976204.9614                   23976198.1174
        34.5004         32.5004
 -24620119.52548 -20601358.03849  20771192.5004                   20771183.1954
        50.2504         55.0004
 23  1 10  1 17 30.0000000  0 11G08G03G22G23G10G21G12G31G01G25G32
    254643.98945  -4212164.39244  25733242.6954                   25733235.5004
        35.5004         29.2504
   -820720.82845   -704919.31444  25492417.7584                   25492409.0394
        31.0004         27.2504
 -16287680.25947 -13486130.66346  20672289.3444                   20672278.1644
        47.5004         41.0004
   1640691.72346  -2713491.26143  24223954.6174                   24223946.4844
        36.0004         21.5004
 -22488562.36648 -17393805.61548  21487140.2114                   21487131.1414
        48.5004         52.5004
 -19273432.17648 -14326627.99146  22214563.5084                   22214552.0354
        48.0004         37.5004
  -5458016.88546  -4220687.03343  24629923.5634                   24629910.0394
        38.5004         20.2504
 -19615542.96447 -15216857.23648  21602453.3444                   21602442.2234
        47.5004         51.5004
 -13792234.26546 -11085129.86247  22352104.5004                   22352096.9534
        41.5004         43.5004
  -7099785.52645  -5641792.72045  23964058.3834                   23964050.4264
        35.0004         32.0004
 -24589650.21648 -20577615.71549  20776990.3914                   20776981.5554
        49.7504         55.0004
 23  1 10  1 18  0.0000000  0 11G08G03G22G23G10G21G12G31G01G25G32
    335729.67145  -4148980.67044  25748669.5164                   25748664.1954
        33.0004         27.0004
   -921202.06245   -783216.37744  25473295.1804                   25473288.4534
        30.5004         26.2504
 -16306813.65848 -13501039.78846  20668648.5084                   20668637.2704
        48.0004         41.0004
   1735423.32846  -2639674.50343  24241981.9774                   24241972.4964
        36.7504         21.2504
 -22430303.65047 -17348409.23348  21498225.5314                   21498217.4574
        47.2504         52.5004
 -19287678.00147 -14337728.64046  22211852.5944                   22211841.4144
        47.7504         37.2504
  -5491284.20746  -4246609.59043  24623594.1024                   24623580.0514
        38.7504         21.5004
 -19706244.79147 -15287533.96348  21585193.7344                   21585182.3794
        47.2504         51.5004
 -13857085.37747 -11135663.19747  22339765.3594                   22339755.8204
        43.0004         44.2504
  -7163251.51146  -5691246.72845  23951982.3754                   23951974.0084
        36.2504         33.2504
 -24558893.12348 -20553649.15049  20782843.0164                   20782834.1804
        49.0004         55.0004
 23  1 10  1 18 30.0000000  0 11G08G03G22G23G10G21G12G31G01G25G32
    416817.03046  -4085795.73745  25764104.0864                   25764097.3594
        37.5004         30.0004
  -1021718.63155   -861540.96354  25454168.5084                   25454161.7814
        31.5004         28.5004
 -16325628.92748 -13515701.01846  20665067.7344                   20665057.1994
        48.2504         41.0004
   1830310.77346  -2565736.36143  24260039.1254                   24260029.5274
        37.5004         21.0004
 -22371709.00747 -17302751.08548  21509376.4454                   21509367.6094
        47.7504         52.5004
 -19301439.77847 -14348452.10546  22209234.0944                   22209222.1524
        47.2504         37.2504
  -5524047.17346  -4272139.21443  24617359.1414                   24617344.4454
        39.0004         20.7504
 -19796532.25847 -15357887.79948  21568011.9064                   21568000.9614
        47.0004         51.5004
 -13921419.06746 -11185793.37547  22327522.0084                   22327513.2894
        41.5004         44.0004
  -7226346.61346  -5740411.71945  23939974.7034                   23939967.3914
        36.2504         33.2504
 -24527846.76148 -20529457.16749  20788751.4304                   20788742.0664
        49.5004         55.0004
 23  1 10  1 19  0.0000000  0 11G08G03G22G23G10G21G12G31G01G25G32
    497899.34846  -4022614.65144  25779534.1024                   25779525.6764
        36.2504         28.2504
  -1122272.74445   -939894.81444  25435033.1644                   25435026.7304
        32.7504         27.5004
 -16344129.81248 -13530117.27946  20661547.6564                   20661535.9494
        48.0004         41.0004
   1925350.09946  -2491679.83343  24278124.4224                   24278115.4104
        36.0004         22.0004
 -22312781.91447 -17256833.87848  21520589.4304                   21520581.0044
        47.5004         52.2504
 -19314720.12947 -14358800.44446  22206706.4304                   22206694.7814
        47.2504         37.2504
  -5556306.87746  -4297276.65843  24611219.6644                   24611205.3204
        38.5004         20.5004
 -19886405.65347 -15427919.00248  21550910.1724                   21550898.9344
        47.5004         51.5004
 -13985236.30647 -11235521.05647  22315377.7894                   22315370.2424
        42.5004         44.2504
  -7289070.99845  -5789287.83645  23928038.6564                   23928032.8674
        35.2504         33.7504
 -24496515.40548 -20505043.11349  20794713.6254                   20794704.2624
        50.0004         55.2504
 23  1 10  1 19 30.0000000  0 11G08G03G22G23G10G21G12G31G01G25G32
    578976.61945  -3959437.60644  25794960.2424                   25794954.5704
        33.7504         28.2504
  -1222862.04144  -1018276.08144  25415889.6954                   25415883.8484
        29.2504         26.7504
 -16362315.44748 -13544287.88646  20658086.6484                   20658075.3524
        48.2504         41.0004
   2020541.81145  -2417504.60343  24296237.8754                   24296229.2154
        35.5004         21.0004
 -22253520.78247 -17210656.40748  21531867.4534                   21531858.1484
        47.7504         52.2504
 -19327517.29948 -14368772.27146  22204271.9384                   22204259.7624
        48.0004         37.2504
  -5588059.84946  -4322019.23343  24605177.4304                   24605163.2034
        38.0004         20.5004
 -19975860.82247 -15497624.30848  21533887.3914                   21533875.7424
        47.7504         51.7504
 -14048533.21347 -11284843.32647  22303333.7344                   22303324.7234
        42.5004         44.2504
  -7351420.25445  -5837871.64945  23916175.2344                   23916168.0394
        35.2504         34.7504
 -24464898.65448 -20480406.68249  20800729.9924                   20800720.9224
        50.5004         55.0004
 23  1 10  1 20  0.0000000  0 11G08G03G22G23G10G21G12G31G01G25G32
    660044.34655  -3896267.85854  25810387.2194                   25810380.3164
        33.7504         27.7504
  -1323486.20645  -1096684.50045  25396743.7344                   25396736.7734
        33.5004         30.5004
 -16380186.88347 -13558213.67046  20654685.7424                   20654674.3284
        47.5004         41.0004
   2115884.32846  -2343211.80043  24314382.3364                   24314372.3284
        36.0004         21.7504
 -22193926.80747 -17164219.56248  21543207.3594                   21543198.2894
        47.7504         52.2504
 -19339831.76047 -14378367.96946  22201928.2034                   22201916.1454
        47.7504         37.2504
  -5619304.81146  -4346365.94143  24599230.9224                   24599217.3404
        37.5004         19.5004
 -20064895.84347 -15567002.23248  21516944.5554                   21516933.2584
        47.7504         51.7504
 -14111308.28246 -11333758.97147  22291386.5474                   22291378.5314
        41.0004         44.0004
  -7413392.11345  -5886161.37845  23904380.6724                   23904374.4734
        34.7504         33.7504
 -24432998.19048 -20455549.17449  20806799.9924                   20806791.0984
        49.5004         55.5004
 23  1 10  1 20 30.0000000  0 11G08G03G22G23G10G21G12G31G01G25G32
    741099.41446  -3841911.04154  25825813.9384                   25825804.8094
        36.5004         27.2504
  -1424144.18745  -1175119.25644  25377590.1414                   25377582.1254
        33.0004         29.5004
 -16397744.87048 -13571895.20746  20651345.0234                   20651333.3754
        48.7504         41.2504
   2211376.78646  -2268802.22343  24332553.9694                   24332544.8984
        36.0004         22.5004
 -22134000.25347 -17117523.56148  21554611.1254                   21554602.3484
        47.7504         52.2504
 -19351662.59947 -14387586.81946  22199677.4144                   22199664.8284
        47.7504         37.5004
  -5650039.97646  -4370315.47043  24593383.0864                   24593369.2704
        37.2504         18.5004
 -20153508.02447 -15636050.65748  21500082.2504                   21500070.8364
        47.5004         51.7504
 -14173559.18647 -11382266.16047  22279541.3834                   22279533.6604
        42.5004         44.2504
  -7474983.67046  -5934154.75945  23892660.7424                   23892653.5474
        36.0004         33.5004
 -24400815.16248 -20430471.49149  20812924.5234                   20812915.5704
        50.0004         55.0004
 23  1 10  1 21  0.0000000  0 11G08G03G22G23G10G21G12G31G01G25G32
    822140.15245  -3778762.36443  25841229.9454                   25841225.9774
        30.5004         22.7504
  -1524834.63445  -1253579.28244  25358427.9064                   25358419.9494
        32.0004         28.2504
 -16414989.18248 -13585332.32346  20648063.5314                   20648051.8244
        48.7504         41.2504
   2307018.74746  -2194276.16343  24350754.2504                   24350745.0044
        36.0004         20.0004
 -22073740.90847 -17070568.24848  21566077.8284                   21566068.8754
        47.5004         52.0004
 -19363009.21748 -14396428.33846  22197517.9384                   22197505.9964
        48.0004         37.7504
  -5680263.16246  -4393865.99243  24587631.1414                   24587617.7344
        37.5004         19.0004
 -20241694.24247 -15704767.16848  21483300.9774                   21483289.5634
        47.5004         51.7504
 -14235283.13047 -11430362.75247  22267796.1484                   22267788.0744
        42.5004         44.2504
  -7536191.42145  -5981849.06645  23881013.3594                   23881004.6994
        35.2504         32.0004
 -24368350.03548 -20405173.98749  20819102.8054                   20819093.5594
        50.2504         54.7504
 23  1 10  1 21 30.0000000  0 11G08G03G22G23G10G21G12G31G01G25G32
    903162.66445  -3715627.89144  25856650.1334                   25856644.5784
        33.5004         28.7504
  -1625557.16645  -1332064.33245  25339262.0864                   25339254.7154
        34.5004         31.5004
 -16431921.21048 -13598526.08946  20644841.3054                   20644830.0664
        48.7504         41.2504
   2402808.53746  -2119634.86543  24368982.2344                   24368972.8714
        36.0004         21.2504
 -22013149.94647 -17023354.52748  21577608.0394                   21577599.2034
        47.5004         51.7504
 -19373871.95247 -14404892.81646  22195450.1804                   22195438.7074
        47.7504         37.2504
  -5709973.05446  -4417016.59843  24581978.3284                   24581964.1604
        37.7504         20.2504
 -20329452.77247 -15773150.41948  21466601.3594                   21466589.9454
        47.5004         51.7504
 -14296478.71246 -11478047.60747  22256149.2814                   22256141.3834
        40.7504         43.2504
  -7597013.02346  -6029242.58645  23869439.7274                   23869431.7704
        36.7504         34.0004
 -24335604.65348 -20379658.09849  20825333.8754                   20825324.6884
        50.2504         55.2504
 23  1 10  1 22  0.0000000  0 11G08G03G22G23G10G21G12G31G01G25G32
    984164.31145  -3652509.54343  25872065.3524                   25872057.8054
        33.7504         22.7504
  -1726310.56045  -1410573.41744  25320088.8754                   25320082.2664
        33.0004         28.5004
 -16448541.59148 -13611477.02746  20641678.5864                   20641667.2304
        48.5004         41.5004
   2498745.47645  -2044878.93143  24387238.1414                   24387229.1294
        35.2504         20.2504
 -21952227.45847 -16975882.47748  21589200.8984                   21589192.4144
        47.0004         51.7504
 -19384250.22547 -14412979.79846  22193475.4144                   22193463.8834
        46.5004         37.5004
  -5739167.57146  -4439765.52443  24576422.5234                   24576408.4144
        37.2504         19.0004
 -20416780.63647 -15841198.08748  21449982.7504                   21449971.7464
        47.5004         52.0004
 -14357143.40547 -11525318.81347  22244607.3054                   22244598.0004
        43.5004         44.2504
  -7657445.49846  -6076332.74645  23857940.0474                   23857931.7974
        37.0004         34.5004
 -24302579.86448 -20353924.49449  20831618.0234                   20831609.1294
        50.0004         54.7504
 23  1 10  1 22 30.0000000  0 11G08G03G22G23G10G21G12G31G01G25G32
   1065144.18345  -3589408.54444  25887475.3754                   25887469.4104
        35.0004         28.5004
  -1827093.06545  -1489105.18744  25300910.6724                   25300901.8954
        33.5004         27.7504
 -16464849.81448 -13624184.71646  20638575.1804                   20638563.7074
        48.0004         41.5004
   2594829.51245  -1970008.37243  24405522.9224                   24405513.5004
        35.5004         20.2504
 -21890972.74247 -16928151.55748  21600857.5084                   21600849.1414
        47.2504         51.7504
 -19394143.01247 -14420688.46446  22191593.0944                   22191581.2704
        47.5004         37.5004
  -5767844.63246  -4462111.31043  24570965.4384                   24570951.5044
        37.5004         19.5004
 -20503674.41347 -15908907.49948  21433447.3364                   21433436.0394
        47.2504         51.7504
 -14417274.14746 -11572173.94747  22233162.9064                   22233156.2384
        41.2504         44.0004
  -7717485.12845  -6123116.88045  23846512.7584                   23846508.0274
        34.0004         34.2504
 -24269275.86948 -20327973.32949  20837955.6414                   20837946.6294
        50.5004         54.7504
 23  1 10  1 23  0.0000000  0 11G08G03G22G23G10G21G12G31G01G25G32
   1146098.19745  -3526327.22144  25902879.5864                   25902873.7974
        32.5004         25.7504
  -1927904.07645  -1567659.26145  25281726.7974                   25281719.4264
        33.2504         31.2504
 -16480846.68447 -13636649.80346  20635531.3054                   20635519.5394
        47.5004         41.5004
   2691059.23245  -1895024.29843  24423834.9844                   24423825.3874
        35.5004         20.5004
 -21829386.61947 -16880162.39148  21612576.8284                   21612568.4024
        47.2504         51.5004
 -19403550.32547 -14428018.84246  22189802.9144                   22189791.1484
        47.5004         37.0004
  -5796002.38845  -4484052.47543  24565605.4144                   24565594.8794
        35.7504         18.2504
 -20590132.08747 -15976277.09548  21416995.0394                   21416983.7424
        47.7504         51.7504
 -14476869.32646 -11618611.72147  22221822.7734                   22221814.5824
        41.5004         43.7504
  -7777129.25246  -6169592.76545  23835166.1644                   23835157.6804
        37.2504         34.2504
 -24235694.17848 -20301805.78149  20844346.4064                   20844337.0434
        50.5004         55.0004
 23  1 10  1 23 30.0000000  0 11G08G03G22G23G10G21G12G31G01G25G32
   1227023.85345  -3463268.37244  25918278.2584                   25918272.4104
        33.0004         25.5004
  -2028742.61345  -1646234.70944  25262537.0554                   25262530.7384
        32.0004         29.7504
 -16496533.26747 -13648873.10046  20632545.8364                   20632534.5984
        47.5004         41.2504
   2787433.52945  -1819927.56343  24442174.1724                   24442165.1024
        35.0004         21.2504
 -21767469.53647 -16831915.33448  21624359.7584                   21624350.6884
        47.2504         51.2504
 -19412471.90247 -14434970.73446  22188105.1564                   22188093.4494
        47.0004         37.0004
  -5823639.41245  -4505587.77743  24560345.8834                   24560334.9384
        35.5004         18.2504
 -20676151.15447 -16043304.91748  21400626.5784                   21400615.1644
        47.7504         52.0004
 -14535926.73747 -11664630.51447  22210586.3674                   22210576.5944
        43.2504         44.0004
  -7836375.35245  -6215758.52345  23823889.9924                   23823883.2074
        35.5004         33.5004
 -24201835.96148 -20275422.75249  20850789.0394                   20850779.9694
        51.0004         55.0004
 23  1 10  1 24  0.0000000  0 10G03G22G23G10G21G12G31G01G25G32
  -2129606.55045  -1724829.97144  25243343.9614                   25243335.9454
        32.7504         29.2504
 -16511908.96648 -13660854.15646  20629620.2034                   20629608.5554
        48.2504         41.5004
   2883952.72545  -1744717.93043  24460540.6724                   24460532.1884
        34.7504         20.5004
 -21705220.96847 -16783409.98848  21636205.2504                   21636196.0044
        47.5004         51.0004
 -19420905.71147 -14441542.53746  22186500.6024                   22186488.6024
        47.0004         37.2504
  -5850752.62546  -4526714.97343  24555187.8834                   24555175.7664
        37.5004         19.0004
 -20761727.72747 -16109987.93548  21384341.3984                   21384330.2774
        47.7504         52.2504
 -14594443.14346 -11710227.72647  22199449.5864                   22199441.6884
        41.5004         44.0004
  -7895219.16846  -6261610.83745  23812693.0234                   23812685.1254
        36.7504         33.2504
 -24167701.14548 -20248824.18849  20857284.9384                   20857275.4574
        51.7504         54.7504
 23  1 10  1 24 30.0000000  0 10G03G22G23G10G21G12G31G01G25G32
  -2230497.64945  -1803446.42544  25224145.7274                   25224137.7114
        33.2504         29.7504
 -16526977.05848 -13672595.51646  20626752.5234                   20626741.5784
        48.2504         41.5004
   2980612.81845  -1669398.53843  24478934.5394                   24478926.2894
        34.2504         20.2504
 -21642643.90247 -16734648.65748  21648113.1334                   21648104.4734
        47.0004         51.0004
 -19428855.58247 -14447737.24946  22184986.8054                   22184975.5664
        46.0004         37.2504
  -5877343.32946  -4547435.02843  24550128.1484                   24550114.8594
        36.7504         19.2504
 -20846862.40047 -16176326.63048  21368140.9224                   21368129.7424
        47.5004         52.5004
 -14652419.41147 -11755404.00747  22188416.8754                   22188408.8594
        42.0004         44.0004
  -7953660.95246  -6307149.88445  23801571.6564                   23801562.3524
        36.2504         32.7504
 -24133293.73148 -20222013.21249  20863832.3914                   20863823.1454
        50.7504         54.7504
 23  1 10  1 25  0.0000000  0 10G03G22G23G10G21G12G31G01G25G32
  -2331413.20245  -1882081.87244  25204941.4304                   25204934.1764
        31.7504         29.2504
 -16541736.49048 -13684096.37547  20623943.9224                   20623932.8594
        48.2504         42.0004
   3077414.58245  -1593968.72343  24497356.1644                   24497346.8014
        35.0004         20.0004
 -21579736.98247 -16685630.30648  21660083.7114                   21660075.4024
        46.7504         51.0004
 -19436319.11447 -14453552.99346  22183567.0164                   22183555.4844
        46.5004         37.5004
  -5903408.56646  -4567745.58343  24545166.6644                   24545155.7774
        37.0004         19.2504
 -20931551.19947 -16242317.86548  21352024.9694                   21352013.7894
        47.5004         52.5004
 -14709851.63347 -11800156.41347  22177488.8524                   22177479.4884
        42.5004         44.2504
  -8011696.08146  -6352372.07145  23790529.4924                   23790520.8324
        37.7504         34.7504
 -24098613.09448 -20194989.34649  20870431.9614                   20870422.5394
        51.0004         55.0004
 23  1 10  1 25 30.0000000  0 10G03G22G23G10G21G12G31G01G25G32
  -2432351.96545  -1960735.41744  25185733.7034                   25185725.2774
        33.5004         29.5004
 -16556187.69948 -13695357.05446  20621194.5784                   20621183.0474
        48.7504         41.7504
   3174357.24245  -1518429.12043  24515804.0314                   24515794.9024
        35.0004         20.5004
 -21516500.61947 -16636355.24348  21672117.9064                   21672108.7194
        47.2504         50.7504
 -19443296.20447 -14458989.70546  22182239.2424                   22182227.9454
        47.0004         37.5004
  -5928945.91146  -4587644.81842  24540308.4304                   24540296.7234
        36.5004         17.2504
 -21015790.98548 -16307959.24548  21335994.9224                   21335983.8014
        48.0004         52.5004
 -14766737.49947 -11844483.06147  22166662.9534                   22166654.5864
        42.0004         44.5004
  -8069321.46245  -6397274.93845  23779561.4144                   23779554.1604
        34.2504         33.5004
 -24063660.02648 -20167753.19949  20877083.2504                   20877073.9454
        52.0004         55.0004
 23  1 10  1 26  0.0000000  0 10G03G22G23G10G21G12G31G01G25G32
  -2533312.91745  -2039406.28544  25166522.0784                   25166513.1844
        34.2504         29.2504
 -16570331.65548 -13706378.31247  20618503.2034                   20618491.8484
        48.7504         42.0004
   3271439.73645  -1442780.53643  24534277.6484                   24534269.2234
        34.5004         19.2504
 -21452935.27747 -16586823.82648  21684213.6094                   21684204.5394
        46.7504         50.5004
 -19449786.01447 -14464046.70346  22181004.4304                   22180992.8984
        47.0004         37.2504
  -5953954.35946  -4607131.91643  24535548.2814                   24535536.8094
        36.7504         18.5004
 -21099579.70747 -16373249.13348  21320050.5004                   21320039.1454
        47.7504         53.0004
 -14823075.13247 -11888382.51147  22155943.0164                   22155934.4734
        42.5004         45.0004
  -8126534.53346  -6441856.54445  23768675.2114                   23768667.7234
        36.5004         34.2504
 -24028435.74248 -20140305.70449  20883786.2584                   20883777.3054
        51.7504         55.0004
 23  1 10  1 26 30.0000000  0 10G03G22G23G10G21G12G31G01G25G32
  -2634294.47145  -2118093.15745  25147305.6024                   25147298.2894
        33.2504         30.2504
 -16584168.17948 -13717160.00747  20615869.8444                   20615858.4884
        48.7504         42.0004
   3368661.63545  -1367023.39343  24552779.1724                   24552770.1604
        34.2504         19.5004
 -21389040.65147 -16537035.83448  21696371.9144                   21696363.4884
        46.5004         50.5004
 -19455788.13847 -14468723.69646  22179862.2194                   22179850.6294
        46.5004         37.0004
  -5978431.67946  -4626205.15043  24530891.7814                   24530879.1374
        37.7504         20.2504
 -21182914.01248 -16438184.92648  21304192.6254                   21304181.2114
        48.0004         53.0004
 -14878861.88347 -11931852.71347  22145327.1564                   22145318.7304
        42.7504         45.2504
  -8183331.83945  -6486114.14545  23757865.9924                   23757859.9694
        35.0004         34.2504
 -23992940.77448 -20112647.29149  20890540.6724                   20890531.6024
        52.5004         55.5004
 23  1 10  1 27  0.0000000  0 10G03G22G23G10G21G12G31G01G25G32
  -2735296.52945  -2196796.00444  25128086.5944                   25128077.2304
        32.7504         28.7504
 -16597698.73548 -13727703.30247  20613294.5164                   20613283.4534
        48.7504         42.0004
   3466021.05345  -1291159.02643  24571305.5394                   24571297.4654
        35.0004         20.0004
 -21324817.99947 -16486992.24348  21708593.3284                   21708584.6684
        46.7504         50.5004
 -19461303.45047 -14473021.35246  22178813.0704                   22178801.0124
        47.0004         36.7504
  -6002376.79046  -4644863.63843  24526334.3914                   24526322.1564
        37.2504         19.0004
 -21265792.45148 -16502765.50848  21288421.5394                   21288409.9494
        48.7504         53.2504
 -14934096.59747 -11974892.74347  22134815.3914                   22134806.9654
        42.5004         45.0004
  -8239711.47446  -6530046.30845  23747138.7034                   23747130.0434
        36.2504         34.5004
 -23957177.01548 -20084779.43549  20897346.3834                   20897337.0204
        52.7504         54.7504
 23  1 10  1 27 30.0000000  0 10G03G22G23G10G21G12G31G01G25G32
  -2836316.97845  -2275513.25245  25108862.8594                   25108853.4384
        35.0004         30.5004
 -16610923.15048 -13738008.03047  20610778.2664                   20610767.3794
        48.7504         42.0004
   3563517.83145  -1215187.70543  24589859.1804                   24589850.0514
        35.5004         19.7504
 -21260267.13547 -16436692.89448  21720877.0864                   21720868.0164
        47.0004         50.2504
 -19466331.17248 -14476939.06646  22177856.5784                   22177844.5784
        48.0004         37.5004
  -6025787.45946  -4663105.75343  24521880.5084                   24521868.5664
        37.0004         19.2504
 -21348212.17848 -16566988.65548  21272737.0004                   21272725.8204
        48.2504         53.2504
 -14988776.43547 -12017500.41347  22124410.9774                   22124402.4924
        43.0004         45.7504
  -8295669.81245  -6573650.23545  23736488.4224                   23736480.9924
        35.0004         34.0004
 -23921144.74748 -20056702.35949  20904203.2814                   20904193.7424
        52.0004         54.7504
 23  1 10  1 28  0.0000000  0 10G03G22G23G10G21G12G31G01G25G32
  -2937354.89945  -2354244.03344  25089634.1174                   25089627.1564
        33.0004         29.2504
 -16623842.01848 -13748074.67747  20608319.7504                   20608308.5124
        48.5004         42.2504
   3661150.95745  -1139110.10342  24608437.8134                   24608429.0944
        35.0004         17.7504
 -21195388.18647 -16386137.90148  21733223.0394                   21733214.2624
        46.7504         50.0004
 -19470870.84447 -14480476.48146  22176992.9454                   22176980.4184
        47.0004         38.0004
  -6048662.17546  -4680930.27243  24517526.7344                   24517515.0864
        36.7504         18.2504
 -21430170.39448 -16630852.17848  21257141.1484                   21257129.9104
        48.2504         53.5004
 -15042899.42247 -12059674.17447  22114111.6094                   22114103.0664
        43.0004         46.0004
  -8351204.20946  -6616923.76145  23725921.8594                   23725913.7854
        36.0004         34.0004
 -23884845.06248 -20028416.88649  20911111.0084                   20911101.1174
        53.0004         54.7504
 23  1 10  1 28 30.0000000  0 10G03G22G23G10G21G12G31G01G25G32
  -3038409.49645  -2432987.87044  25070405.9774                   25070396.7304
        34.5004         29.5004
 -16636456.55148 -13757904.18147  20605919.6954                   20605908.2234
        49.0004         42.5004
   3758919.03145  -1062927.34043  24627042.8914                   24627033.8204
        34.7504         19.2504
 -21130182.32347 -16335328.16848  21745631.7504                   21745623.0904
        46.5004         50.0004
 -19474922.60647 -14483633.71046  22176221.2734                   22176209.3324
        47.0004         37.5004
  -6071000.26746  -4698336.58743  24513276.6724                   24513263.5594
        36.5004         19.2504
 -21511664.85348 -16694354.33248  21241633.6484                   21241622.0594
        48.2504         53.5004
 -15096463.96847 -12101412.76247  22103917.7274                   22103909.0664
        43.0004         45.5004
  -8406312.14945  -6659865.02045  23715435.0944                   23715426.7274
        35.7504         33.5004
 -23848279.34648 -19999924.12349  20918068.8444                   20918059.6564
        51.5004         55.0004
 23  1 10  1 29  0.0000000  0 10G03G22G23G10G21G12G31G01G25G32
  -3139479.59245  -2511743.79344  25051171.4924                   25051162.7734
        33.0004         28.7504
 -16648767.22348 -13767496.90947  20603576.7734                   20603565.4774
        48.7504         42.5004
   3856821.10745   -986640.17543  24645672.7584                   24645664.5664
        34.5004         19.7504
 -21064650.03747 -16284264.07648  21758101.9694                   21758092.8404
        47.0004         50.0004
 -19478486.74547 -14486410.97946  22175543.3444                   22175531.1684
        47.0004         37.7504
  -6092799.70546  -4715323.11643  24509127.4614                   24509115.8714
        36.0004         18.2504
 -21592693.37748 -16757493.42548  21226213.8364                   21226202.5394
        48.2504         53.5004
 -15149468.07547 -12142714.68147  22093832.2664                   22093823.7234
        43.7504         46.0004
  -8460991.02146  -6702471.93645  23705030.3284                   23705022.5474
        36.2504         35.0004
 -23811448.66748 -19971224.89849  20925077.2974                   20925068.2854
        52.0004         54.7504
 23  1 10  1 29 30.0000000  0 10G03G22G23G10G21G12G31G01G25G32
  -3240562.94345  -2590510.00545  25031935.5784                   25031928.6764
        33.0004         30.0004
 -16660773.64748 -13776852.56147  20601291.9454                   20601280.9414
        49.2504         42.5004
   3954857.17445   -910248.62643  24664329.0234                   24664319.8364
        34.5004         19.5004
 -20998790.24447 -16232944.78448  21770634.0784                   21770625.8284
        46.5004         49.5004
 -19481562.13747 -14488807.39946  22174957.9224                   22174946.0984
        46.5004         37.7504
  -6114058.20446  -4731888.21943  24505082.3914                   24505071.0944
        36.5004         18.5004
 -21673252.51248 -16820266.75148  21210884.1174                   21210872.8204
        48.2504         53.5004
 -15201908.66147 -12183577.48747  22083852.8364                   22083844.7624
        43.0004         46.0004
  -8515236.87245  -6744741.41345  23694706.3364                   23694699.7274
        35.0004         34.5004
 -23774352.94348 -19942319.15349  20932136.5864                   20932127.1644
        52.5004         55.0004
 23  1 10  1 30  0.0000000  0 10G03G22G23G10G21G12G31G01G25G32
  -3341660.00845  -2669286.89545  25012697.2344                   25012690.5084
        33.0004         30.0004
 -16672477.87548 -13785972.73347  20599065.0864                   20599053.5554
        49.2504         42.2504
   4053024.78045   -833754.55343  24683010.0084                   24683000.9384
        35.5004         19.5004
 -20932605.17847 -16181372.03548  21783229.3914                   21783220.0274
        47.2504         50.0004
 -19484149.88747 -14490823.83546  22174465.7894                   22174453.6134
        47.7504         37.7504
  -6134775.92146  -4748031.87743  24501140.3914                   24501128.9774
        37.2504         20.5004
 -21753341.30748 -16882673.58848  21195643.9224                   21195632.3324
        48.0004         53.5004
 -15253785.36847 -12224000.87547  22073980.3834                   22073973.2464
        42.7504         46.0004
  -8569048.65646  -6786672.66845  23684467.3914                   23684459.6684
        36.5004         34.5004
 -23736994.75848 -19913208.88149  20939245.7504                   20939236.5044
        52.2504         55.0004
 23  1 10  1 30 30.0000000  0 10G03G22G23G10G21G12G31G01G25G32
  -3442768.34345  -2748072.59744  24993456.6804                   24993449.4844
        32.5004         29.2504
 -16683879.37348 -13794857.01347  20596895.2034                   20596884.1414
        48.7504         42.5004
   4151324.16045   -757157.80343  24701715.9844                   24701707.0904
        35.5004         20.7504
 -20866094.16347 -16129545.29348  21795885.7584                   21795877.4494
        46.5004         50.0004
 -19486249.28747 -14492459.74746  22174065.9614                   22174054.0204
        46.5004         38.0004
  -6154949.95545  -4763751.90543  24497298.9924                   24497291.2704
        34.0004         20.2504
 -21832956.18448 -16944711.13648  21180493.7274                   21180482.1374
        48.2504         53.7504
 -15305095.05547 -12263982.45747  22064217.9384                   22064208.9264
        43.7504         46.2504
  -8622422.32046  -6828262.52745  23674310.5164                   23674303.0274
        36.5004         34.5004
 -23699373.92448 -19883893.95949  20946404.5164                   20946395.2704
        51.7504         54.7504
 23  1 10  1 31  0.0000000  0 10G03G22G23G10G21G12G31G01G25G32
  -3543887.94145  -2826867.06245  24974217.3984                   24974207.6844
        35.7504         30.7504
 -16694979.97048 -13803506.82247  20594782.7034                   20594771.5234
        48.5004         42.5004
   4249753.02245   -680460.21043  24720446.0084                   24720437.1724
        34.5004         19.7504
 -20799258.68147 -16077465.73448  21808604.0704                   21808595.4104
        46.2504         49.7504
 -19487861.45047 -14493715.98746  22173758.7034                   22173747.2304
        47.0004         38.0004
  -6174580.29546  -4779048.30543  24493566.1024                   24493554.6884
        37.2504         19.7504
 -21912096.06348 -17006378.55548  21165433.6024                   21165422.1884
        48.2504         53.5004
 -15355837.07347 -12303521.71247  22054561.8284                   22054552.9344
        43.0004         46.0004
  -8675356.36845  -6869509.85645  23664236.8134                   23664229.2074
        35.7504         34.2504
 -23661492.75348 -19854376.17149  20953613.2894                   20953603.6914
        52.2504         54.7504
 23  1 10  1 31 30.0000000  0 10G03G22G23G10G21G12G31G01G25G32
  -3645016.72145  -2905668.67944  24954970.9144                   24954963.4844
        33.0004         29.0004
 -16705779.32448 -13811921.90147  20592727.7344                   20592716.4964
        49.2504         42.5004
   4348311.38245   -603661.68143  24739202.1094                   24739192.1024
        35.2504         19.7504
 -20732098.49847 -16025133.16248  21821384.6954                   21821375.6844
        47.0004         49.7504
 -19488984.57347 -14494591.15546  22173545.2504                   22173533.4844
        47.0004         38.0004
  -6193664.26446  -4793918.93743  24489933.5394                   24489921.6564
        36.5004         18.5004
 -21990757.64848 -17067673.28148  21150464.8054                   21150453.4494
        48.2504         53.7504
 -15406008.46947 -12342616.29747  22045013.3204                   22045005.7734
        42.0004         46.0004
  -8727847.22045  -6910411.81545  23654248.6094                   23654240.8284
        35.7504         33.2504
 -23623351.23248 -19824655.51349  20960871.2814                   20960862.2704
        52.7504         54.7504
 23  1 10  1 32  0.0000000  0 10G03G22G23G10G21G12G31G01G25G32
  -3746153.23145  -2984476.32645  24935725.4224                   24935717.2894
        33.7504         30.5004
 -16716277.89148 -13820102.59847  20590730.1564                   20590718.5084
        49.2504         42.5004
   4446998.37245   -526762.94243  24757980.4844                   24757972.4694
        34.5004         20.2504
 -20664613.95547 -15972547.81448  21834226.3914                   21834217.2624
        47.0004         49.5004
 -19489618.96847 -14495085.50446  22173424.5164                   22173412.9264
        47.2504         38.0004
  -6212200.34146  -4808362.61743  24486407.3134                   24486395.5474
        37.0004         19.2504
 -22068938.36148 -17128593.30148  21135587.6094                   21135575.9614
        48.5004         53.7504
 -15455607.20347 -12381264.66047  22035576.7274                   22035567.5984
        43.7504         46.2504
  -8779891.96145  -6950966.16545  23644342.7034                   23644337.6214
        34.7504         33.2504
 -23584950.16048 -19794732.60649  20968178.8134                   20968169.2154
        52.0004         54.7504
 23  1 10  1 32 30.0000000  0 10G03G22G23G10G21G12G31G01G25G32
  -3847297.22445  -3063289.80245  24916478.8754                   24916471.1524
        33.5004         32.0004
 -16726477.09548 -13828050.02947  20588789.1254                   20588778.1214
        49.5004         43.0004
   4545812.06545   -449765.44743  24776786.0004                   24776776.6954
        35.7504         20.0004
 -20596806.09547 -15919710.56548  21847129.6414                   21847121.6254
        46.5004         49.7504
 -19489765.76947 -14495199.90246  22173396.9774                   22173384.9184
        46.7504         38.5004
  -6230188.73746  -4822379.55343  24482983.3204                   24482972.7274
        36.0004         20.2504
 -22146636.83948 -17189137.55049  21120802.0474                   21120790.8674
        48.7504         54.0004
 -15504632.46847 -12419466.18347  22026246.8754                   22026238.5084
        42.7504         46.0004
  -8831488.96346  -6991171.64445  23634525.9924                   23634518.9734
        36.7504         34.0004
 -23546291.60248 -19764609.05749  20975535.2504                   20975526.0044
        52.5004         54.7504
 23  1 10  1 33  0.0000000  0 10G03G22G23G10G21G12G31G01G25G32
  -3948446.11445  -3142107.04745  24897229.1334                   24897222.0554
        34.2504         31.0004
 -16736376.06348 -13835763.50447  20586905.3984                   20586894.0434
        49.0004         42.7504
   4644752.99445   -372668.86543  24795612.4454                   24795604.0204
        34.5004         19.2504
 -20528673.99648 -15866620.64748  21860095.4304                   21860086.5354
        48.0004         50.0004
 -19489423.47547 -14494933.19746  22173462.1024                   22173450.1604
        47.5004         38.0004
  -6247626.03646  -4835967.10243  24479665.0004                   24479654.6994
        36.7504         19.7504
 -22223849.14548 -17249302.96948  21106109.0944                   21106097.7384
        49.5004         53.5004
 -15553080.79946 -12457218.12947  22017026.1954                   22017018.6484
        41.5004         45.7504
  -8882633.94245  -7031024.87545  23624794.3364                   23624786.3794
        35.7504         34.0004
 -23507374.95848 -19734284.40849  20982940.9384                   20982931.3984
        53.0004         54.7504
 23  1 10  1 33 30.0000000  0 10G03G22G23G10G21G12G31G01G25G32
  -4049600.76045  -3220928.84645  24877982.4064                   24877972.5744
        35.5004         31.7504
 -16745977.87848 -13843245.43747  20585078.1414                   20585066.9024
        49.0004         43.0004
  -7859542.23956 -10116275.74853  24814466.2584                   24814456.2504
        37.2504         19.5004
 -20460220.56347 -15813280.33148  21873121.9694                   21873112.3714
        47.2504         49.7504
 -19488594.24347 -14494287.04746  22173619.7274                   22173607.7854
        47.5004         38.5004
  -6264513.62646  -4849126.29543  24476452.8674                   24476440.5164
        38.7504         20.2504
 -22300575.34448 -17309089.60448  21091508.1484                   21091496.9104
        49.2504         53.7504
 -15600952.79347 -12494520.96747  22007918.0234                   22007909.3054
        44.0004         46.0004
  -8933326.58345  -7070525.64945  23615146.9384                   23615140.3874
        35.5004         34.5004
 -23468203.58248 -19703761.26849  20990394.9224                   20990385.2664
        52.5004         55.2504
 23  1 10  1 34  0.0000000  0 10G03G22G23G10G21G12G31G01G25G32
  -4150757.81345  -3299752.48445  24858731.2114                   24858723.4884
        34.0004         32.5004
 -16755280.96648 -13850494.59247  20583307.9844                   20583297.2154
        49.7504         42.7504
  -7760352.47645 -10038985.24743  24833339.2344                   24833331.2774
        34.7504         19.0004
 -20391444.25247 -15759688.43648  21886208.8594                   21886200.1414
        47.7504         49.7504
 -19487276.21847 -14493260.03346  22173871.0234                   22173858.7894
        46.7504         39.0004
  -6280847.74046  -4861854.14042  24473342.3444                   24473330.3444
        36.2504         17.2504
 -22376811.08248 -17368494.05348  21077000.7344                   21076989.6134
        49.5004         53.7504
 -15648244.35047 -12531371.54947  21998919.1094                   21998909.9224
        43.5004         46.5004
  -8983562.22046  -7109670.31645  23605586.7584                   23605579.9144
        36.0004         33.2504
 -23428776.32348 -19673038.73249  20997897.5314                   20997888.2274
        53.5004         54.7504
 23  1 10  1 34 30.0000000  0 10G03G22G23G10G21G12G31G01G25G32
  -4251916.36545  -3378577.29445  24839482.6644                   24839473.4184
        35.2504         32.0004
 -16764286.01848 -13857511.51747  20581594.2114                   20581582.9734
        49.0004         42.5004
  -7661038.92846  -9961598.29043  24852238.8914                   24852230.1724
        37.0004         19.2504
 -20322345.73348 -15705845.47248  21899358.1884                   21899349.8204
        48.0004         50.0004
 -19485469.78647 -14491852.43046  22174214.2504                   22174202.6024
        47.2504         38.2504
  -6296627.59546  -4874150.12643  24470342.5944                   24470328.3674
        38.0004         19.7504
 -22452554.34348 -17427514.75949  21062587.9844                   21062576.1604
        49.5004         54.0004
 -15694954.08947 -12567768.74747  21990029.5164                   21990021.1484
        42.7504         46.0004
  -9033338.40045  -7148456.94345  23596114.0234                   23596108.2344
        34.7504         33.0004
 -23389094.41548 -19642117.77249  21005448.9694                   21005439.4304
        53.2504         54.7504
 23  1 10  1 35  0.0000000  0 10G03G22G23G10G21G12G31G01G25G32
  -4353076.07345  -3457403.03345  24820231.4454                   24820223.1954
        34.0004         31.7504
 -16772994.93048 -13864297.67547  20579936.8204                   20579925.8754
        50.0004         42.7504
  -7561603.75046  -9884116.53943  24871161.1804                   24871153.2814
        37.0004         19.7504
 -20252926.54647 -15651752.63448  21912568.3204                   21912559.1914
        47.5004         49.7504
 -19483175.80448 -14490064.92446  22174650.9534                   22174639.1884
        48.0004         38.5004
  -6311853.00246  -4886014.10743  24467443.2584                   24467433.3674
        38.0004         20.5004
 -22527803.72948 -17486150.63448  21048268.2814                   21048256.6334
        50.5004         53.7504
 -15741081.18147 -12603711.93147  21981251.9844                   21981243.7344
        43.2504         46.0004
  -9082653.50646  -7186884.28645  23586731.5634                   23586724.8364
        36.0004         34.5004
 -23349159.86648 -19610999.95849  21013048.3754                   21013038.7774
        53.5004         54.7504
 23  1 10  1 35 30.0000000  0 10G03G22G23G10G21G12G31G01G25G32
  -4454234.93845  -3536228.08845  24800980.9844                   24800974.0824
        34.5004         33.2504
 -16781407.49948 -13870852.92347  20578335.8284                   20578324.8834
        49.7504         43.0004
  -7462047.03845  -9806540.13442  24890105.8444                   24890097.8874
        35.7504         17.7504
 -20183186.38747 -15597409.68848  21925839.4924                   21925830.3634
        47.5004         49.5004
 -19480393.45948 -14487896.87846  22175180.2114                   22175168.3874
        48.5004         38.5004
  -6326521.44046  -4897444.08942  24464650.4614                   24464639.3404
        38.5004         17.2504
 -22602556.30448 -17544399.37349  21034043.8754                   21034031.5234
        50.0004         54.0004
 -15786623.06247 -12639199.12347  21972586.0314                   21972577.0204
        44.0004         46.5004
  -9131504.13946  -7224949.74645  23577435.4614                   23577427.6214
        36.0004         34.0004
 -23308972.81848 -19579685.37849  21020695.6724                   21020685.9574
        53.5004         54.7504
 23  1 10  1 36  0.0000000  0 10G03G22G23G10G21G12G31G01G25G32
  -4555392.27945  -3615051.97445  24781733.0864                   24781723.6644
        35.7504         33.0004
 -16789524.86148 -13877178.13947  20576791.2974                   20576780.0594
        49.7504         43.0004
  -7362370.65845  -9728870.45643  24909073.9614                   24909065.5944
        34.7504         19.0004
 -20113126.58448 -15542817.67548  21939171.4844                   21939162.2384
        48.0004         49.5004
 -19477123.61548 -14485348.95746  22175802.9774                   22175790.9184
        48.2504         38.5004
  -6340633.04446  -4908440.11343  24461966.6564                   24461953.0164
        39.0004         19.2504
 -22676810.64148 -17602259.88249  21019912.8364                   21019901.6564
        50.7504         54.2504
 -15831578.83147 -12674229.59347  21964031.4224                   21964021.8244
        43.7504         46.7504
  -9179888.60645  -7262651.94145  23568227.8984                   23568220.0594
        35.5004         33.2504
 -23268535.06848 -19548175.45149  21028390.4694                   21028381.3984
        52.7504         54.7504
 23  1 10  1 36 30.0000000  0 10G03G22G23G10G21G12G31G01G25G32
  -4656545.99445  -3693873.02345  24762482.4144                   24762474.9844
        33.2504         32.2504
 -16797346.83448 -13883273.17547  20575302.9774                   20575291.6804
        49.7504         43.2504
  -7262574.62045  -9651107.57043  24928064.5634                   24928056.7814
        34.5004         18.2504
 -20042746.99047 -15487976.46148  21952563.3914                   21952555.3754
        47.7504         49.5004
 -19473366.57448 -14482421.40746  22176518.0314                   22176505.7384
        48.5004         38.7504
  -6354185.32946  -4919000.39043  24459387.6484                   24459375.0044
        37.5004         19.5004
 -22750563.43748 -17659729.58849  21005877.9224                   21005867.3284
        50.5004         54.2504
 -15875945.83347 -12708801.28347  21955588.0864                   21955580.3634
        44.0004         46.5004
  -9227803.38045  -7299988.15445  23559110.1254                   23559102.8714
        35.5004         33.5004
 -23227846.65148 -19516470.20249  21036133.3444                   21036123.8054
        53.0004         55.0004
 23  1 10  1 37  0.0000000  0 10G03G22G23G10G21G12G31G01G25G32
  -4757695.29846  -3772690.64745  24743235.8284                   24743227.0514
        36.5004         34.0004
 -16804874.73048 -13889139.07047  20573870.4064                   20573858.9344
        49.7504         43.0004
  -7162660.53146  -9573252.71143  24947079.1174                   24947069.9304
        37.0004         18.5004
 -19972048.32248 -15432886.63448  21966017.5704                   21966008.5004
        48.5004         49.5004
 -19469121.70548 -14479113.72746  22177325.6564                   22177313.5984
        48.0004         39.0004
  -6367178.09146  -4929124.61643  24456916.3524                   24456904.5274
        38.7504         20.5004
 -22823813.28448 -17716807.37349  20991939.2814                   20991927.9264
        50.5004         54.2504
 -15919722.89047 -12742913.27947  21947257.9924                   21947249.2734
        45.7504         46.7504
  -9275246.39945  -7336956.73445  23550082.5704                   23550074.0864
        35.2504         33.5004
 -23186909.06348 -19484570.79349  21043923.4144                   21043914.3444
        53.0004         55.0004
 23  1 10  1 37 30.0000000  0 10G03G22G23G10G21G12G31G01G25G32
  -4858838.83546  -3851503.77445  24723988.7814                   24723979.7704
        36.2504         33.5004
 -16812109.15548 -13894776.28147  20572493.9534                   20572482.3634
        49.5004         43.0004
  -7062629.53045  -9495306.66143  24966112.3914                   24966104.9024
        33.5004         18.2504
 -19901031.42247 -15377548.83148  21979531.4384                   21979522.9534
        47.5004         49.2504
 -19464389.66648 -14475426.43946  22178226.2664                   22178213.8554
        48.7504         38.7504
  -6379610.13746  -4938811.96043  24454548.8754                   24454539.2194
        36.5004         20.2504
 -22896557.85648 -17773491.44749  20978096.5394                   20978085.1844
        51.0004         54.5004
 -15962908.43347 -12776564.36147  21939039.6724                   21939031.3634
        44.7504         46.7504
  -9322215.09745  -7373555.75245  23541143.7504                   23541136.6134
        35.0004         34.0004
 -23145723.27748 -19452477.97449  21051761.2814                   21051751.5664
        52.7504         55.0004
 23  1 10  1 38  0.0000000  0 11G03G22G17G23G10G21G12G31G01G25G32
  -4959974.42846  -3930310.69645  24704743.3674                   24704734.2974
        38.2504         32.5004
 -16819049.64448 -13900184.45247  20571173.2114                   20571161.4454
        49.7504         42.7504
    229647.21255    186185.12452  25858968.9614                   25858957.7234
        30.7504         15.5004
  -6962481.73045  -9417269.71843  24985171.6484                   24985163.1054
        34.7504         18.5004
 -19829695.41848 -15321962.36648  21993106.5164                   21993097.7974
        48.2504         49.0004
 -19459169.77748 -14471359.00046  22179219.1724                   22179207.6414
        48.5004         39.0004
  -6391479.29446  -4948060.64343  24452292.9144                   24452279.1564
        39.2504         19.0004
 -22968793.82548 -17829779.19549  20964350.4774                   20964339.0634
        50.2504         54.5004
 -16005499.83447 -12809752.46247  21930934.2114                   21930926.2544
        45.5004         47.0004
  -9368706.21545  -7409782.59745  23532296.8594                   23532290.1914
        34.7504         33.7504
 -23104289.38848 -19420191.83749  21059645.5084                   21059636.2034
        53.0004         54.7504
 23  1 10  1 38 30.0000000  0 11G03G22G17G23G10G21G12G31G01G25G32
  -5061103.31646  -4009112.43245  24685498.3364                   24685490.0864
        37.0004         33.0004
 -16825699.80048 -13905366.38947  20569907.5554                   20569896.4344
        50.0004         43.0004
    214390.19545    174296.51342  25856065.4144                   25856055.4064
        30.0004         15.5004
  -6862220.79245  -9339144.54943  25004249.9224                   25004242.3164
        33.7504         18.5004
 -19758044.17847 -15266130.28048  22006740.8594                   22006732.5514
        47.2504         49.0004
 -19453464.78648 -14466913.56646  22180304.7734                   22180292.9494
        48.5004         39.0004
  -6402787.16446  -4956871.90443  24450140.6174                   24450126.9184
        38.5004         19.5004
 -23040521.84748 -17885671.15149  20950701.7274                   20950689.6094
        50.2504         54.7504
 -16047498.13247 -12842478.41047  21922942.7894                   21922934.3634
        44.5004         47.0004
  -9414719.86245  -7445637.37245  23523540.0704                   23523533.3444
        34.5004         34.0004
 -23062610.98548 -19387715.17349  21067576.8054                   21067567.3834
        52.0004         54.7504
 23  1 10  1 39  0.0000000  0 11G03G22G17G23G10G21G12G31G01G25G32
  -5162220.96146  -4087905.36345  24666256.0474                   24666248.2664
        38.5004         33.0004
 -16832056.53748 -13910319.69047  20568697.9844                   20568686.8634
        50.0004         43.0004
    199601.66345    162773.00242  25853250.4144                   25853241.4614
        30.5004         15.5004
  -6761844.46245  -9260929.45642  25023350.3984                   25023343.9064
        32.7504         17.7504
 -19686074.80148 -15210050.28248  22020436.7504                   22020427.7974
        48.0004         48.5004
 -19447271.98148 -14462088.00846  22181482.9694                   22181471.0274
        48.5004         38.7504
  -6413529.36146  -4965242.55743  24448096.0864                   24448083.3244
        38.5004         20.0004
 -23111736.70048 -17941163.23749  20937149.2584                   20937137.7274
        51.0004         54.7504
 -16088898.46447 -12874738.41947  21915064.4924                   21915056.3594
        45.5004         47.0004
  -9460250.22445  -7481115.57845  23514876.4774                   23514868.9304
        35.5004         33.5004
 -23020685.74648 -19355046.16649  21075554.6724                   21075545.6604
        52.0004         55.0004
 23  1 10  1 39 30.0000000  0 11G03G22G17G23G10G21G12G31G01G25G32
  -5263327.87546  -4166689.96545  24647016.3984                   24647007.6804
        38.5004         33.2504
 -16838122.81248 -13915046.66247  20567543.5554                   20567532.0824
        49.7504         43.2504
    185279.57644    151612.90242  25850526.7734                   25850516.8834
        29.7504         15.5004
  -6661355.86245  -9182626.93943  25042474.4844                   25042465.5904
        34.2504         18.2504
 -19613789.98948 -15153724.50548  22034192.1094                   22034183.3914
        48.0004         48.5004
 -19440593.98148 -14456884.39146  22182754.2584                   22182742.2584
        48.0004         39.0004
  -6423706.61546  -4973172.86943  24446159.0554                   24446147.5234
        38.2504         20.5004
 -23182438.43248 -17996255.47949  20923695.2504                   20923683.7774
        51.0004         54.7504
 -16129701.32447 -12906532.86347  21907300.0164                   21907291.8834
        44.5004         47.5004
  -9505296.88646  -7516216.88945  23506305.5784                   23506297.5044
        36.0004         34.2504
 -22978516.68648 -19322187.16249  21083579.3834                   21083570.0204
        52.2504         54.7504
 23  1 10  1 40  0.0000000  0 11G03G22G17G23G10G21G12G31G01G25G32
  -5364421.68646  -4245464.31145  24627777.7974                   24627771.3634
        36.2504         33.5004
 -16843897.89148 -13919546.71747  20566444.5084                   20566433.3874
        49.5004         43.0004
    171425.81945    140817.80942  25847889.6414                   25847881.2734
        30.5004         14.7504
  -6560754.69045  -9104236.72442  25061618.9384                   25061610.8634
        35.0004         17.7504
 -19541188.63047 -15097152.05748  22048007.5314                   22047999.1644
        47.5004         48.5004
 -19433428.99548 -14451301.29046  22184117.6564                   22184105.5394
        49.0004         39.2504
  -6433317.20245  -4980661.63943  24444327.0864                   24444319.2464
        35.2504         21.5004
 -23252623.29948 -18050944.97549  20910339.8204                   20910327.8794
        51.2504         54.7504
 -16169903.90947 -12937859.55647  21899648.8594                   21899641.2544
        44.5004         47.2504
  -9549856.21545  -7550938.45145  23497826.0164                   23497817.8834
        35.7504         34.0004
 -22936103.51548 -19289137.94149  21091650.0314                   21091640.7274
        52.0004         54.7504
 23  1 10  1 40 30.0000000  0 11G03G22G17G23G10G21G12G31G01G25G32
  -5465502.18946  -4324228.30445  24608545.0084                   24608535.4694
        37.5004         33.2504
 -16849383.89848 -13923821.53447  20565400.4614                   20565389.3404
        49.5004         43.2504
    158038.89654    130386.36952  25845341.8524                   25845334.3054
        29.2504         14.7504
  -6460043.57145  -9025760.71243  25080781.1884                   25080775.9844
        31.5004         19.0004
 -19468273.52247 -15040335.12948  22061883.1414                   22061874.0124
        46.5004         48.2504
 -19425778.90248 -14445340.18546  22185573.0234                   22185561.4344
        48.7504         39.0004
  -6442361.57346  -4987709.21843  24442607.7344                   24442598.2544
        37.5004         21.5004
 -23322290.69648 -18105231.24149  20897082.0234                   20897070.7274
        50.2504         54.7504
 -16209506.03547 -12968718.35347  21892114.4454                   21892105.4924
        45.0004         47.5004
  -9593927.14345  -7585279.43445  23489439.3834                   23489430.6644
        35.7504         33.0004
 -22893448.50948 -19255900.28949  21099767.0554                   21099757.6914
        51.5004         54.7504
 23  1 10  1 41  0.0000000  0 11G03G22G17G23G10G21G12G31G01G25G32
  -5566566.13245  -4402979.37845  24589311.2974                   24589303.1644
        35.5004         32.7504
 -16854579.34748 -13927869.93147  20564411.9304                   20564400.5164
        49.5004         43.5004
    145121.25345    120320.74242  25842884.2974                   25842876.3404
        30.2504         12.5004
  -6359221.46445  -8947198.44442  25099968.3364                   25099962.1954
        33.5004         17.7504
 -19395042.62647 -14983272.14848  22075817.8984                   22075809.4144
        47.0004         48.0004
 -19417641.94348 -14438999.71246  22187121.6414                   22187109.6414
        48.5004         39.0004
  -6450836.80446  -4994313.28843  24440995.7034                   24440984.4654
        37.2504         20.5004
 -23391436.81348 -18159111.32649  20883924.5784                   20883912.5784
        51.0004         54.7504
 -16248504.25247 -12999106.58347  21884692.7814                   21884684.0044
        45.5004         47.7504
  -9637505.37045  -7619236.49845  23481145.3754                   23481137.5944
        34.5004         33.0004
 -22850550.73648 -19222473.45649  21107930.4144                   21107921.4024
        51.0004         54.7504
 23  1 10  1 41 30.0000000  0 11G03G22G17G23G10G21G12G31G01G25G32
  -5667614.12846  -4481718.03445  24570082.8594                   24570075.1954
        37.7504         34.2504
 -16859487.00648 -13931694.07947  20563478.3524                   20563466.9384
        48.2504         43.7504
    132670.93815                  25840514.852
        31.000
  -6258291.48645  -8868551.90442  25119174.7504                   25119168.7854
        31.7504         17.7504
 -19321498.81247 -14925965.31648  22089813.2814                   22089804.2114
        47.0004         48.0004
 -19409020.75748 -14432281.92746  22188762.3054                   22188750.4224
        48.0004         39.7504
  -6458743.69546  -5000474.52243  24439491.7894                   24439479.9064
        37.5004         21.5004
 -23460061.48048 -18212585.08849  20870865.3444                   20870853.9304
        49.7504         54.7504
 -16286899.02847 -13029024.59147  21877386.2114                   21877377.7854
        44.7504         47.5004
  -9680590.42545  -7652809.25445  23472947.0704                   23472939.9344
        35.5004         33.2504
 -22807413.06848 -19188859.69849  21116138.6644                   21116129.8874
        50.5004         55.0004
 23  1 10  1 42  0.0000000  0 11G03G22G17G23G10G21G12G31G01G25G32
  -5768644.11445  -4560442.66645  24550857.1174                   24550849.1604
        35.5004         32.7504
 -16864106.89048 -13935293.99547  20562599.0314                   20562587.5594
        49.2504         43.5004
    120688.57515                  25838235.180
        30.500
  -6157253.99745  -8789821.67143  25138402.5314                   25138396.0984
        33.7504         19.2504
 -19247641.96147 -14868414.57448  22103867.7424                   22103858.8484
        47.2504         48.0004
 -19399914.90948 -14425186.46946  22190495.4224                   22190483.2464
        48.2504         39.2504
  -6466080.80346  -5006191.77643  24438094.8914                   24438084.7664
        38.5004         21.7504
 -23528162.04848 -18265650.45449  20857906.4304                   20857894.9574
        50.5004         55.0004
 -16324688.36447 -13058470.83347  21870195.3444                   21870186.8014
        45.0004         47.7504
  -9723179.34846  -7685995.42745  23464843.4144                   23464835.6914
        37.2504         33.5004
 -22764035.83848 -19155059.27549  21124393.4614                   21124384.3324
        50.5004         54.7504
 23  1 10  1 42 30.0000000  0 11G03G22G17G23G10G21G12G31G01G25G32
  -5869653.44546  -4639151.19045  24531636.6024                   24531627.4144
        37.2504         33.7504
 -16868438.12348 -13938668.97247  20561774.9774                   20561763.5044
        48.2504         43.5004
                                  25836043.273
        31.000
  -6056108.89645  -8711007.57242  25157648.9694                   25157643.8874
        33.5004         16.7504
 -19173471.59947 -14810619.52847  22117982.3204                   22117972.9574
        46.7504         47.7504
 -19390324.14848 -14417713.15846  22192320.5314                   22192308.2384
        48.0004         39.2504
  -6472846.08446  -5011463.42543  24436807.6724                   24436796.9614
        37.0004         21.2504
 -23595735.19148 -18318304.84549  20845047.5234                   20845036.2274
        49.0004         55.0004
 -16361869.44447 -13087443.10847  21863119.5474                   21863111.2974
        44.0004         47.5004
  -9765268.39145  -7718792.10345  23456833.1724                   23456826.6214
        35.7504         34.2504
 -22720418.70848 -19121071.90849  21132693.6334                   21132684.6214
        50.2504         55.0004
 23  1 10  1 43  0.0000000  0 11G03G22G17G23G10G21G12G31G01G25G32
  -5970643.66346  -4717844.83345  24512418.7114                   24512410.7544
        37.5004         34.0004
 -16872484.57147 -13941822.05247  20561004.7034                   20560993.2894
        47.7504         43.5004
     98129.646 5                  25833941.734
        31.000
  -5954860.19445  -8632112.74143  25176915.5234                   25176909.6764
        31.0004         18.2504
 -19098991.27647 -14752582.96547  22132156.0784                   22132146.3054
        46.7504         47.7504
 -19380251.01248 -14409863.98246  22194237.1884                   22194225.0124
        48.5004         39.5004
  -6479041.56545  -5016291.13243  24435626.9224                   24435617.7344
        35.2504         20.0004
 -23662782.08148 -18370549.16149  20832289.0394                   20832277.5084
        50.2504         54.7504
 -16398443.93147 -13115942.71347  21856159.0314                   21856151.8364
        43.7504         47.5004
  -9806858.51146  -7751199.97645  23448919.6094                   23448912.1214
        37.5004         34.0004
 -22676565.64848 -19086900.70449  21141038.2894                   21141029.3364
        49.7504         54.7504
 23  1 10  1 43 30.0000000  0 11G03G22G17G23G10G21G12G31G01G25G32
  -6071610.55746  -4796520.27045  24493205.0314                   24493197.0744
        37.5004         34.5004
 -16876244.00348 -13944751.47747  20560289.3754                   20560277.7274
        48.0004         43.5004
     87553.257 5                  25831929.000
        30.000
  -5853506.25456  -8553135.93453  25196205.7194                   25196198.6994
        37.5004         18.5004
 -19024198.93947 -14694303.25847  22146387.6414                   22146379.0394
        47.0004         47.5004
 -19369693.49447 -14401637.35746  22196245.6564                   22196234.0664
        46.5004         39.0004
  -6484663.71845  -5020672.05943  24434559.1334                   24434548.0704
        35.5004         20.2504
 -23729297.73748 -18422379.53249  20819631.6414                   20819619.8164
        49.2504         55.0004
 -16434407.62947 -13143966.37047  21849316.3834                   21849308.2504
        44.5004         47.7504
  -9847944.35946  -7783214.92745  23441101.0864                   23441092.9534
        37.0004         33.7504
 -22632474.72548 -19052544.15349  21149428.5474                   21149419.6524
        49.2504         54.7504
 23  1 10  1 44  0.0000000  0 11G03G22G17G23G10G21G12G31G01G25G32
  -6172553.82946  -4875177.34345  24473995.6414                   24473987.6254
        37.5004         34.0004
 -16879718.36148 -13947458.77347  20559628.3524                   20559616.4104
        48.7504         43.7504
     77445.09615                  25830005.906
        30.500
  -5752049.34845  -8474078.94843  25215511.5084                   25215505.4844
        35.0004         18.5004
 -18949096.53747 -14635781.96947  22160679.8834                   22160670.3444
        47.0004         47.5004
 -19358652.58947 -14393034.06446  22198346.6254                   22198335.0944
        47.7504         39.0004
  -6489712.71446  -5024606.34843  24433598.0474                   24433586.8094
        37.5004         19.7504
 -23795281.39248 -18473795.36449  20807074.6484                   20807063.7034
        49.0004         55.0004
 -16469760.24547 -13171513.87947  21842588.7194                   21842580.6454
        43.5004         47.5004
  -9888524.83146  -7814836.08245  23433379.0554                   23433371.2734
        38.0004         34.0004
 -22588148.05548 -19018003.89849  21157864.2894                   21157854.8094
        50.2504         55.0004
 23  1 10  1 44 30.0000000  0 11G03G22G17G23G10G21G12G31G01G25G32
  -6273471.35546  -4953814.31645  24454791.7034                   24454783.9224
        36.5004         34.5004
 -16882907.35248 -13949943.69147  20559021.5234                   20559009.9924
        48.7504         43.7504
     67805.983 5                  25828171.516
        30.750
  -5650489.63845  -8394941.78342  25234835.7504                   25234830.9024
        33.0004         15.5004
 -18873683.86047 -14577018.90447  22175028.8524                   22175020.8364
        45.7504         47.2504
 -19347128.97847 -14384054.64446  22200539.8984                   22200527.9574
        47.5004         39.0004
  -6494187.24346  -5028092.99943  24432746.0864                   24432735.8444
        37.5004         21.7504
 -23860730.42048 -18524794.59249  20794620.9534                   20794609.3054
        50.0004         54.7504
 -16504499.77147 -13198583.64747  21835977.5864                   21835969.7464
        43.5004         47.5004
  -9928596.91446  -7846061.09545  23425754.1804                   23425746.3984
        37.5004         34.5004
 -22543585.83548 -18983280.10249  21166343.8984                   21166334.6524
        49.7504         54.7504
 23  1 10  1 45  0.0000000  0 11G03G22G17G23G10G21G12G31G01G25G32
  -6374362.98846  -5032431.12945  24435593.7034                   24435584.6334
        37.5004         34.7504
 -16885813.02148 -13952207.85247  20558468.4224                   20558456.8914
        48.2504         43.5004
     58634.889 5                  25826426.117
        32.250
  -5548829.76245  -8315726.61043  25254183.2504                   25254176.9344
        35.0004         19.2504
 -18797962.75847 -14518015.48847  22189439.1094                   22189430.3914
        45.5004         47.2504
 -19335123.65347 -14374699.86146  22202824.6334                   22202812.4574
        47.7504         39.0004
  -6498087.79746  -5031132.43543  24432003.8444                   24431994.3054
        36.7504         21.0004
 -23925644.34748 -18575376.86849  20782268.3054                   20782256.3054
        50.5004         54.7504
 -16538626.31647 -13225175.77147  21829483.6024                   21829475.7624
        43.2504         47.5004
  -9968159.84246  -7876889.36045  23418225.2664                   23418217.8364
        38.0004         34.0004
 -22498790.38648 -18948374.57249  21174867.8754                   21174858.8634
        49.2504         54.7504
 23  1 10  1 45 30.0000000  0 11G03G22G17G23G10G21G12G31G01G25G32
  -6475226.06246  -5111025.70345  24416398.6724                   24416391.0084
        36.0004         34.0004
 -16888435.09848 -13954251.03247  20557969.7114                   20557958.0634
        48.2504         43.7504
     49932.824 5                  25824770.258
        33.000
  -5447069.48245  -8236433.21843  25273545.8914                   25273542.3324
        32.5004         19.0004
 -18721933.42147 -14458771.89947  22203906.9224                   22203898.6724
        45.7504         47.0004
 -19322636.73447 -14364969.81246  22205200.5394                   22205188.6564
        46.7504         39.2504
  -6501412.44846  -5033723.07843  24431371.8984                   24431360.2504
        37.5004         21.0004
 -23990019.98548 -18625539.69049  20770017.3834                   20770006.2034
        49.2504         54.7504
 -16572137.31247 -13251288.24247  21823107.0784                   21823099.1804
        43.5004         47.7504
 -10007210.12146  -7907318.17045  23410793.8204                   23410786.2734
        37.7504         34.0004
 -22453761.36248 -18913287.04149  21183436.7194                   21183427.6484
        48.7504         54.7504
 23  1 10  1 46  0.0000000  0 11G03G22G17G23G10G21G12G31G01G25G32
  -6576059.50346  -5189597.16245  24397212.4384                   24397203.3674
        38.0004         35.0004
 -16890774.35348 -13956073.82847  20557524.4144                   20557512.8244
        48.0004         44.0004
     41699.659 5                  25823203.977
        33.000
  -5345210.28545  -8157062.60242  25292930.8984                   25292923.9384
        34.0004         17.2504
 -18645596.13247 -14399288.36447  22218433.9454                   22218425.7544
        45.5004         47.2504
 -19309668.18747 -14354864.47346  22207668.4614                   22207656.8134
        46.5004         38.7504
  -6504160.97146  -5035864.77543  24430849.0474                   24430837.1644
        38.5004         21.5004
 -24053855.68748 -18675281.78849  20757870.5474                   20757858.3714
        49.5004         54.7504
 -16605031.80647 -13276920.31847  21816847.7424                   21816839.7274
        44.0004         47.7504
 -10045745.77646  -7937345.95845  23403460.4304                   23403453.1764
        36.7504         33.7504
 -22408500.04648 -18878018.49049  21192049.5704                   21192040.6174
        49.5004         54.7504
 23  1 10  1 46 30.0000000  0 11G03G22G17G23G10G21G12G31G01G25G32
  -6676862.46746  -5268144.91845  24378028.9144                   24378020.7234
        36.0004         34.0004
 -16892831.75447 -13957677.00247  20557132.6254                   20557120.8014
        47.7504         43.7504
     33934.507 5                  25821726.023
        34.500
  -5243253.98545  -8077616.47743  25312333.0944                   25312326.7774
        34.0004         19.0004
 -18568952.76747 -14339566.31347  22233018.8674                   22233009.7974
        46.7504         47.0004
 -19296219.79147 -14344385.21946  22210228.1804                   22210216.0044
        47.5004         39.2504
  -6506333.43446  -5037557.70543  24430436.3674                   24430425.2464
        37.2504         20.2504
 -24117150.50848 -18724602.43349  20745825.9144                   20745813.9734
        49.5004         55.0004
 -16637309.28747 -13302071.62047  21810705.8674                   21810697.5004
        43.5004         47.7504
 -10083765.39546  -7966971.65245  23396224.9064                   23396218.5314
        37.0004         34.2504
 -22363008.03748 -18842570.17249  21200706.6954                   21200697.6844
        49.7504         55.0004
 23  1 10  1 47  0.0000000  0 11G03G22G17G23G10G21G12G31G01G25G32
  -6777631.37546  -5346666.09345  24358853.8284                   24358845.5204
        36.5004         34.7504
 -16894606.21048 -13959059.70147  20556795.3984                   20556783.5164
        49.0004         44.0004
     26639.559 5                  25820338.938
        35.000
  -5141199.33745  -7998093.71343  25331754.4924                   25331747.9414
        34.7504         18.2504
 -18492001.63247 -14279604.46247  22247662.4924                   22247653.2464
        46.0004         47.0004
 -19282289.55547 -14333530.50646  22212878.3594                   22212866.5944
        46.5004         39.0004
  -6507926.88246  -5038799.31743  24430131.4454                   24430120.7934
        37.0004         20.2504
 -24179900.36048 -18773498.39249  20733884.2034                   20733873.0824
        49.7504         54.7504
 -16668966.31147 -13326739.43547  21804680.9304                   21804673.3244
        44.5004         47.7504
 -10121264.60346  -7996191.82045  23389088.7814                   23389082.9924
        36.7504         34.2504
 -22317284.03948 -18806941.09749  21209407.6484                   21209398.6374
        49.7504         54.7504
 23  1 10  1 47 30.0000000  0 11G03G22G17G23G10G21G12G31G01G25G32
  -6878367.67045  -5425161.92645  24339684.2734                   24339675.7894
        35.7504         35.0004
 -16896101.35048 -13960224.75347  20556510.8444                   20556499.2544
        49.0004         44.0004
     19811.466 5                  25819038.523
        34.750
  -5039050.78646  -7918497.63042  25351192.9694                   25351186.1254
        36.0004         17.7504
 -18414746.69747 -14219405.85247  22262362.8444                   22262354.1254
        45.5004         46.7504
 -19267881.53147 -14322303.48246  22215620.2734                   22215608.9184
        47.0004         39.0004
  -6508943.94046  -5039591.86443  24429938.6174                   24429927.4964
        38.2504         20.2504
 -24242106.60448 -18821970.79049  20722047.9144                   20722035.6214
        50.0004         55.0004
 -16700004.87947 -13350925.33847  21798774.2034                   21798766.5394
        42.5004         47.7504
 -10158244.40846  -8025007.25645  23382052.9304                   23382045.9694
        38.5004         34.0004
 -22271332.12448 -18771134.41949  21218152.2194                   21218143.2664
        50.5004         54.7504
 23  1 10  1 48  0.0000000  0 11G03G22G17G23G10G21G12G31G01G25G32
  -6979067.18145  -5503629.03045  24320521.2974                   24320513.1054
        35.5004         34.0004
 -16897315.04948 -13961170.49547  20556279.7504                   20556268.1604
        49.5004         44.0004
     13453.176 5                  25817828.734
        35.000
  -4936806.38145  -7838827.05342  25370646.7114                   25370643.0944
        30.7504         17.7504
 -18337185.89947 -14158968.94647  22277122.6254                   22277114.0234
        45.2504         46.5004
 -19252993.10547 -14310702.13646  22218453.9694                   22218441.8524
        47.5004         39.0004
  -6509381.04546  -5039932.52343  24429855.2424                   24429845.1174
        36.5004         21.7504
 -24303764.56848 -18870015.96049  20710313.7814                   20710302.5434
        49.5004         54.7504
 -16730420.92447 -13374626.14648  21792986.4694                   21792978.3364
        43.2504         48.0004
 -10194699.74546  -8053414.02345  23375116.3674                   23375108.5274
        38.0004         34.5004
 -22225150.31948 -18735148.61049  21226940.1564                   21226931.0864
        49.5004         55.0004
 23  1 10  1 48 30.0000000  0 11G03G22G17G23G10G21G12G31G01G25G32
  -7079730.45746  -5582067.98545  24301367.0784                   24301357.4804
        36.0004         34.7504
 -16898250.25248 -13961899.22847  20556101.7974                   20556090.2664
        49.2504         44.0004
      7562.207 5                  25816708.039
        34.500
  -4834469.54246  -7771226.34053  25390123.5394                   25390117.2234
        36.7504         19.5004
 -18259322.13747 -14098295.94747  22291939.3134                   22291930.7704
        45.0004         46.7504
 -19237627.47247 -14298728.93146  22221376.8834                   22221365.7624
        47.5004         39.0004
  -6509239.93946  -5039822.60843  24429881.7034                   24429870.6994
        37.2504         20.0004
 -24364874.59448 -18917634.13449  20698685.1334                   20698673.6604
        50.5004         54.7504
 -16760215.52347 -13397842.73948  21787318.1174                   21787309.2814
        44.7504         48.0004
 -10230630.76746  -8081412.24145  23368278.3524                   23368270.9804
        37.5004         34.5004
 -22178741.75648 -18698986.10249  21235771.4144                   21235762.2274
        50.0004         55.0004
 23  1 10  1 49  0.0000000  0 11G03G22G17G23G10G21G12G31G01G25G32
  -7180354.85545  -5660476.56545  24282217.0164                   24282209.1764
        33.5004         34.0004
 -16898906.22248 -13962410.38347  20555977.1484                   20555965.2074
        48.5004         44.0004
      2139.779 5                  25815675.516
        35.750
  -4732040.08755  -7704461.40652  25409614.1564                   25409610.4224
        34.7504         16.2504
 -18181154.83347 -14037386.41147  22306814.9144                   22306805.8444
        45.5004         46.5004
 -19221783.55247 -14286383.04146  22224392.7344                   22224381.1454
        46.5004         38.7504
  -6508518.51946  -5039260.44143  24430019.9534                   24430008.4224
        39.7504         21.5004
 -24425433.83248 -18964823.16649  20687161.7974                   20687149.5044
        50.5004         55.0004
 -16789386.28547 -13420573.21448  21781766.6564                   21781758.5824
        44.0004         48.0004
 -10266034.12746  -8108999.29245  23361541.2814                   23361534.2624
        36.7504         34.5004
 -22132106.05048 -18662646.60049  21244645.9924                   21244636.8634
        50.2504         55.0004
 23  1 10  1 49 30.0000000  0 11G03G22G17G23G10G21G12G31G01G25G32
  -7280937.07445  -5738852.29645  24263078.1334                   24263069.0044
        35.0004         34.0004
 -16899281.82947 -13962703.06947  20555905.5474                   20555894.0744
        47.7504         44.2504
     -2812.317 5                  25814733.961
        34.250
  -4629516.55814                  25429122.172
        27.500
 -18102683.28247 -13976239.81347  22321746.3284                   22321738.3134
        45.0004         46.0004
 -19205460.30347 -14273663.63946  22227498.5784                   22227487.4574
        47.7504         38.7504
  -6507215.06846  -5038244.83843  24430267.8444                   24430256.4884
        37.2504         20.2504
 -24485438.97048 -19011580.39849  20675741.9224                   20675730.3914
        50.5004         54.7504
 -16817930.48547 -13442815.44348  21776333.5084                   21776326.8404
        42.5004         48.2504
 -10300906.14746  -8136172.29545  23354905.2344                   23354898.6254
        36.7504         34.5004
 -22085242.46848 -18626129.54449  21253563.1484                   21253554.4884
        50.7504         54.7504
 23  1 10  1 50  0.0000000  0 11G03G22G17G23G10G21G12G31G01G25G32
  -7381482.39045  -5817199.30945  24243944.6094                   24243935.8914
        34.7504         33.7504
 -16899384.60748 -13962783.16147  20555885.5864                   20555874.1134
        48.2504         44.0004
     -7301.245 5                  25813879.539
        34.500
  -4526908.90756  -7568955.64453  25448652.9384                   25448647.6174
        37.5004         19.0004
 -18023915.09147 -13914862.06747  22336735.9774                   22336727.4924
        45.0004         46.0004
 -19188665.32847 -14260576.66046  22230695.0394                   22230682.6884
        47.5004         38.7504
  -6505335.74146  -5036780.42643  24430627.0314                   24430613.3914
        38.2504         20.2504
 -24544894.77148 -19057909.57949  20664429.0784                   20664417.1954
        50.5004         54.7504
 -16845853.88047 -13464573.92248  21771019.9224                   21771012.9614
        43.0004         48.5004
 -10335251.48846  -8162934.90945  23348369.6484                   23348362.2194
        37.7504         34.0004
 -22038158.67248 -18589440.88249  21262523.4534                   21262514.4414
        51.0004         54.7504
 23  1 10  1 50 30.0000000  0 11G03G22G17G23G10G21G12G31G01G25G32
  -7481979.09045  -5895508.42145  24224820.6334                   24224812.4414
        35.0004         34.2504
 -16899205.21647 -13962643.38447  20555919.8134                   20555908.5164
        47.5004         44.0004
    -11317.448 5                  25813114.570
        32.750
                                  25468197.125
        36.500
 -17944840.71147 -13853245.73647  22351783.5004                   22351774.8984
        44.7504         46.0004
 -19171389.06648 -14247114.65146  22233982.7504                   22233971.1024
        48.0004         38.5004
  -6502870.06246  -5034859.12143  24431094.2814                   24431082.0474
        36.7504         20.7504
 -24603789.44948 -19103801.54749  20653221.2274                   20653209.7544
        49.2504         55.0004
 -16873145.21047 -13485839.90748  21765827.7664                   21765819.1644
        44.2504         48.5004
 -10369057.98346  -8189277.63345  23341936.2734                   23341928.9024
        36.5004         34.5004
 -21990845.33848 -18552573.36749  21271526.8134                   21271517.5664
        51.0004         54.7504
 23  1 10  1 51  0.0000000  0 11G03G22G17G23G10G21G12G31G01G25G32
  -7582435.95645  -5973786.48345  24205702.6954                   24205695.6174
        34.0004         33.0004
 -16898754.49748 -13962292.18647  20556005.6024                   20555993.8364
        49.0004         44.0004
    -14870.930 5                  25812438.953
        33.000
  -4321425.29354  -7501452.11653  25487750.9844                   25487748.3634
        29.2504         21.5004
 -17865471.37847 -13791399.57047  22366886.6094                   22366878.6524
        45.7504         45.5004
 -19153642.91047 -14233286.49846  22237359.0704                   22237347.8914
        47.7504         39.0004
  -6499827.77046  -5032488.55243  24431672.8914                   24431661.8874
        37.0004         20.5004
 -24662131.77748 -19149263.07549  20642118.1564                   20642107.2704
        48.2504         55.0004
 -16899813.76447 -13506620.61548  21760752.8364                   21760744.0594
        45.2504         48.5004
 -10402333.97146  -8215206.98045  23335604.0234                   23335597.1804
        37.0004         34.7504
 -21943313.75548 -18515535.78649  21280571.9144                   21280562.8444
        51.5004         55.0004
 23  1 10  1 51 30.0000000  0 11G03G22G17G23G10G21G12G31G01G25G32
  -7682840.79945  -6052024.00745  24186598.0314                   24186589.3134
        35.5004         34.2504
 -16898022.52247 -13961721.82047  20556145.1024                   20556133.6884
        47.5004         44.2504
    -17951.569 5                  25811852.234
        33.250
                                  25507330.7504                   25507325.0784
        31.5004         21.0004
 -17785797.09047 -13729315.77747  22382048.7194                   22382039.8834
        44.5004         45.5004
 -19135416.41348 -14219084.04646  22240827.1954                   22240816.2504
        48.0004         38.5004
  -6496197.67946  -5029659.94843  24432364.8444                   24432352.6684
        37.7504         20.2504
 -24719909.39648 -19194284.60049  20631125.0704                   20631112.5434
        49.7504         54.7504
 -16925848.07047 -13526907.09848  21755798.0394                   21755790.1994
        43.7504         48.5004
 -10435066.91446  -8240713.17145  23329375.6804                   23329368.3674
        37.0004         34.7504
 -21895554.17448 -18478320.55349  21289660.3834                   21289651.1954
        50.7504         55.0004
 23  1 10  1 52  0.0000000  0 11G03G22G17G23G10G21G12G31G01G25G32
  -7783202.84045  -6130228.21345  24167499.1954                   24167491.5314
        34.2504         33.2504
 -16897020.90547 -13960941.34947  20556335.4614                   20556324.1644
        47.2504         44.0004
    -20570.134 5                  25811354.781
        32.500
  -4115592.04915                  25526924.578
        35.000
 -17705829.82347 -13667003.68947  22397265.8364                   22397257.8794
        44.7504         45.2504
 -19116721.19147 -14204516.35946  22244385.2344                   22244373.5274
        47.5004         38.2504
  -6491990.44346  -5026381.61843  24433163.8054                   24433153.3284
        36.5004         19.5004
 -24777131.69748 -19238873.41349  20620234.7894                   20620223.4344
        49.0004         54.7504
 -16951257.87247 -13546706.94548  21750962.3054                   21750954.9344
        44.0004         48.7504
 -10467265.59146  -8265803.05345  23323248.5864                   23323240.7464
        37.2504         35.5004
 -21847578.28748 -18440936.76549  21298790.2344                   21298780.7544
        51.5004         55.0004
 23  1 10  1 52 30.0000000  0 11G03G22G17G23G10G21G12G31G01G25G32
  -7883511.31845  -6208390.60945  24148411.4534                   24148402.5594
        35.0004         32.7504
 -16895740.84947 -13959943.90647  20556579.1024                   20556567.6884
        47.5004         44.0004
    -22718.033 5                  25810946.031
        32.000
                                  25546537.281
        39.250
 -17625561.18247 -13604456.78347  22412541.3984                   22412532.2114
        45.7504         45.2504
 -19097549.13347 -14189577.11046  22248033.2664                   22248021.7934
        47.5004         38.5004
  -6487196.36246  -5022646.01243  24434075.8834                   24434066.2274
        36.0004         19.7504
 -24833787.97548 -19283021.13949  20609453.2664                   20609442.4384
        48.7504         55.0004
 -16976033.11047 -13566012.31648  21746247.5944                   21746240.7504
        44.2504         48.7504
 -10498918.90746  -8290468.00045  23317224.9304                   23317216.6804
        36.5004         35.0004
 -21799377.77848 -18403377.93649  21307962.3674                   21307952.8874
        51.7504         54.7504
 23  1 10  1 53  0.0000000  0 11G03G22G17G23G10G21G12G31G01G25G32
  -7983773.26346  -6286516.81045  24129331.7584                   24129323.8014
        36.2504         34.0004
 -16894191.65647 -13958736.76147  20556874.0084                   20556862.3594
        47.2504         44.0004
    -24404.170 5                  25810625.008
        31.250
    798085.75115                  25566157.711
        35.500
 -17545000.34347 -13541682.15947  22427871.1024                   22427862.0314
        45.2504         45.0004
 -19077909.62547 -14174273.61746  22251770.6884                   22251759.2734
        46.5004         38.2504
  -6481823.99946  -5018459.78243  24435099.4534                   24435088.3324
        36.7504         18.2504
 -24889884.91548 -19326733.03749  20598779.6484                   20598767.4144
        50.2504         54.7504
 -17000181.46447 -13584829.21148  21741653.0634                   21741644.9304
        44.5004         49.0004
 -10530033.52846  -8314713.17445  23311303.4224                   23311296.4024
        37.2504         34.5004
 -21750962.10748 -18365651.45949  21317175.3594                   21317166.4064
        51.0004         55.0004
