     2.11           OBSERVATION DATA    G (GPS)             RINEX VERSION / TYPE
teqc  2019Feb25     Salamtina Y.M.      20230920 03:20:34UTCPGM / RUN BY / DATE
OBSERVATION MODE: Permanent                                 COMMENT
CHUM Chumysh (CHUM)                                         MARKER NAME
25601M001                                                   MARKER NUMBER
4549261325          TRIMBLE NETRS        1.3-2              REC # / TYPE / VERS
237                 AOAD/M_T        NONE                    ANT # / TYPE
        0.0900        0.0000        0.0000                  ANTENNA: DELTA H/E/N
  1228950.3084  4508080.0110  4327868.5430                  APPROX POSITION XYZ
  74.75110458  42.99850161  716.3369  LonLatAlt  S/W        COMMENT
ANT ADDED FROM RCV_ANT.txt                                  COMMENT
Linux 2.6.32-573.12.1.x86_64|x86_64|gcc|Linux 64|=+         COMMENT
BIT 2 OF LLI FLAGS DATA COLLECTED UNDER A/S CONDITION       COMMENT
Konovalov S.M.      RS_RAS                                  OBSERVER / AGENCY
     1     1                                                WAVELENGTH FACT L1/2
     7    L1    L2    C1    P1    P2    S1    S2            # / TYPES OF OBSERV
    30.0000                                                 INTERVAL
    18                                                      LEAP SECONDS
TIME: 2023.01.08                                            COMMENT
TOUR: cont                                                  COMMENT
RSET: RAS02                                                 COMMENT
ASET: DS24                                                  COMMENT
OPER: skon (Konovalov S.M.)                                 COMMENT
SOUR: chum202301080000d.dat                                 COMMENT
SUPP: chum202301080000d.eph                                 COMMENT
SUPP: chum202301080000d.ion                                 COMMENT
SUPP: chum202301080000d.mes                                 COMMENT
Forced Modulo Decimation to 30 seconds                      COMMENT
 SNR is mapped to RINEX snr flag value [0-9]                COMMENT
  L1 & L2: min(max(int(snr_dBHz/6), 0), 9)                  COMMENT
  2023     1     8     0     0    0.0000000     GPS         TIME OF FIRST OBS
  2023     1     8    23    59   30.0000000     GPS         TIME OF LAST OBS
                                                            END OF HEADER
 23  1  8  0  0  0.0000000  0 10G23G24G27G08G22G10G21G18G31G32
 -12676456.76347 -11690655.17346  21674040.8134                   21674029.9264
        46.0004         38.7504
 -12667230.55446 -10626646.68246  22602398.5634                   22602389.3164
        40.7504         41.0004
  -9101592.53046  -6903159.97545  23674818.6414                   23674810.8594
        36.5004         35.0004
  -9233953.97547  -7161386.97246  23558766.7114                   23558757.2894
        43.0004         38.5004
  -8913619.39147  -7223997.04245  22217403.9064                   22217393.0204
        44.2504         30.2504
 -28108414.85849 -21779931.54549  20513644.4454                   20513635.2584
        54.2504         54.7504
 -10246753.01246  -7021232.12344  23855771.9844                   23855760.6294
        40.5004         27.0004
 -10320220.32945  -8064506.32543  23918938.3054                   23918928.5314
        35.7504         22.7504
                                  25247899.9534                   25247885.4344
        37.2504         29.0004
 -18114704.22348 -20628198.10249  20737204.2344                   20737195.1644
        52.0004         54.7504
 23  1  8  0  0 30.0000000  0 10G23G24G27G08G22G10G21G18G31G32
 -12617118.69647 -11644417.73746  21685332.2504                   21685321.5984
        45.5004         38.5004
 -12609280.67846 -10581490.92644  22613424.9694                   22613416.4844
        38.7504         29.2504
  -9017666.53546  -6837763.08545  23690790.4454                   23690781.4924
        38.2504         35.2504
  -9195251.64646  -7131229.33546  23566130.6724                   23566122.0704
        41.5004         38.2504
  -8988792.22547  -7282573.28744  22203099.5864                   22203088.4654
        44.7504         29.7504
 -28105173.02248 -21777405.43749  20514261.1884                   20514252.0594
        53.5004         54.7504
 -10325123.48246  -7082300.01644  23840858.7274                   23840847.0784
        41.0004         26.5004
 -10208756.14046  -7977651.11443  23940148.9924                   23940139.5124
        37.0004         22.7504
   -667852.23745   -484958.33745  25225429.8284                   25225419.7624
        33.0004         30.0004
 -18146605.04148 -20653055.87949  20731133.4614                   20731124.2734
        52.0004         55.0004
 23  1  8  0  1  0.0000000  0 10G23G24G27G08G22G10G21G18G31G32
 -12557537.49147 -11597990.83546  21696670.4534                   21696659.3324
        46.0004         38.7504
 -12550774.30846 -10535901.56645  22624559.6724                   22624550.6604
        39.7504         30.5004
  -8933500.21346  -6772178.94345  23706806.2424                   23706797.9344
        36.0004         34.0004
  -9156076.03547  -7100702.90346  23573585.7814                   23573577.6484
        42.2504         38.5004
  -9063663.24547  -7340914.33245  22188852.0634                   22188840.5314
        45.0004         31.0004
 -28101640.75348 -21774653.02749  20514933.4844                   20514924.4144
        53.0004         54.7504
 -10403265.87346  -7143190.18144  23825988.4384                   23825976.3794
        40.5004         24.5004
 -10097134.59046  -7890673.28943  23961390.7274                   23961380.8364
        37.0004         22.5004
   -785997.82455   -577019.85454  25202947.4454                   25202937.3794
        33.5004         28.5004
 -18178086.65948 -20677586.99449  20725143.0944                   20725133.4964
        52.0004         54.7504
 23  1  8  0  1 30.0000000  0 10G23G24G27G08G22G10G21G18G31G32
 -12497716.14547 -11551376.82746  21708053.9144                   21708043.3794
        45.7504         39.0004
 -12491716.30246 -10489882.34945  22635796.7504                   22635788.7934
        38.5004         30.5004
  -8849099.46646  -6706412.14245  23722867.6954                   23722858.6254
        37.0004         34.5004
  -9116431.73646  -7069811.25846  23581129.3594                   23581121.8134
        41.5004         38.7504
  -9138234.27447  -7399021.61645  22174661.5314                   22174650.4694
        44.2504         30.7504
 -28097819.96248 -21771675.79749  20515660.3054                   20515651.1174
        52.5004         54.7504
 -10481181.02846  -7203903.26944  23811161.9144                   23811150.4414
        41.2504         25.7504
  -9985360.46246  -7803576.58543  23982659.6954                   23982650.4494
        38.0004         22.2504
   -904225.56045   -669145.37245  25180449.1254                   25180438.6484
        35.0004         31.5004
 -18209151.88648 -20701793.66049  20719231.2974                   20719221.7584
        52.5004         54.7504
 23  1  8  0  2  0.0000000  0 10G23G24G27G08G22G10G21G18G31G32
 -12437654.94247 -11504575.90046  21719483.4534                   21719472.2734
        47.0004         38.0004
 -12432108.91046 -10443435.01745  22647140.3594                   22647131.2304
        39.5004         30.0004
  -8764467.52546  -6640465.16345  23738971.6024                   23738963.2934
        36.0004         33.2504
  -9076320.78446  -7038555.99346  23588762.4384                   23588754.6564
        41.5004         38.0004
  -9212504.76947  -7456894.72145  22160527.7664                   22160517.2304
        44.5004         30.7504
 -28093710.77048 -21768473.83149  20516442.4384                   20516433.1914
        53.0004         54.7504
 -10558867.06946  -7264437.85444  23796378.8364                   23796366.7194
        40.0004         26.2504
  -9873436.05846  -7716362.80943  24003958.0394                   24003949.0274
        37.5004         22.0004
  -1022533.20045   -761333.18445  25157935.0084                   25157928.1644
        30.2504         32.5004
 -18239800.94048 -20725676.02049  20713398.9694                   20713389.6644
        52.5004         55.0004
 23  1  8  0  2 30.0000000  0 10G23G24G27G08G22G10G21G18G31G32
 -12377354.45047 -11457588.51346  21730958.2424                   21730947.1804
        46.2504         38.5004
 -12371954.39946 -10396561.38845  22658586.7424                   22658578.3754
        38.7504         31.0004
  -8679607.71046  -6574340.67345  23755121.3754                   23755112.0704
        37.2504         33.5004
  -9035745.51247  -7006938.92446  23596483.6174                   23596475.6024
        42.0004         38.2504
  -9286473.87847  -7514532.98045  22146452.1644                   22146441.0434
        45.0004         31.0004
 -28089312.59448 -21765046.68249  20517279.4614                   20517270.0984
        53.0004         55.0004
 -10636322.37246  -7324792.65144  23781639.7114                   23781627.3594
        41.0004         26.7504
  -9761363.76145  -7629033.73643  24025283.8134                   24025275.2114
        35.5004         22.7504
  -1140918.35156   -853581.13854  25135413.4534                   25135396.8834
        40.0004         28.5004
 -18270034.18548 -20749234.38949  20707645.6804                   20707636.3164
        52.0004         55.0004
 23  1  8  0  3  0.0000000  0 11G23G24G27G08G22G10G21G18G31G01G32
 -12316814.34447 -11410414.42046  21742478.1564                   21742467.4454
        45.2504         38.2504
 -12311254.33246 -10349262.62345  22670137.4534                   22670129.5554
        39.0004         30.2504
  -8594522.67946  -6508040.64245  23771312.8444                   23771302.7774
        36.7504         33.5004
  -8994707.86447  -6974961.54546  23604293.7584                   23604284.3364
        42.7504         38.2504
  -9360140.01347  -7571935.15545  22132435.5234                   22132424.4024
        44.5004         30.7504
 -28084624.51548 -21761393.64049  20518171.4924                   20518162.4224
        53.0004         54.7504
 -10713544.24546  -7384965.52844  23766944.6724                   23766933.0824
        40.0004         25.7504
  -9649145.20046  -7541590.69343  24046640.0394                   24046630.0904
        37.7504         22.7504
  -1259380.80655   -929027.18355  25112866.4694                   25112855.8164
        35.5004         30.0004
    -13529.94755     21634.56053  25352104.1804                   25352095.5204
        32.2504         19.0004
 -18299851.20748 -20772468.41649  20701971.4224                   20701962.2344
        51.5004         55.0004
 23  1  8  0  3 30.0000000  0 11G23G24G27G08G22G10G21G18G31G01G32
 -12256035.14947 -11363054.02446  21754044.2584                   21754033.8404
        45.7504         37.7504
 -12250011.25146 -10301540.75945  22681792.6414                   22681783.8634
        39.5004         30.2504
  -8509215.81446  -6441567.76045  23787544.1804                   23787536.3984
        36.0004         33.5004
  -8953210.16347  -6942625.68646  23612189.5554                   23612181.2464
        42.5004         38.0004
  -9433503.11147  -7629101.19445  22118473.6254                   22118462.1524
        44.5004         31.0004
 -28079646.34848 -21757514.56049  20519118.7584                   20519109.8054
        53.0004         54.7504
 -10790531.24346  -7444955.37544  23752295.0164                   23752282.3134
        41.2504         26.5004
  -9536782.68046  -7454035.49144  24068022.8284                   24068011.7074
        38.5004         24.5004
  -1377912.34555  -1021389.53055  25090309.3524                   25090300.8094
        34.0004         32.5004
   -126421.72245    -66333.08542  25330622.7504                   25330614.9694
        30.5004         16.7504
 -18329252.44648 -20795378.46849  20696376.8984                   20696367.4774
        51.7504         54.7504
 23  1  8  0  4  0.0000000  0 11G23G24G27G08G22G10G21G18G31G01G32
 -12195017.56447 -11315507.86646  21765655.5784                   21765645.1024
        45.5004         38.2504
 -12188227.62746 -10253397.67244  22693549.1414                   22693540.4804
        39.7504         29.2504
  -8423690.71346  -6374924.83245  23803821.3984                   23803811.0984
        38.2504         33.7504
  -8911254.77447  -6909933.20446  23620173.8674                   23620165.2074
        42.7504         38.0004
  -9506562.53247  -7686030.60945  22104571.1254                   22104560.1214
        45.0004         31.5004
 -28074377.57848 -21753409.03249  20520121.2584                   20520112.6564
        53.5004         54.7504
 -10867281.37846  -7504760.69544  23737689.8984                   23737677.0204
        41.7504         25.0004
  -9424278.76546  -7366370.15644  24089432.5234                   24089420.9344
        40.0004         24.0004
  -1496514.08546  -1113806.38945  25067741.9454                   25067730.3554
        36.0004         31.2504
   -239243.35255   -154246.05652  25309152.5944                   25309146.0434
        33.0004         16.7504
 -18358238.41848 -20817964.92249  20690860.7734                   20690851.3524
        52.2504         54.7504
 23  1  8  0  4 30.0000000  0 11G23G24G27G08G22G10G21G18G31G01G32
 -12133760.11047 -11267774.79946  21777312.6024                   21777301.5394
        45.7504         37.7504
 -12125903.90746 -10204833.73344  22705408.5784                   22705400.2114
        38.5004         29.7504
  -8337948.76045  -6308112.92845  23820134.7274                   23820127.2974
        35.2504         32.7504
  -8868841.70447  -6876884.06246  23628245.0704                   23628236.3524
        43.0004         37.7504
  -9579315.63247  -7742721.32645  22090727.1724                   22090715.2304
        44.7504         31.7504
 -28068816.41348 -21749075.65349  20521179.9694                   20521170.6644
        53.0004         55.0004
 -10943791.45846  -7564378.90644  23723130.4144                   23723118.0634
        41.5004         26.5004
  -9311633.97846  -7278594.99844  24110865.2894                   24110856.4534
        37.0004         24.0004
  -1615181.36446  -1206274.36145  25045161.9774                   25045149.0394
        37.5004         31.2504
                                  25287697.0084                   25287691.5704
        28.7504         16.2504
 -18386807.64048 -20840226.64749  20685424.3134                   20685415.0664
        52.2504         54.7504
 23  1  8  0  5  0.0000000  0 11G23G24G27G08G22G10G21G18G31G01G32
 -12072265.71047 -11219857.09746  21789014.9304                   21789003.5744
        45.7504         38.5004
 -12063044.95546 -10155852.74544  22717370.8284                   22717362.0514
        38.7504         29.0004
  -8251995.79546  -6241136.59245  23836492.5864                   23836483.8094
        37.0004         33.2504
  -8825976.33747  -6843482.49546  23636401.1174                   23636393.5124
        42.0004         37.0004
  -9651764.24347  -7799174.77845  22076939.2504                   22076928.8324
        44.0004         32.0004
 -28062964.67348 -21744515.86249  20522293.3834                   20522284.1374
        53.2504         55.0004
 -11020061.86846  -7623810.41244  23708617.0704                   23708604.4264
        41.5004         26.0004
  -9198853.09246  -7190713.76743  24132329.2274                   24132318.1054
        38.5004         22.2504
  -1733914.13045  -1298793.36345  25022566.5394                   25022555.1254
        35.5004         31.5004
   -464663.77655   -329898.37752  25266257.6954                   25266250.5004
        32.5004         17.7504
 -18414962.89248 -20862165.79649  20680066.6884                   20680057.2074
        52.5004         55.0004
 23  1  8  0  5 30.0000000  0 11G23G24G27G08G22G10G21G18G31G01G32
 -12010531.76047 -11171752.72746  21800761.7584                   21800751.6334
        45.2504         37.5004
 -11999650.17546 -10106454.22245  22729434.8674                   22729425.7384
        39.5004         30.5004
  -8165832.06546  -6173996.02545  23852889.2274                   23852880.5664
        36.0004         33.2504
  -8782657.40947  -6809727.51846  23644645.2194                   23644636.7344
        43.0004         37.5004
  -9723905.05947  -7855388.37045  22063212.0314                   22063200.7934
        45.0004         31.2504
 -28056819.44648 -21739727.38249  20523462.6334                   20523453.2704
        52.2504         55.0004
 -11096087.81546  -7683051.39044  23694148.4614                   23694136.3444
        40.7504         27.5004
  -9085935.28546  -7102725.89943  24153815.7274                   24153805.3094
        38.2504         23.5004
  -1852707.10345  -1391359.35245  24999960.5474                   24999948.3134
        35.5004         30.5004
                                  25244832.4924                   25244824.4184
        30.5004         13.7504
 -18442701.45448 -20883780.25249  20674788.2734                   20674778.8524
        51.5004         54.7504
 23  1  8  0  6  0.0000000  0 10G23G24G27G08G22G10G21G18G31G32
 -11948560.56447 -11123463.51846  21812555.0704                   21812544.5944
        45.0004         37.5004
 -11935723.78546 -10056641.43844  22741598.7664                   22741590.7504
        38.2504         29.5004
  -8079462.72146  -6106695.26545  23869324.0164                   23869315.5904
        36.7504         33.0004
  -8738889.76547  -6775622.87146  23652974.7344                   23652965.6644
        43.0004         37.5004
  -9795738.98747  -7911362.85145  22049542.1414                   22049531.3714
        44.7504         31.5004
 -28050382.00448 -21734711.18949  20524687.6954                   20524678.5664
        52.5004         55.0004
 -11171869.49147  -7742102.05744  23679729.5084                   23679716.9224
        42.2504         27.7504
  -8972884.90046  -7014634.71243  24175328.8594                   24175317.9734
        38.5004         22.7504
  -1971559.63545  -1483971.65545  24977342.6884                   24977332.6214
        34.7504         32.5004
 -18470025.66848 -20905071.83149  20669588.3204                   20669579.3674
        52.0004         55.0004
 23  1  8  0  6 30.0000000  0 11G23G24G27G08G22G10G21G18G31G01G32
 -11886352.12347 -11074989.42746  21824392.7974                   21824382.3794
        45.2504         37.2504
 -11871267.77946 -10006415.99944  22753864.9304                   22753856.0354
        38.5004         28.7504
  -7992890.78446  -6039236.62145  23885798.8754                   23885790.0394
        36.5004         33.2504
  -8694674.85747  -6741169.72546  23661388.2584                   23661380.0084
        43.5004         37.2504
  -9867265.19047  -7967097.54445  22035930.4844                   22035920.3594
        43.5004         31.0004
 -28043651.61048 -21729466.73549  20525968.3754                   20525959.3054
        51.7504         54.7504
 -11247404.56446  -7800960.55344  23665354.7274                   23665342.4924
        41.5004         27.2504
  -8859703.75446  -6926441.61943  24196865.3594                   24196856.2894
        38.2504         22.2504
  -2090468.74245  -1576628.17345  24954715.6724                   24954704.3754
        34.0004         31.2504
                                  25202023.7344                   25202016.0704
        29.5004         16.2504
 -18496935.50448 -20926040.52449  20664467.8444                   20664458.4224
        52.2504         54.7504
 23  1  8  0  7  0.0000000  0 11G23G24G27G08G22G10G21G18G31G01G32
 -11823905.56747 -11026329.79146  21836276.3444                   21836265.1644
        45.0004         36.5004
 -11806283.26046  -9955778.68544  22766230.5944                   22766222.3444
        38.5004         29.2504
  -7906118.13946  -5971621.57545  23902310.7894                   23902302.0704
        36.7504         32.5004
  -8650013.72647  -6706368.87046  23669886.5554                   23669877.6604
        42.2504         36.2504
  -9938481.79047  -8022590.97745  22022379.3284                   22022368.3834
        44.5004         30.5004
 -28036626.83148 -21723992.89749  20527305.0864                   20527295.8404
        51.7504         54.7504
 -11322690.09246  -7859624.59444  23651028.8284                   23651015.6564
        41.7504         26.5004
  -8746392.89646  -6838147.45444  24218428.7974                   24218418.2034
        39.5004         24.5004
  -2209430.51145  -1669325.59545  24932076.8284                   24932066.7034
        34.0004         31.2504
                                  25180644.9844                   25180638.3754
        31.5004         16.7504
 -18523429.93348 -20946685.52949  20659426.2274                   20659416.4534
        51.5004         54.7504
 23  1  8  0  7 30.0000000  0 11G23G24G27G08G22G10G21G18G31G01G32
 -11761222.26747 -10977485.67146  21848204.7034                   21848193.2894
        45.5004         36.0004
 -11740773.61646  -9904732.25744  22778697.2664                   22778688.3714
        38.7504         27.0004
  -7819149.03646  -5903853.45345  23918860.7664                   23918851.9884
        36.0004         32.2504
  -8604909.93647  -6671223.07046  23678469.9384                   23678460.6334
        42.7504         36.5004
 -10009389.11947  -8077843.42545  22008885.4454                   22008874.9694
        44.0004         31.0004
 -28029307.76248 -21718289.71849  20528697.6564                   20528688.9964
        52.2504         54.7504
 -11397724.96646  -7918093.29944  23636749.8284                   23636737.8874
        41.7504         26.7504
  -8632955.48946  -6749754.72343  24240015.2814                   24240004.8054
        38.7504         22.5004
  -2328443.30245  -1762062.84245  24909428.9844                   24909419.3874
        33.0004         31.0004
                                  25159283.1254                   25159276.5164
        31.7504         15.5004
 -18549510.34548 -20967007.92049  20654462.8914                   20654453.7034
        52.0004         55.0004
 23  1  8  0  8  0.0000000  0 10G23G24G27G08G22G10G21G18G31G32
 -11698302.33147 -10928457.17246  21860177.4774                   21860166.9414
        45.0004         37.2504
 -11674741.04546  -9853278.30044  22791262.6334                   22791253.9734
        39.5004         28.7504
  -7731986.43246  -5835934.55845  23935446.7974                   23935437.7854
        36.7504         33.0004
  -8559365.41747  -6635733.84046  23687136.5084                   23687126.7344
        42.5004         36.2504
 -10079986.49947  -8132854.36245  21995451.8754                   21995441.1054
        45.0004         31.2504
 -28021694.11948 -21712357.03249  20530146.7274                   20530137.8324
        51.2504         55.0004
 -11472507.21947  -7976365.16844  23622518.8364                   23622506.0164
        42.0004         26.5004
  -8519393.61746  -6661264.94843  24261624.8674                   24261614.5084
        38.5004         22.7504
  -2447504.55446  -1854837.87345  24886776.4144                   24886762.4224
        36.7504         32.2504
 -18575176.83148 -20987007.77549  20649578.8134                   20649569.5084
        51.2504         54.7504
 23  1  8  0  8 30.0000000  0 11G23G24G27G08G22G10G21G18G31G01G32
 -11635146.12547 -10879244.57146  21872195.5474                   21872185.0704
        44.5004         36.7504
 -11608187.93146  -9801418.70544  22803927.6564                   22803918.2934
        38.7504         29.0004
  -7644633.75846  -5767867.54645  23952070.3754                   23952061.0704
        37.2504         33.7504
  -8513382.55347  -6599903.06346  23695887.5634                   23695877.9654
        42.7504         36.0004
 -10150272.96847  -8187623.02145  21982076.1094                   21982065.5744
        44.0004         31.2504
 -28013785.27648 -21706194.30349  20531651.6564                   20531642.3524
        52.2504         55.0004
 -11547035.08547  -8034438.85344  23608337.2504                   23608324.7814
        42.0004         26.5004
  -8405709.58846  -6572680.02143  24283258.7734                   24283247.9454
        38.2504         23.7504
  -2566611.60246  -1947648.49445  24864108.6484                   24864097.3524
        36.0004         31.5004
                                  25116608.9774                   25116603.5984
        31.0004         13.7504
 -18600429.74648 -21006685.36549  20644773.5234                   20644764.2774
        52.0004         55.0004
 23  1  8  0  9  0.0000000  0 11G23G24G27G08G22G10G21G18G31G01G32
 -11571752.80647 -10829847.19646  21884258.9774                   21884248.0314
        45.0004         37.0004
 -11541115.38446  -9749154.42244  22816690.4774                   22816681.5824
        37.5004         27.5004
  -7557092.88946  -5699653.89245  23968728.4304                   23968719.7114
        36.5004         32.2504
  -8466962.81147  -6563731.84446  23704719.7974                   23704711.1954
        42.0004         36.5004
 -10220246.78247  -8242148.05945  21968761.4614                   21968750.0474
        44.5004         32.0004
 -28005579.99348 -21699800.57749  20533213.2424                   20533204.0554
        51.5004         55.0004
 -11621305.38246  -8092311.78044  23594202.8054                   23594191.9184
        41.0004         27.2504
  -8291904.34946  -6484000.64043  24304915.5784                   24304904.5164
        39.2504         22.7504
  -2685760.45945  -2040491.81045  24841433.4064                   24841423.8094
        33.5004         32.0004
                                  25095301.1414                   25095291.7774
        31.7504         16.7504
 -18625268.25648 -21026040.03349  20640046.6484                   20640037.2854
        51.5004         55.0004
 23  1  8  0  9 30.0000000  0 11G23G24G27G08G22G10G21G18G31G01G32
 -11508123.38747 -10780265.85746  21896367.4454                   21896356.5594
        45.0004         36.5004
 -11473526.59346  -9696487.80444  22829553.4844                   22829543.4774
        39.7504         28.5004
  -7469367.68946  -5631296.62345  23985422.0944                   23985412.9654
        36.5004         32.5004
  -8420108.80146  -6527222.26446  23713635.6954                   23713627.5634
        41.2504         36.7504
 -10289907.87947  -8296429.41445  21955504.6564                   21955493.5944
        44.2504         32.7504
 -27997078.18448 -21693175.79449  20534831.2734                   20534821.7934
        51.7504         54.7504
 -11695317.01546  -8149983.17344  23580119.8444                   23580107.0824
        41.7504         28.0004
  -8177980.81546  -6395229.11243  24326594.0234                   24326583.3714
        39.5004         23.2504
  -2804949.33745  -2133366.25945  24818754.2034                   24818743.4924
        35.0004         32.0004
                                  25074006.758
        28.250
 -18649693.36248 -21045072.58149  20635398.7344                   20635389.3134
        52.0004         54.7504
 23  1  8  0 10  0.0000000  0 11G23G24G27G08G22G10G21G18G31G01G32
 -11444260.86447 -10730502.85746  21908519.9534                   21908509.4774
        45.0004         36.2504
 -11405426.53646  -9643422.83344  22842511.1884                   22842503.3484
        38.2504         27.5004
  -7381464.09245  -5562800.30845  24002148.4534                   24002140.5554
        35.0004         32.5004
  -8372825.75046  -6490378.34945  23722633.9304                   23722625.3874
        41.2504         35.5004
 -10359258.16847  -8350468.58845  21942308.1024                   21942296.9804
        45.2504         31.5004
 -27988282.36048 -21686321.90749  20536504.6644                   20536495.5944
        51.2504         55.0004
 -11769070.64246  -8207453.54844  23566084.1414                   23566072.4924
        40.5004         26.7504
  -8063943.90646  -6306369.15644  24348294.5394                   24348283.6524
        38.5004         24.5004
  -2924178.40745  -2226272.04345  24796065.0634                   24796054.7624
        35.2504         32.0004
  -1586728.67755  -1082955.12353  25052735.7344                   25052726.8404
        31.2504         18.2504
 -18673708.02348 -21063785.29549  20630829.2114                   20630819.6724
        51.7504         54.7504
 23  1  8  0 10 30.0000000  0 11G23G24G27G08G22G10G21G18G31G01G32
 -11380160.56847 -10680554.59845  21920717.8914                   21920707.5314
        44.5004         35.7504
 -11336812.77246  -9589957.56544  22855567.5004                   22855559.1334
        38.2504         27.5004
  -7293380.30845  -5494163.62245  24018910.1954                   24018902.7664
        35.5004         33.0004
  -8325110.77746  -6453197.86045  23731713.4534                   23731703.9144
        40.7504         35.7504
 -10428292.52447  -8404261.58145  21929170.6804                   21929160.2034
        45.0004         32.5004
 -27979186.67348 -21679234.36349  20538235.4064                   20538226.5704
        51.2504         55.0004
 -11842559.35646  -8264717.45844  23552099.9304                   23552088.6914
        41.0004         28.0004
  -7949790.83846  -6217418.75444  24370017.1334                   24370007.1844
        39.0004         24.2504
  -3043439.41145  -2319202.69745  24773370.8984                   24773360.4804
        35.2504         32.7504
  -1698415.33755  -1169983.56552  25031481.0234                   25031474.7074
        31.2504         15.5004
 -18697307.60648 -21082174.57149  20626338.3594                   20626328.5864
        51.7504         55.0004
 23  1  8  0 11  0.0000000  0 11G23G24G27G08G22G10G21G18G31G01G32
 -11315823.04647 -10630421.49346  21932961.1334                   21932949.8954
        45.0004         36.0004
 -11267687.77746  -9536093.94444  22868723.4534                   22868713.2114
        39.0004         28.2504
  -7205119.63845  -5425389.08245  24035706.3054                   24035697.6454
        35.7504         32.7504
  -8276966.54747  -6415682.86145  23740875.4924                   23740865.5434
        42.0004         35.5004
 -10497010.17047  -8457807.78445  21916094.4384                   21916083.5514
        45.5004         32.0004
 -27969791.13648 -21671913.17849  20540023.4924                   20540014.4224
        51.0004         55.0004
 -11915781.28946  -8321773.51944  23538166.6724                   23538153.7934
        41.2504         25.7504
  -7835523.94746  -6128379.61244  24391760.8444                   24391751.0124
        38.2504         24.7504
  -3162730.39346  -2412156.74345  24750671.2274                   24750660.2814
        36.0004         33.5004
                                  25010248.4844                   25010242.4614
        30.5004         16.7504
 -18720492.71148 -21100240.88149  20621926.4304                   20621916.5394
        52.0004         54.7504
 23  1  8  0 11 30.0000000  0 11G23G24G27G08G22G10G21G18G31G01G32
 -11251252.71947 -10580106.97446  21945248.7504                   21945237.5704
        45.0004         36.5004
 -11198058.17646  -9481837.12244  22881971.9534                   22881963.1764
        38.0004         27.5004
  -7116689.38545  -5356482.39745  24052534.3594                   24052526.2274
        35.2504         32.2504
  -8228399.72746  -6377838.60046  23750116.9224                   23750109.2584
        41.2504         36.0004
 -10565414.68747  -8511109.99345  21903077.4144                   21903067.0554
        45.5004         32.2504
 -27960099.34548 -21664361.13549  20541867.8754                   20541858.5704
        52.0004         55.0004
 -11988738.55446  -8378623.33244  23524283.7734                   23524271.4804
        41.7504         27.7504
  -7721149.68746  -6039256.83244  24413525.7894                   24413516.3674
        38.2504         24.5004
  -3282052.69046  -2505135.14045  24727966.3054                   24727953.8954
        37.0004         33.5004
                                  24989035.3204                   24989028.7114
        32.5004         16.2504
 -18743267.75248 -21117987.66649  20617592.2974                   20617582.9344
        52.5004         54.7504
 23  1  8  0 12  0.0000000  0 10G23G24G27G08G22G10G21G18G31G32
 -11186447.17847 -10529609.17346  21957580.3204                   21957569.8444
        44.7504         36.2504
 -11127923.69346  -9427186.88344  22895317.7814                   22895309.6484
        38.7504         27.5004
  -7028090.20446  -5287444.08745  24069394.6024                   24069385.0634
        36.0004         31.5004
  -8179409.82646  -6339664.69446  23759439.1334                   23759432.6414
        41.0004         36.0004
 -10633502.68947  -8564165.56345  21890120.8834                   21890109.9964
        44.5004         33.0004
 -27950108.08148 -21656575.74949  20543769.1644                   20543760.1524
        51.0004         54.7504
 -12061426.98046  -8435263.65444  23510451.0084                   23510440.1804
        41.0004         26.7504
  -7606667.50646  -5950049.96243  24435312.1414                   24435301.3714
        39.2504         23.5004
  -3401400.84345  -2598133.72045  24705253.2424                   24705242.4144
        35.5004         32.5004
 -18765630.46348 -21135413.14349  20613336.7114                   20613327.2894
        51.7504         54.7504
 23  1  8  0 12 30.0000000  0 11G23G24G27G08G22G10G21G18G31G01G32
 -11121409.05547 -10478930.14546  21969957.2114                   21969946.2074
        45.5004         36.2504
 -11057289.07146  -9372146.88944  22908759.6884                   22908750.9104
        38.0004         27.5004
  -6939327.28945  -5218278.18245  24086283.4454                   24086276.6604
        34.7504         31.7504
  -8130001.67746  -6301164.86245  23768842.4224                   23768833.4694
        41.2504         35.5004
 -10701275.77847  -8616975.74845  21877224.1954                   21877213.0744
        45.2504         33.0004
 -27939819.27648 -21648558.50749  20545727.1334                   20545717.9454
        51.5004         54.7504
 -12133846.64146  -8491694.56444  23496670.4144                   23496657.0084
        41.2504         26.7504
  -7492081.81146  -5860762.38443  24457115.7504                   24457105.8594
        38.2504         22.5004
  -3520774.31746  -2691151.99945  24682537.3984                   24682526.2774
        37.0004         33.5004
  -2144101.05155  -1429429.28152  24946670.3524                   24946665.5634
        31.5004         16.7504
 -18787583.40148 -21152519.32649  20609159.4534                   20609149.7974
        52.0004         54.7504
 23  1  8  0 13  0.0000000  0 11G23G24G27G08G22G10G21G18G31G01G32
 -11056135.98247 -10428068.04046  21982377.6094                   21982367.1334
        44.5004         36.7504
 -10986154.08046  -9316717.04144  22922296.2584                   22922287.4804
        38.5004         27.0004
  -6850401.34045  -5148985.25545  24103207.4384                   24103199.6564
        35.7504         31.0004
  -8080174.98546  -6262338.87945  23778324.1804                   23778314.1724
        41.0004         34.5004
 -10768731.08347  -8669538.32645  21864387.6484                   21864376.9964
        46.0004         33.2504
 -27929229.93748 -21640307.07549  20547742.2344                   20547732.9304
        51.0004         54.7504
 -12205993.00747  -8547912.53944  23482941.9844                   23482928.5204
        42.2504         27.5004
  -7377392.27746  -5771393.94544  24478940.1334                   24478930.9454
        37.2504         25.7504
  -3640167.64546  -2784185.76345  24659816.1254                   24659806.6454
        36.5004         33.2504
  -2255244.31255  -1516034.48652  24925521.3674                   24925514.6994
        32.2504         15.5004
 -18809124.36048 -21169304.48349  20605060.3524                   20605050.5204
        52.7504         54.7504
 23  1  8  0 13 30.0000000  0 11G23G24G27G08G22G10G21G18G31G01G32
 -10990628.35447 -10377023.16346  21994843.5314                   21994832.7034
        45.2504         36.5004
 -10914521.39746  -9260899.37144  22935927.6094                   22935918.9494
        37.7504         27.0004
  -6761315.52145  -5079567.72945  24120159.8754                   24120150.2774
        35.5004         31.0004
  -8029932.26446  -6223188.70645  23787884.0864                   23787874.9574
        40.0004         34.5004
 -10835867.70647  -8721852.55345  21851612.3754                   21851601.0204
        46.0004         33.5004
 -27918339.32648 -21631820.89149  20549814.6884                   20549805.4414
        52.0004         55.0004
 -12277864.32746  -8603916.15244  23469264.2194                   23469252.2194
        41.2504         27.5004
  -7262601.09646  -5681946.27243  24500785.3134                   24500774.6024
        38.7504         22.7504
  -3759578.49646  -2877233.20145  24637095.0394                   24637083.6844
        37.2504         33.5004
  -2366270.19855  -1602548.20452  24904394.1414                   24904387.0634
        31.5004         16.2504
 -18830253.75348 -21185768.94349  20601039.3054                   20601030.1174
        51.7504         54.7504
 23  1  8  0 14  0.0000000  0 11G23G24G27G08G22G10G21G18G31G01G32
 -10924887.56647 -10325796.58946  22007353.9614                   22007343.0744
        45.5004         36.2504
 -10842394.40746  -9204696.53144  22949653.2424                   22949644.0554
        39.0004         26.5004
  -6672073.99045  -5010028.87545  24137141.4224                   24137133.4654
        34.0004         30.2504
  -7979276.65546  -6183716.82545  23797524.0704                   23797515.8794
        41.0004         35.0004
 -10902685.94947  -8773918.70545  21838896.8834                   21838886.1724
        45.5004         33.7504
 -27907148.40148 -21623100.69249  20551944.4384                   20551935.0744
        51.7504         55.0004
 -12349459.38547  -8659704.50944  23455640.6024                   23455627.5474
        42.5004         27.5004
  -7147711.56646  -5592421.94943  24522646.4844                   24522638.3524
        37.0004         22.5004
  -3879005.07746  -2970292.86345  24614368.2734                   24614357.4454
        36.7504         34.0004
  -2477177.38655  -1688969.32752  24883289.0394                   24883282.5474
        33.5004         17.2504
 -18850973.04148 -21201913.83449  20597096.5394                   20597086.9414
        53.0004         55.0004
 23  1  8  0 14 30.0000000  0 11G23G24G27G08G22G10G21G18G31G01G32
 -10858913.71947 -10274388.42446  22019908.1174                   22019897.4654
        44.7504         36.0004
 -10769775.54246  -9148110.38544  22963471.3594                   22963462.6414
        37.7504         25.5004
  -6582679.80445  -4940371.08345  24154151.8054                   24154144.6094
        33.7504         30.2504
  -7928210.82946  -6143925.29745  23807242.3054                   23807234.6994
        39.7504         35.0004
 -10969185.21347  -8825736.29745  21826242.3984                   21826231.6294
        46.2504         33.2504
 -27895656.19648 -21614145.73549  20554131.0864                   20554121.7814
        51.0004         54.7504
 -12420776.26346  -8715276.11444  23442069.4694                   23442056.8244
        41.5004         27.7504
  -7032725.57946  -5502822.52743  24544528.5234                   24544518.2814
        37.5004         21.7504
  -3998444.34646  -3063362.43445  24591639.3364                   24591629.3284
        36.7504         34.5004
  -2587963.03055  -1775295.86252  24862206.2584                   24862199.3554
        32.0004         16.2504
 -18871282.46348 -21217739.35849  20593231.7344                   20593222.2544
        52.0004         54.7504
 23  1  8  0 15  0.0000000  0 11G23G24G27G08G22G10G21G18G31G01G32
 -10792707.00747 -10222798.80546  22032507.0944                   22032496.2074
        45.5004         36.5004
 -10696667.06146  -9091142.77044  22977385.4534                   22977374.6254
        39.2504         27.2504
  -6493135.91945  -4870596.64645  24171192.4064                   24171183.8054
        35.0004         31.0004
  -7876736.78146  -6103815.69945  23817036.2974                   23817028.5164
        38.7504         34.0004
 -11035364.77847  -8877304.79045  21813649.4144                   21813638.2934
        46.5004         33.2504
 -27883862.02048 -21604955.47349  20556375.3834                   20556366.0784
        50.5004         54.7504
 -12491812.86247  -8770629.27444  23428551.7344                   23428539.2664
        42.2504         28.2504
  -6917645.35246  -5413149.60143  24566427.7114                   24566417.4104
        37.2504         22.5004
  -4117893.37846  -3156439.62545  24568909.0164                   24568898.8324
        37.0004         33.2504
  -2698623.57455  -1861524.61553  24841149.0554                   24841141.0394
        32.5004         18.2504
 -18891182.25748 -21233245.68549  20589445.0864                   20589435.8984
        51.5004         55.0004
 23  1  8  0 15 30.0000000  0 11G23G24G27G08G22G10G21G18G31G01G32
 -10726267.67947 -10171027.92746  22045149.8364                   22045138.6564
        45.5004         36.0004
 -10623071.57846  -9033795.61944  22991388.8754                   22991379.9804
        37.7504         26.0004
  -6403445.47045  -4800707.98145  24188258.9454                   24188251.8674
        35.2504         30.7504
  -7824857.07446  -6063389.95945  23826909.2194                   23826899.0944
        40.0004         33.5004
 -11101224.11147  -8928623.72045  21801116.4144                   21801105.4104
        46.0004         33.0004
 -27871765.55248 -21595529.65949  20558677.3754                   20558668.1294
        50.5004         55.0004
 -12562567.36846  -8825762.65944  23415087.2034                   23415074.8524
        41.5004         27.2504
  -6802472.92746  -5323404.87644  24588343.7894                   24588334.6604
        37.0004         24.5004
  -4237349.47846  -3249522.26845  24546178.8674                   24546166.8094
        38.5004         34.2504
  -2809158.46055  -1947655.64052  24820113.3134                   24820107.0554
        31.5004         16.7504
 -18910672.79148 -21248433.10549  20585735.9694                   20585726.7814
        51.5004         55.0004
 23  1  8  0 16  0.0000000  0 11G23G24G27G08G22G10G21G18G31G01G32
 -10659595.87547 -10119075.89846  22057837.4844                   22057826.5394
        46.5004         36.2504
 -10548991.29446  -8976070.75444  23005484.8134                   23005477.3244
        37.5004         25.5004
  -6313611.41146  -4730707.41945  24205355.2114                   24205345.9654
        36.5004         30.7504
  -7772574.15746  -6022650.01345  23836858.8834                   23836849.2274
        39.7504         34.0004
 -11166762.53147  -8979692.60845  21788645.4844                   21788634.2464
        46.7504         33.5004
 -27859366.18748 -21585867.81949  20561036.8364                   20561027.6484
        52.0004         54.7504
 -12633038.05947  -8880674.89044  23401677.1254                   23401665.0084
        42.0004         28.0004
  -6687210.33446  -5233589.85243  24610277.5084                   24610267.8524
        37.5004         22.0004
  -4356809.54346  -3342608.05745  24523445.1724                   24523434.7544
        38.2504         35.2504
  -2919563.75655  -2033685.74953  24799106.3834                   24799097.0204
        33.5004         18.2504
 -18929754.31348 -21263301.82349  20582105.0784                   20582095.4804
        52.5004         55.0004
 23  1  8  0 16 30.0000000  0 11G23G24G27G08G22G10G21G18G31G01G32
 -10592692.56347 -10066943.46946  22070568.3984                   22070557.6884
        46.0004         36.0004
 -10474429.49946  -8917970.64144  23019674.6804                   23019665.0234
        38.2504         25.5004
  -6223637.43145  -4660597.81545  24222475.3674                   24222467.8204
        35.5004         31.0004
  -7719890.85446  -5981598.10445  23846883.9384                   23846876.2154
        39.2504         34.2504
 -11231979.95447  -9030511.36945  21776234.4844                   21776223.3634
        46.2504         33.7504
 -27846663.85648 -21575969.90649  20563454.1094                   20563444.5124
        51.0004         54.7504
 -12703222.88747  -8935364.36444  23388322.4614                   23388309.2304
        42.5004         28.7504
  -6571860.44046  -5143706.82143  24632228.0314                   24632218.0234
        37.5004         22.5004
  -4476271.47546  -3435695.26545  24500713.2664                   24500701.0904
        38.7504         35.2504
  -3029837.66545  -2119613.53542  24778119.8054                   24778112.8444
        32.0004         17.2504
 -18948427.90648 -21277852.66849  20578551.6334                   20578542.1524
        52.2504         54.7504
 23  1  8  0 17  0.0000000  0 11G23G24G27G08G22G10G21G18G31G01G32
 -10525557.38247 -10014630.35945  22083343.9774                   22083333.3834
        46.5004         35.7504
 -10399387.94446  -8859496.70444  23033953.4844                   23033945.4694
        37.0004         26.2504
  -6133526.12045  -4590381.24645  24239622.8444                   24239616.1174
        35.5004         31.5004
  -7666808.72446  -5940235.46945  23856983.5084                   23856977.2504
        37.7504         33.0004
 -11296874.82047  -9081078.78345  21763885.6724                   21763874.4924
        46.5004         34.0004
 -27833657.38748 -21565835.00049  20565929.0084                   20565920.1724
        51.0004         54.7504
 -12773119.36847  -8989829.17044  23375020.7274                   23375008.0824
        42.2504         28.0004
  -6456424.68046  -5053756.89143  24654193.9304                   24654185.0354
        36.5004         22.2504
  -4595731.93246  -3528781.38745  24477980.4924                   24477969.2544
        38.2504         35.0004
  -3139976.95145  -2205436.35342  24757162.4614                   24757154.3874
        33.7504         16.2504
 -18966693.32148 -21292085.45849  20575075.5394                   20575066.0594
        52.5004         55.0004
 23  1  8  0 17 30.0000000  0 11G23G24G27G08G22G10G21G18G31G01G32
 -10458190.10647  -9962136.40845  22096163.3594                   22096152.5904
        46.2504         35.5004
 -10323868.78046  -8800650.62044  23048325.3444                   23048315.6884
        38.2504         27.0004
  -6043279.93846  -4520059.57445  24256799.0784                   24256788.4264
        37.5004         31.0004
  -7613330.57046  -5898564.22245  23867160.9384                   23867152.3364
        38.2504         32.5004
 -11361446.52247  -9131394.38245  21751597.2974                   21751586.9964
        46.0004         34.5004
 -27820345.84348 -21555462.38349  20568462.3284                   20568452.9064
        51.7504         54.7504
 -12842725.29547  -9044067.54544  23361774.5944                   23361762.7704
        42.0004         28.7504
  -6340904.83146  -4963741.44143  24676178.8524                   24676168.0234
        38.5004         22.5004
  -4715187.53346  -3621863.67545  24455247.7034                   24455237.2854
        37.5004         34.5004
  -3249978.40445  -2291151.75842  24736228.6484                   24736221.4534
        33.0004         17.2504
 -18984550.43248 -21306000.08249  20571677.4774                   20571668.0554
        51.5004         54.7504
 23  1  8  0 18  0.0000000  0 11G23G24G27G08G22G10G21G18G31G01G32
 -10390592.62947  -9909463.07845  22109026.8834                   22109016.2304
        45.5004         35.5004
 -10247876.15346  -8741435.56444  23062786.8284                   23062777.1134
        37.7504         26.5004
  -5952903.75346  -4449636.57745  24273994.6884                   24273986.9064
        36.7504         32.0004
  -7559459.86046  -5856587.01945  23877413.3054                   23877403.1804
        39.5004         33.0004
 -11425696.01947  -9181458.90645  21739371.6954                   21739360.2234
        47.0004         34.0004
 -27806730.61348 -21544853.10549  20571053.5084                   20571044.0864
        52.0004         55.0004
 -12912040.46147  -9098079.36144  23348585.5474                   23348572.4924
        42.5004         28.7504
  -6225304.52546  -4873663.29443  24698175.0004                   24698165.5784
        37.0004         22.2504
  -4834636.87046  -3714941.07745  24432517.4534                   24432506.9774
        37.2504         35.2504
  -3359841.09845  -2376759.03843  24715323.8524                   24715315.3094
        34.2504         19.7504
 -19002001.36848 -21319598.21949  20568356.7194                   20568347.7074
        53.0004         55.0004
 23  1  8  0 18 30.0000000  0 11G23G24G27G08G22G10G21G18G31G01G32
 -10322763.78947  -9856609.46445  22121934.5394                   22121923.4184
        46.0004         35.5004
 -10171411.07946  -8681852.41644  23077337.7504                   23077327.7424
        38.2504         25.0004
  -5862399.08745  -4379113.47745  24291216.4774                   24291210.2774
        35.5004         31.7504
  -7505198.04746  -5814305.11845  23887738.4694                   23887729.6334
        38.5004         33.7504
 -11489621.36747  -9231270.84345  21727206.4384                   21727195.7854
        45.7504         34.2504
 -27792809.51648 -21534005.50449  20573702.4614                   20573693.0984
        52.0004         55.0004
 -12981061.78346  -9151862.20644  23335449.9454                   23335438.1804
        41.5004         28.0004
  -6109624.59846  -4783523.08743  24720189.9064                   24720179.4884
        38.2504         22.2504
  -4954075.80046  -3808010.37045  24409788.6954                   24409778.2194
        38.2504         35.0004
  -3469560.91545  -2462254.99143  24694443.3134                   24694436.4694
        33.2504         19.0004
 -19019045.04248 -21332879.00149  20565113.5944                   20565103.7624
        53.0004         54.7504
 23  1  8  0 19  0.0000000  0 11G23G24G27G08G22G10G21G18G31G01G32
 -10254704.81047  -9803576.51645  22134885.8284                   22134874.8244
        47.0004         35.7504
 -10094477.19046  -8621903.90244  23091977.9144                   23091967.6134
        38.2504         26.0004
  -5771770.02546  -4308493.43645  24308464.9224                   24308454.8554
        37.5004         32.0004
  -7450548.07046  -5771720.74945  23898136.7974                   23898130.0124
        36.0004         33.5004
 -11553222.72547  -9280830.33645  21715103.6024                   21715092.6564
        45.7504         34.7504
 -27778582.96148 -21522919.88149  20576409.5554                   20576400.1334
        51.2504         54.7504
 -13049786.88647  -9205414.20544  23322373.1644                   23322359.6994
        43.0004         28.0004
  -5993868.07646  -4693323.19043  24742217.2114                   24742206.7344
        37.2504         21.5004
  -5073502.34646  -3901070.01245  24387062.6334                   24387051.8054
        38.5004         34.5004
  -3579136.03745  -2547638.24743  24673593.1644                   24673584.6214
        34.7504         19.2504
 -19035682.83248 -21345843.50849  20561947.4304                   20561938.0664
        53.0004         54.7504
 23  1  8  0 19 30.0000000  0 11G23G24G27G08G22G10G21G18G31G01G32
 -10186415.87747  -9750364.38245  22147880.6414                   22147869.6374
        46.0004         35.5004
 -10017076.75846  -8561591.91044  23106705.7034                   23106696.3984
        38.0004         25.5004
  -5681019.54046  -4237778.79245  24325732.9774                   24325725.4304
        36.2504         31.2504
  -7395512.59546  -5728836.01145  23908610.1024                   23908601.9104
        37.5004         32.2504
 -11616499.59547  -9330136.96745  21703062.5394                   21703051.7704
        45.2504         34.5004
 -27764050.16948 -21511595.63649  20579174.7114                   20579165.6994
        51.2504         54.7504
 -13118214.58846  -9258734.50344  23309351.2734                   23309338.8634
        41.5004         28.2504
  -5878036.97146  -4603065.22443  24764258.6024                   24764248.7114
        37.7504         22.7504
  -5192913.47246  -3994117.68045  24364339.4064                   24364329.3404
        37.0004         34.5004
  -3688563.77445  -2632906.61043  24652768.2344                   24652761.7424
        33.0004         18.2504
 -19051915.10548 -21358492.02449  20558858.5784                   20558849.0984
        52.2504         54.7504
 23  1  8  0 20  0.0000000  0 11G23G24G27G08G22G10G21G18G31G01G32
 -10117896.75847  -9696972.88845  22160919.4224                   22160908.3014
        46.5004         35.5004
  -9939212.05246  -8500918.11244  23121522.6564                   23121513.5864
        38.2504         26.5004
  -5590150.17846  -4166971.49845  24343026.8914                   24343016.8834
        37.5004         32.2504
  -7340094.00146  -5685652.69145  23919156.6024                   23919147.1214
        38.0004         32.0004
 -11679450.97447  -9379189.97645  21691083.8674                   21691072.5124
        47.0004         34.7504
 -27749210.40448 -21500032.18249  20581998.7034                   20581989.5164
        51.7504         55.0004
 -13186342.42646  -9311821.10044  23296386.1804                   23296375.0004
        41.5004         27.7504
  -5762132.96146  -4512750.39743  24786316.6484                   24786304.4734
        38.7504         22.5004
  -5312306.07846  -4087150.88245  24341619.7814                   24341609.5394
        37.2504         35.0004
  -3797841.04145  -2718057.70343  24631975.2274                   24631966.6844
        35.0004         19.2504
 -19067741.78848 -21370824.50449  20555846.7734                   20555837.4694
        53.2504         55.0004
 23  1  8  0 20 30.0000000  0 11G23G24G27G08G22G10G21G18G31G01G32
 -10049148.57747  -9643402.89745  22174001.8914                   22173990.8874
        46.0004         35.0004
  -9860886.30646  -8439885.06644  23136427.4064                   23136418.6884
        38.0004         26.0004
  -5499165.78046  -4096074.59045  24360339.2894                   24360330.0434
        37.5004         31.7504
  -7284295.43845  -5642173.28045  23929773.6884                   23929765.7304
        35.2504         31.5004
 -11742077.00847  -9427989.46645  21679165.9304                   21679154.9264
        45.7504         34.0004
 -27734063.79148 -21488229.62649  20584881.1334                   20584871.8874
        52.2504         54.7504
 -13254169.33447  -9364673.24444  23283480.2584                   23283467.5554
        43.0004         29.0004
  -5646159.06046  -4422381.09043  24808383.8754                   24808373.9264
        36.7504         21.5004
  -5431678.05346  -4180167.99745  24318903.8834                   24318893.4064
        37.0004         34.2504
  -3906965.87345  -2803090.09143  24611208.4614                   24611200.9734
        33.7504         19.0004
 -19083164.19248 -21382841.95649  20552911.8834                   20552902.5784
        52.5004         54.7504
 23  1  8  0 21  0.0000000  0 11G23G24G27G08G22G10G21G18G31G01G32
  -9980170.48147  -9589653.75045  22187128.0784                   22187117.3094
        46.5004         35.5004
  -9782101.06546  -8378493.98844  23151420.4694                   23151411.5164
        39.0004         26.0004
  -5408068.24146  -4025089.50345  24377673.9144                   24377665.7234
        37.0004         32.5004
  -7228118.35545  -5598398.99145  23940464.2974                   23940456.8674
        35.7504         31.5004
 -11804376.20347  -9476534.27245  21667311.3204                   21667300.0234
        46.0004         34.5004
 -27718608.76248 -21476186.75949  20587822.0004                   20587812.9884
        51.5004         54.7504
 -13321692.11247  -9417288.41644  23270630.1804                   23270618.3554
        42.0004         29.0004
  -5530116.14246  -4331958.09543  24830467.2034                   24830456.1414
        37.0004         21.5004
  -5551025.11746  -4273165.72245  24296193.5864                   24296182.8754
        37.2504         34.7504
  -4015934.45145  -2888000.64543  24590472.9844                   24590464.4414
        34.7504         19.7504
 -19098181.59148 -21394543.81649  20550054.1954                   20550045.1844
        53.2504         54.7504
 23  1  8  0 21 30.0000000  0 11G23G24G27G08G22G10G21G18G31G01G32
  -9910964.70647  -9535727.19445  22200296.7194                   22200286.6524
        45.5004         35.0004
  -9702860.80046  -8316748.31244  23166499.2584                   23166490.3054
        38.5004         25.5004
  -5316862.79646  -3954020.33545  24395029.4774                   24395021.9304
        36.0004         32.5004
  -7171566.90546  -5554332.94045  23951226.7734                   23951218.3484
        37.2504         31.7504
 -11866349.87847  -9524825.42345  21655517.4224                   21655506.3594
        46.0004         34.0004
 -27702846.73548 -21463904.65349  20590822.0554                   20590811.8714
        52.2504         55.0004
 -13388910.93047  -9469666.69444  23257838.8834                   23257827.0004
        42.2504         28.5004
  -5414008.41346  -4241484.55043  24852560.9774                   24852550.3834
        36.7504         21.7504
  -5670346.25746  -4366143.26345  24273488.0084                   24273476.5354
        36.2504         34.5004
  -4124746.06845  -2972788.92543  24569766.5004                   24569758.3094
        34.5004         20.0004
 -19112796.44548 -21405932.00049  20547272.9924                   20547263.5704
        53.2504         55.0004
 23  1  8  0 22  0.0000000  0 11G23G24G27G08G22G10G21G18G31G01G32
  -9841529.24847  -9481621.66845  22213510.3364                   22213499.7424
        45.7504         35.0004
  -9623165.96346  -8254648.46744  23181664.8914                   23181655.5274
        39.0004         26.7504
  -5225550.04846  -3882867.56345  24412407.0394                   24412397.6764
        36.5004         32.2504
  -7114641.14945  -5509975.20945  23962057.7274                   23962049.3594
        35.2504         30.7504
 -11927995.12647  -9572860.66245  21643787.6254                   21643776.2704
        46.7504         34.5004
 -27686775.03348 -21451381.24249  20593879.8914                   20593870.9384
        52.0004         54.7504
 -13455821.61747  -9521804.90044  23245107.7504                   23245093.8754
        43.5004         28.7504
  -5297835.66945  -4150960.31643  24874666.9304                   24874657.2734
        35.0004         22.0004
  -5789636.47646  -4459096.66745  24250786.6804                   24250776.6724
        36.2504         33.7504
  -4233395.72345  -3057451.00143  24549091.6414                   24549083.5084
        35.0004         19.2504
 -19127006.97248 -21417005.13249  20544569.1644                   20544560.2114
        53.5004         54.7504
 23  1  8  0 22 30.0000000  0 11G23G24G27G08G22G10G21G18G31G01G32
  -9771865.93547  -9427338.58545  22226767.3754                   22226756.2544
        46.5004         35.0004
  -9543020.60546  -8192197.54644  23196914.8444                   23196906.4184
        39.0004         25.7504
  -5134134.56146  -3811634.76245  24429802.6644                   24429793.7704
        37.0004         32.2504
  -7057345.43445  -5465329.24245  23972961.5234                   23972952.6884
        35.0004         30.7504
 -11989313.05647  -9620640.84145  21632118.3524                   21632107.6994
        45.7504         34.2504
 -27670394.15948 -21438616.92749  20596997.4454                   20596987.0274
        52.0004         55.0004
 -13522423.49147  -9573702.45244  23232432.2814                   23232420.1644
        42.5004         28.0004
  -5181601.69045  -4060388.36243  24896784.4144                   24896775.7544
        34.7504         21.5004
  -5908894.47946  -4552024.98345  24228095.2894                   24228082.3524
        38.2504         34.5004
  -4341882.11045  -3141985.86443  24528446.6644                   24528439.1764
        35.7504         19.2504
 -19140815.16748 -21427764.76249  20541941.3204                   20541931.7234
        53.7504         54.7504
 23  1  8  0 23  0.0000000  0 11G23G24G27G08G22G10G21G18G31G01G32
  -9701974.92947  -9372878.07345  22240066.6334                   22240055.9804
        46.0004         35.0004
  -9462427.17046  -8129397.47344  23212252.4224                   23212243.4104
        38.7504         25.5004
  -5042619.31145  -3740324.15345  24447216.2894                   24447208.3324
        35.2504         32.0004
  -6999682.26745  -5420396.92345  23983934.9694                   23983927.0704
        35.0004         31.0004
 -12050303.06147  -9668165.49745  21620512.7274                   21620501.4304
        46.0004         35.0004
 -27653704.11348 -21425611.69749  20600173.4384                   20600163.5474
        52.0004         55.0004
 -13588714.14947  -9625357.50544  23219818.8914                   23219805.8364
        44.5004         28.5004
  -5065308.32345  -3969770.16943  24918915.3284                   24918906.0234
        35.5004         21.0004
  -6028117.02145  -4644925.69345  24205404.8674                   24205395.6214
        35.0004         34.5004
  -4450202.44446  -3226391.31043  24507834.3204                   24507826.0124
        36.0004         19.2504
 -19154221.33448 -21438211.12049  20539389.5164                   20539380.9734
        53.7504         54.7504
 23  1  8  0 23 30.0000000  0 11G23G24G27G08G22G10G21G18G31G01G32
  -9631856.47447  -9318240.36145  22253409.5164                   22253399.2734
        46.0004         35.0004
  -9381388.31946  -8066250.33344  23227673.9304                   23227665.0354
        39.2504         25.7504
  -4951007.22145  -3668938.14445  24464649.8834                   24464641.5744
        35.7504         31.5004
  -6941654.46145  -5375180.45545  23994976.8204                   23994969.2734
        34.5004         31.2504
 -12110964.55747  -9715434.17945  21608969.0704                   21608957.4804
        45.7504         34.7504
 -27636704.24548 -21412365.04649  20603408.2034                   20603398.8984
        52.2504         54.7504
 -13654691.87747  -9676768.72945  23207263.0554                   23207250.0594
        43.2504         30.0004
  -4948957.73345  -3879107.38943  24941056.3594                   24941046.4104
        35.5004         20.0004
  -6147301.30046  -4737796.54445  24182726.6094                   24182715.0784
        37.7504         35.0004
  -4558353.99046  -3310665.25143  24487254.0864                   24487245.5434
        37.0004         19.7504
 -19167226.03148 -21448344.64849  20536915.1804                   20536905.9344
        53.2504         55.0004
 23  1  8  0 24  0.0000000  0 11G23G24G27G08G22G10G21G18G31G01G32
  -9561510.92147  -9263425.67945  22266796.8594                   22266785.9734
        46.5004         35.0004
  -9299906.77446  -8002758.21544  23243178.7194                   23243169.8834
        38.7504         26.7504
  -4859301.47845  -3597479.13145  24482100.1564                   24482093.1954
        35.2504         32.2504
  -6883264.06345  -5329681.49445  24006086.4614                   24006079.7344
        33.0004         30.0004
 -12171297.02247  -9762446.45545  21597488.3364                   21597477.0394
        46.2504         34.7504
 -27619393.71448 -21398876.31949  20606702.4924                   20606692.1914
        52.7504         55.0004
 -13720354.97347  -9727934.76844  23194767.8444                   23194755.1414
        44.5004         29.5004
  -4832552.06145  -3788401.71043  24963208.1414                   24963197.9574
        35.7504         22.0004
  -6266444.32646  -4830635.27645  24160053.9614                   24160043.0164
        37.5004         35.0004
  -4666334.06546  -3394805.53843  24466706.3444                   24466697.5084
        37.5004         18.2504
 -19179829.76848 -21458165.73549  20534516.8364                   20534508.4694
        53.0004         55.0004
 23  1  8  0 24 30.0000000  0 11G23G24G27G08G22G10G21G18G31G01G32
  -9490938.61947  -9208434.29445  22280225.9614                   22280214.5474
        46.0004         35.0004
  -9217985.14746  -7938923.19544  23258767.6254                   23258759.2584
        39.2504         26.2504
  -4767505.06445  -3525949.48045  24499568.8914                   24499559.9964
        35.7504         30.7504
  -6824513.92645  -5283902.17845  24017269.0944                   24017258.9694
        35.0004         30.7504
 -12231300.31147  -9809202.24645  21586069.4844                   21586058.7734
        46.0004         35.0004
 -27601772.25748 -21385145.31549  20610055.3444                   20610046.4494
        52.5004         54.7504
 -13785701.45247  -9778854.12045  23182332.6174                   23182320.7344
        43.7504         30.2504
  -4716093.58546  -3697654.84043  24985370.8834                   24985358.9414
        37.7504         21.5004
  -6385543.15246  -4923439.59045  24137390.7734                   24137378.8324
        37.2504         34.7504
  -4774139.89446  -3478810.11943  24446191.6884                   24446182.6764
        37.7504         19.2504
 -19192033.13048 -21467674.84949  20532195.0394                   20532185.5004
        53.0004         54.7504
 23  1  8  0 25  0.0000000  0 11G23G24G27G08G22G10G21G18G31G01G32
  -9420139.74147  -9153266.37245  22293697.8204                   22293686.8754
        45.0004         34.7504
  -9135626.06646  -7874747.30644  23274440.2734                   23274431.4384
        39.5004         26.0004
  -4675620.96645  -3454351.46545  24517054.5084                   24517046.6094
        35.2504         32.0004
  -6765406.54745  -5237844.48945  24028515.8594                   24028507.3754
        34.2504         30.5004
 -12290973.88547  -9855701.10645  21574714.2894                   21574703.0514
        46.5004         35.0004
 -27583839.27348 -21371171.55649  20613468.2274                   20613459.0984
        52.2504         54.7504
 -13850729.41047  -9829525.22945  23169957.6174                   23169946.0864
        43.7504         30.0004
  -4599584.23345  -3606868.32743  25007539.7194                   25007530.4144
        35.2504         21.5004
  -6504594.79946  -5016207.12245  24114734.0474                   24114724.0394
        36.2504         34.2504
  -4881768.67946  -3562676.65143  24425710.1024                   24425701.2664
        38.0004         18.5004
 -19203836.54348 -21476872.30149  20529948.7424                   20529939.6724
        53.2504         55.0004
 23  1  8  0 25 30.0000000  0 11G23G24G27G08G22G10G21G18G31G01G32
  -9349114.90047  -9097922.35645  22307213.5004                   22307202.9654
        46.0004         34.2504
  -9052832.47746  -7810232.82444  23290196.1174                   23290186.2274
        39.2504         24.5004
  -4583652.47246  -3382687.75145  24534555.8364                   24534546.6484
        36.5004         30.0004
  -6705945.21945  -5191511.00445  24039829.8364                   24039822.7584
        33.7504         30.2504
 -12350317.51147  -9901942.87745  21563421.8284                   21563410.6484
        47.0004         35.0004
 -27565594.47348 -21356954.82649  20616939.5944                   20616930.5234
        51.7504         55.0004
 -13915437.01047  -9879946.75145  23157645.6414                   23157632.1174
        45.0004         31.5004
  -4483026.48446  -3516044.15243  25029721.0704                   25029710.4184
        37.0004         20.7504
  -6623596.77546  -5108935.91845  24092090.9454                   24092079.2384
        38.7504         34.5004
  -4989217.92646  -3646403.37443  24405263.3834                   24405254.2544
        38.0004         20.0004
 -19215240.84648 -21485758.76649  20527778.2974                   20527769.4614
        53.0004         54.7504
 23  1  8  0 26  0.0000000  0 11G23G24G27G08G22G10G21G18G31G01G32
  -9277863.96847  -9042402.17145  22320772.9774                   22320762.0904
        46.5004         34.5004
  -8969606.58146  -7745381.47544  23306032.6804                   23306023.7274
        38.0004         26.0004
  -4491602.21445  -3310960.27645  24552071.7194                   24552063.4104
        35.5004         30.0004
  -6646131.89145  -5144903.27545  24051214.1094                   24051205.2734
        35.0004         30.2504
 -12409330.57047  -9947927.05745  21552191.7814                   21552180.6604
        46.0004         35.5004
 -27547037.11848 -21342494.55449  20620471.1954                   20620462.5354
        51.5004         55.0004
 -13979822.22047  -9930117.04345  23145392.2894                   23145380.8164
        43.0004         31.5004
  -4366422.14546  -3425183.58443  25051910.6414                   25051899.9884
        36.2504         21.2504
  -6742545.74346  -5201623.42545  24069454.8054                   24069443.3324
        38.2504         35.2504
  -5096484.43946  -3729987.64443  24384850.9454                   24384842.4024
        38.0004         19.7504
 -19226246.12848 -21494334.31049  20525684.2814                   20525674.9774
        52.7504         54.7504
 23  1  8  0 26 30.0000000  0 11G23G24G27G08G22G10G21G18G31G01G32
  -9206388.06147  -8986706.68445  22334373.2114                   22334363.1454
        44.5004         34.5004
  -8885951.85546  -7680195.99844  23321952.1804                   23321942.1724
        39.5004         24.5004
  -4399473.99345  -3239172.04445  24569603.0864                   24569595.0124
        35.5004         30.5004
  -6585969.93146  -5098023.82745  24062662.6564                   24062653.4104
        36.0004         30.7504
 -12468012.74847  -9993653.40845  21541025.0474                   21541013.4574
        47.0004         35.7504
 -27528167.07448 -21327790.61549  20624062.1724                   20624052.7504
        52.0004         54.7504
 -14043883.50147  -9980034.90845  23133202.4064                   23133190.0554
        44.5004         30.2504
  -4249773.79646  -3334288.88943  25074108.9064                   25074098.0204
        37.0004         19.7504
  -6861439.08746  -5294267.62245  24046830.4224                   24046819.3014
        38.5004         35.7504
  -5203566.28646  -3813428.01143  24364473.6724                   24364464.7194
        37.0004         19.0004
 -19236853.79848 -21502600.01449  20523665.6954                   20523656.5084
        53.2504         54.7504
 23  1  8  0 27  0.0000000  0 11G23G24G27G08G22G10G21G18G31G01G32
  -9134687.16447  -8930835.89545  22348018.2194                   22348007.1564
        45.5004         34.5004
  -8801870.77246  -7614678.26044  23337952.1804                   23337942.5824
        38.5004         25.0004
  -4307270.46145  -3167325.15344  24587147.3524                   24587140.3324
        34.5004         29.5004
  -6525461.65745  -5050874.55345  24074175.8054                   24074167.4384
        33.0004         30.5004
 -12526363.22147 -10039121.28545  21529921.1804                   21529910.1174
        46.5004         35.5004
 -27508983.80148 -21312842.61949  20627712.4614                   20627703.3324
        51.0004         54.7504
 -14107618.41847 -10029698.50245  23121074.4844                   23121061.0784
        44.2504         30.7504
                                  25096317.1334                   25096303.2584
        39.2504         20.5004
  -6980273.75046  -5386866.02946  24024218.0554                   24024205.1174
        39.0004         36.0004
  -5310460.28346  -3896722.02043  24344133.0394                   24344124.1454
        38.2504         19.2504
 -19247064.05748 -21510556.05949  20521723.1884                   20521713.5904
        52.7504         55.0004
 23  1  8  0 27 30.0000000  0 11G23G24G27G08G22G10G21G18G31G01G32
  -9062760.50847  -8874789.17145  22361705.2664                   22361693.9104
        45.0004         34.2504
  -8717364.76546  -7548829.45144  23354033.8594                   23354024.0864
        38.5004         24.0004
  -4214993.51046  -3095421.03345  24604708.3364                   24604700.2624
        36.0004         30.0004
  -6464608.87845  -5003456.82845  24085756.4844                   24085747.6484
        34.5004         30.5004
 -12584381.18947 -10084330.07446  21518881.0084                   21518870.1214
        47.0004         36.2504
 -27489485.94948 -21297649.48849  20631422.9384                   20631413.5164
        51.0004         55.5004
 -14171024.51747 -10079105.84145  23109007.3754                   23108995.9024
        43.2504         31.2504
 -18195132.60156 -14200802.12453  25118531.6254                   25118517.0474
        39.0004         20.0004
  -7099045.78346  -5479415.66846  24001615.7274                   24001604.3134
        39.2504         36.0004
  -5417162.60346  -3979866.69643  24323828.3834                   24323819.0204
        38.0004         20.5004
 -19256876.35048 -21518201.99449  20519855.5784                   20519846.2734
        52.5004         55.0004
 23  1  8  0 28  0.0000000  0 11G23G24G27G08G22G10G21G18G31G01G32
  -8990610.68047  -8818568.55445  22375435.1414                   22375424.6054
        45.5004         34.5004
  -8632438.97846  -7482653.50744  23370194.2034                   23370184.5474
        39.0004         24.2504
  -4122648.51645  -3023463.90444  24622280.6564                   24622273.4614
        33.7504         29.5004
 -12705096.63855  -9866174.59455  24097401.1024                   24097391.7974
        34.0004         30.5004
 -12642068.41947 -10129281.13146  21507902.8364                   21507891.7154
        46.0004         36.0004
 -27469674.84048 -21282212.26649  20635192.6484                   20635183.3444
        51.5004         55.0004
 -14234102.19047 -10128257.25645  23097006.0864                   23096992.9734
        44.5004         31.5004
                                  25140741.7194                   25140737.2234
        26.7504         19.7504
  -7217754.33145  -5571915.89846  23979022.9534                   23979014.8794
        35.7504         36.7504
  -5523672.73646  -4062861.58143  24303560.4614                   24303550.6884
        38.7504         19.7504
 -19266293.60848 -21525540.11049  20518063.7424                   20518054.4384
        53.2504         54.7504
 23  1  8  0 28 30.0000000  0 11G23G24G27G08G22G10G21G18G31G01G32
  -8918236.24547  -8762172.92145  22389207.3524                   22389196.6414
        44.5004         34.2504
  -8547094.24846  -7416151.11843  23386433.9844                   23386425.2664
        38.0004         22.5004
  -4030236.64845  -2951454.67344  24639867.1884                   24639858.1174
        35.7504         29.2504
 -12643565.10845  -9818228.00345  24109108.9304                   24109101.2074
        33.0004         30.5004
 -12699422.63547 -10173972.70746  21496988.9694                   21496977.7894
        47.5004         36.0004
 -27449548.29948 -21266529.24249  20639022.5164                   20639013.3874
        50.2504         55.2504
 -14296847.43247 -10177149.69745  23085064.5944                   23085052.0664
        43.2504         31.7504
 -17961560.83244 -14032307.27453  25162969.8754                   25162964.4384
        29.5004         19.7504
  -7336394.65046  -5664362.88246  23956448.4924                   23956438.0164
        39.0004         37.0004
  -5629986.13246  -4145703.21143  24283329.0084                   24283319.9964
        37.0004         21.2504
 -19275314.63748 -21532569.47649  20516346.9694                   20516337.6644
        52.5004         55.0004
 23  1  8  0 29  0.0000000  0 11G23G24G27G08G22G10G21G18G31G01G32
  -8845638.24047  -8705603.06545  22403022.6414                   22403011.4614
        45.5004         34.0004
  -8461334.09646  -7349325.06843  23402754.5084                   23402745.2624
        38.7504         22.7504
  -3937761.61045  -2879396.23844  24657465.2894                   24657456.1024
        35.5004         29.5004
 -12581698.25045  -9770020.07245  24120882.5164                   24120874.0314
        33.0004         31.0004
 -12756444.13047 -10218405.01746  21486137.6804                   21486126.9104
        46.5004         36.2504
 -27429106.92348 -21250600.90249  20642912.5554                   20642903.5434
        51.5004         54.7504
 -14359259.64347 -10225782.54945  23073188.1254                   23073175.8324
        43.5004         30.5004
 -17844723.63146 -13941265.36243  25185207.3054                   25185197.1804
        36.5004         19.2504
  -7454964.46746  -5756754.94346  23933887.2424                   23933874.8324
        39.5004         38.0004
  -5736100.73246  -4228389.84543  24263136.1954                   24263127.1844
        37.5004         20.7504
 -19283940.71448 -21539291.08749  20514705.3834                   20514696.0784
        52.5004         55.2504
 23  1  8  0 29 30.0000000  0 11G23G24G27G08G22G10G21G18G31G01G32
  -8772817.30647  -8648859.50245  22416879.3364                   22416868.7424
        45.0004         34.0004
  -8375161.48546  -7282177.54243  23419152.8674                   23419142.9774
        38.2504         22.7504
  -3845226.77545  -2807291.12044  24675071.9844                   24675064.7304
        34.2504         28.7504
 -12519499.26345  -9721553.33445  24132718.3984                   24132709.9734
        32.0004         30.0004
 -12813132.95347 -10262578.09746  21475350.9924                   21475339.4024
        47.2504         36.5004
 -27408350.21148 -21234426.84749  20646862.3674                   20646853.5314
        51.0004         54.7504
 -14421336.70747 -10274154.30345  23061377.1254                   23061363.8954
        45.2504         31.7504
 -17727855.50845 -13850199.29043  25207446.6564                   25207436.6484
        35.5004         19.5004
  -7573461.47546  -5849090.26746  23911336.8834                   23911326.1724
        40.5004         38.0004
  -5842013.95746  -4310919.66343  24242980.9384                   24242973.0394
        36.5004         21.0004
 -19292172.76448 -21545705.66149  20513139.1024                   20513129.5634
        52.7504         55.0004
 23  1  8  0 30  0.0000000  0 11G23G24G27G08G22G10G21G18G31G01G32
  -8699773.03147  -8591941.92745  22430780.4614                   22430768.9884
        45.0004         34.0004
  -8288578.47046  -7214710.27343  23435627.5164                   23435619.6764
        38.0004         23.7504
  -3752634.29845  -2735141.16244  24692693.6174                   24692683.9614
        34.0004         28.7504
 -12456969.52345  -9672828.93944  24144619.0864                   24144609.0784
        34.5004         29.7504
 -12869488.07247 -10306491.15746  21464626.7114                   21464615.4144
        46.2504         37.0004
 -27387277.09248 -21218006.23749  20650872.7734                   20650863.2344
        51.7504         55.2504
 -14483076.08647 -10322262.90445  23049625.3754                   23049614.1954
        42.0004         30.0004
 -17610957.72445 -13759110.08143  25229690.8054                   25229681.2074
        35.2504         19.7504
  -7691881.73546  -5941365.77746  23888803.4304                   23888791.4304
        40.7504         38.7504
  -5947722.40146  -4393289.85143  24222865.9534                   24222857.7624
        38.2504         21.5004
 -19300010.73648 -21551813.16349  20511647.1724                   20511638.1024
        52.2504         54.7504
 23  1  8  0 30 30.0000000  0 11G23G24G27G08G22G10G21G18G31G01G32
  -8626508.89047  -8534853.01645  22444721.6024                   22444710.9494
        44.5004         34.7504
  -8201590.92946  -7146927.76344  23452181.6954                   23452172.0984
        38.2504         24.5004
  -3659990.38945  -2662951.15344  24710323.1094                   24710314.5664
        35.2504         29.0004
 -12394115.42745  -9623851.73045  24156578.3914                   24156570.0234
        33.5004         30.5004
 -12925511.89547 -10350146.06146  21453965.5314                   21453954.5864
        47.0004         36.2504
 -27365890.08848 -21201341.04949  20654942.0864                   20654933.2504
        50.0004         55.0004
 -14544479.19247 -10370109.47445  23037942.2664                   23037929.3874
        44.5004         30.7504
 -17494034.79655 -13683088.01653  25251940.9384                   25251932.0434
        32.0004         19.2504
  -7810225.10246  -6033581.43246  23866281.5474                   23866271.1294
        38.7504         38.7504
  -6053226.24746  -4475500.64943  24202788.1174                   24202780.3954
        36.0004         19.7504
 -19307458.30648 -21557616.46249  20510229.9774                   20510221.0824
        52.2504         55.0004
 23  1  8  0 31  0.0000000  0 11G23G24G27G08G22G10G21G18G31G01G32
  -8553019.45847  -8477588.55345  22458705.8204                   22458695.5204
        43.5004         33.7504
  -8114195.82446  -7078827.68544  23468812.5784                   23468802.9804
        38.0004         25.2504
  -3567292.21245  -2590718.77144  24727962.3444                   24727953.5664
        34.0004         27.2504
 -12330933.59245  -9574619.14745  24168601.6024                   24168593.2344
        33.0004         30.7504
 -12981198.54947 -10393538.22946  21443368.5944                   21443357.5314
        46.7504         36.5004
 -27344182.98448 -21184426.42749  20659072.6954                   20659063.6844
        50.0004         54.7504
 -14605538.58247 -10417688.25045  23026323.9454                   23026311.0084
        44.5004         31.5004
                                  25274198.1484                   25274187.0864
        37.5004         19.2504
  -7928483.28846  -6125730.62846  23843779.1884                   23843767.2464
        40.5004         39.7504
  -6158517.05246  -4557545.42943  24182753.9614                   24182744.5984
        37.7504         22.0004
 -19314510.39448 -21563111.58949  20508888.0474                   20508879.1524
        51.5004         54.7504
 23  1  8  0 31 30.0000000  0 11G23G24G27G08G22G10G21G18G31G01G32
  -8479196.89747  -8420064.50445  22472754.1564                   22472742.6844
        44.7504         33.7504
  -8026287.66846  -7010327.85244  23485540.0314                   23485531.4884
        37.5004         24.5004
  -3474434.56745  -2518362.17044  24745632.9454                   24745623.9924
        33.7504         27.5004
 -12267318.58545  -9525049.07845  24180706.7894                   24180698.8914
        33.2504         31.0004
 -13036439.89047 -10436583.41246  21432856.8284                   21432845.5314
        47.0004         36.7504
 -27322047.27548 -21167177.82749  20663284.9844                   20663275.7384
        51.0004         55.2504
 -14666143.55747 -10464912.86145  23014788.8984                   23014778.2464
        42.7504         31.5004
 -17259997.85145 -13528825.08253  25296476.5474                   25296465.1914
        35.5004         18.2504
  -8046544.88746  -6217726.69546  23821311.6334                   23821300.8634
        40.0004         39.7504
  -6263483.67846  -4639337.63143  24162776.3524                   24162769.9774
        36.0004         20.7504
 -19321059.43248 -21568214.72249  20507641.7114                   20507632.8164
        53.0004         54.7504
 23  1  8  0 32  0.0000000  0 11G23G24G27G08G22G10G21G18G31G01G32
  -8405377.40847  -8362542.84745  22486801.2814                   22486790.8634
        45.0004         33.5004
  -7938205.17046  -6941692.12744  23502303.1484                   23502293.1414
        39.0004         25.5004
  -3381756.30845  -2446145.37144  24763268.7584                   24763260.0984
        33.7504         26.7504
 -12203609.23145  -9475405.45645  24192830.8674                   24192822.2664
        34.0004         31.5004
 -13091570.96747 -10479542.66446  21422365.7814                   21422354.6024
        47.5004         36.5004
 -27299818.17248 -21149856.45249  20667515.3524                   20667506.2814
        49.7504         55.0004
 -14726628.32747 -10512043.85845  23003280.7274                   23003267.3204
        45.0004         31.2504
 -17143117.86346 -13437749.74043  25318720.1954                   25318707.8444
        37.2504         19.2504
  -8164742.79646  -6309828.94346  23798820.1884                   23798809.0664
        40.7504         40.0004
  -6368459.18446  -4721136.72643  24142802.8054                   24142793.9694
        37.2504         20.7504
 -19327441.90048 -21573188.06549  20506427.1024                   20506418.0314
        51.7504         55.0004
 23  1  8  0 32 30.0000000  0 11G23G24G27G08G22G10G21G18G31G01G32
  -8331225.57847  -8304762.21745  22500912.2344                   22500902.1684
        44.5004         34.0004
  -7849615.33146  -6872661.08644  23519159.5314                   23519151.5744
        37.0004         24.0004
  -3288924.58145  -2373808.94044  24780935.3834                   24780925.3164
        34.5004         26.2504
 -12139472.37345  -9425428.70945  24205034.8444                   24205027.5314
        33.0004         31.5004
 -13146255.58647 -10522154.02946  21411959.4224                   21411948.4184
        46.2504         36.7504
 -27277159.41648 -21132200.28349  20671827.1644                   20671818.2704
        49.7504         55.2504
 -14786655.59347 -10558818.37845  22991856.9304                   22991844.9304
        43.7504         31.5004
 -17026107.87545 -13361155.08953  25340982.0784                   25340973.0664
        32.5004         19.2504
  -8282738.11047  -6401773.32046  23776366.7974                   23776354.7384
        42.0004         40.2504
  -6473105.00945  -4802678.95743  24122888.4384                   24122880.3634
        35.5004         21.0004
 -19333322.70048 -21577770.51749  20505308.4304                   20505299.0664
        51.2504         55.0004
 23  1  8  0 33  0.0000000  0 11G23G24G27G08G22G10G21G18G31G01G32
  -8256852.41647  -8246809.13745  22515064.6644                   22515054.3054
        45.0004         33.7504
  -7760631.47346  -6803323.01644  23536093.2114                   23536083.9064
        38.0004         24.7504
  -3196052.99845  -2301441.49944  24798607.2894                   24798598.0434
        33.0004         26.2504
 -12075021.29245  -9375207.11045  24217299.6884                   24217291.7894
        33.5004         30.5004
 -13200604.24447 -10564503.61546  21401617.5944                   21401606.0044
        47.0004         36.5004
 -27254181.46548 -21114295.39949  20676199.3674                   20676190.5904
        50.7504         55.0004
 -14846334.18747 -10605321.13445  22980500.3284                   22980488.7974
        44.2504         32.0004
 -16909081.12945 -13269965.49543  25363251.1484                   25363243.3674
        32.2504         19.0004
  -8400638.54146  -6493643.80246  23753930.1484                   23753919.7304
        41.0004         40.5004
  -6577528.96046  -4884048.24243  24103018.1414                   24103009.3634
        37.0004         20.2504
 -19338813.20748 -21582048.82449  20504263.4774                   20504254.1134
        52.5004         54.7504
 23  1  8  0 33 30.0000000  0 11G23G24G27G08G22G10G21G18G31G01G32
  -8182259.56147  -8188684.87545  22529259.6254                   22529249.0904
        45.0004         34.0004
  -7671257.73946  -6733681.17544  23553100.8444                   23553091.7734
        37.2504         24.0004
  -3103145.84445  -2229046.32244  24816287.4844                   24816277.7704
        33.0004         26.5004
 -12010260.06245  -9324743.86145  24229623.4224                   24229616.1684
        33.5004         31.5004
 -13254618.04647 -10606592.27046  21391338.3524                   21391327.5824
        46.5004         36.7504
 -27230884.70548 -21096142.07949  20680633.2034                   20680624.0164
        50.5004         55.0004
 -14905663.05747 -10651551.44045  22969212.2734                   22969198.2234
        45.0004         32.2504
 -16792040.51155 -13178765.05952  25385525.8674                   25385516.0944
        35.0004         17.2504
  -8518442.22247  -6585438.84746  23731514.2194                   23731502.1604
        42.0004         40.7504
  -6681729.52245  -4965243.48943  24083188.1884                   24083180.5234
        35.5004         20.0004
 -19343915.29548 -21586024.46849  20503292.7734                   20503283.5274
        52.5004         55.2504
 23  1  8  0 34  0.0000000  0 11G23G24G27G08G22G10G21G18G31G01G32
  -8107447.83447  -8130390.03645  22543495.2274                   22543485.0434
        44.7504         34.0004
  -7581497.41446  -6663738.06944  23570181.7344                   23570173.1914
        37.7504         25.2504
  -3010206.63645  -2156626.15444  24833972.5394                   24833963.7624
        33.0004         25.5004
 -11945191.88145  -9274041.42445  24242007.5394                   24241997.5904
        34.5004         31.5004
 -13308297.20547 -10648420.15246  21381123.7274                   21381112.5474
        47.0004         36.5004
 -27207269.57548 -21077740.69449  20685126.7504                   20685117.7384
        50.0004         55.0004
 -14964641.18747 -10697508.42645  22957987.1414                   22957974.9654
        43.7504         32.0004
 -16674988.89445 -13113602.08153  25407801.7424                   25407787.0474
        35.5004         22.0004
  -8636146.91146  -6677156.79146  23709114.5164                   23709103.5124
        41.7504         40.2504
  -6785704.18445  -5046262.74043  24063402.2504                   24063394.9384
        35.7504         20.0004
 -19348630.18248 -21589698.40649  20502395.2344                   20502386.2814
        51.5004         55.0004
 23  1  8  0 34 30.0000000  0 11G23G24G27G08G22G10G21G18G31G01G32
  -8032416.14847  -8071923.80945  22557773.8984                   22557763.1884
        44.7504         33.2504
  -7491351.76746  -6593494.69244  23587335.2894                   23587326.9224
        38.7504         25.2504
  -2917236.59645  -2084181.94944  24851662.9614                   24851655.0634
        31.5004         25.5004
 -11879818.54345  -9223101.15445  24254445.3524                   24254438.0984
        32.7504         31.5004
 -13361639.88747 -10689985.85346  21370973.2974                   21370961.8244
        47.0004         36.5004
 -27183334.15248 -21059089.71749  20689681.4774                   20689672.5234
        50.5004         55.0004
 -15023265.22647 -10743189.47745  22946832.0084                   22946820.1254
        44.5004         31.7504
 -16557927.60155 -13050515.72653  25430072.1564                   25430066.0164
        31.0004         19.0004
  -8753748.00346  -6768794.00846  23686735.1644                   23686724.8634
        41.0004         41.0004
  -6889448.74045  -5127102.64743  24043659.9694                   24043652.6564
        34.2504         19.5004
 -19352957.05248 -21593069.98449  20501572.0004                   20501562.8134
        51.7504         55.0004
 23  1  8  0 35  0.0000000  0 11G23G24G27G08G22G10G21G18G31G01G32
  -7957165.23447  -8013286.74945  22572093.5634                   22572083.3204
        45.2504         33.5004
  -7400823.98246  -6522953.56143  23604563.1724                   23604553.6334
        37.7504         22.7504
  -2824239.21045  -2011716.49344  24869359.9924                   24869352.0944
        32.7504         25.7504
 -11814142.53545  -9171925.08745  24266943.1724                   24266935.6254
        33.5004         31.7504
 -13414646.23547 -10731289.48746  21360886.7194                   21360874.8364
        46.7504         36.5004
 -27159078.07048 -21040188.88149  20694297.3914                   20694288.0274
        50.2504         55.0004
 -15081533.73247 -10788593.51945  22935744.7344                   22935731.7384
        45.2504         32.7504
 -16440857.727 4                  25452353.500
        29.750
  -8871242.81847  -6860348.38046  23664377.5394                   23664365.9494
        42.0004         40.0004
  -6992960.73945  -5207761.35043  24023964.4614                   24023955.5664
        35.7504         20.0004
 -19356896.99548 -21596140.06149  20500822.1644                   20500812.8594
        51.5004         54.7504
 23  1  8  0 35 30.0000000  0 10G23G24G27G08G22G10G21G31G01G32
  -7881696.03847  -7954479.60445  22586455.0474                   22586443.9264
        45.7504         34.0004
  -7309917.40046  -6452117.27944  23621862.0004                   23621853.4574
        38.0004         24.5004
  -2731217.88945  -1939232.35844  24887063.8984                   24887052.8364
        35.0004         25.0004
 -11748167.57345  -9120516.07245  24279498.8524                   24279490.1914
        32.7504         31.7504
 -13467316.69247 -10772331.37246  21350863.0084                   21350852.3554
        46.2504         36.7504
 -27134501.45748 -21021038.28349  20698973.7974                   20698965.0204
        50.2504         55.0004
 -15139445.75747 -10833719.77045  22924723.5004                   22924711.0904
        44.2504         32.7504
  -8988628.87146  -6951818.03446  23642039.6884                   23642028.5664
        41.7504         40.7504
  -7096237.79245  -5288236.92942  24004311.2274                   24004302.0984
        34.0004         17.2504
 -19360451.22348 -21598909.58449  20500145.7974                   20500136.4924
        53.0004         55.0004
 23  1  8  0 36  0.0000000  0 10G23G24G27G08G22G10G21G31G01G32
  -7806009.63647  -7895503.21045  22600857.1564                   22600847.0314
        45.0004         33.2504
  -7218635.38446  -6380988.43144  23639231.3984                   23639223.6764
        36.5004         24.7504
  -2638176.43245  -1866732.50544  24904765.7034                   24904758.5084
        31.5004         24.2504
 -11681897.31545  -9068876.93745  24292112.4694                   24292101.2894
        35.0004         32.0004
 -13519651.61047 -10813111.80546  21340904.6804                   21340893.2074
        47.0004         36.5004
 -27109604.73148 -21001638.24249  20703711.8444                   20703702.7734
        51.7504         55.0004
 -15196999.75147 -10878567.03045  22913771.6334                   22913759.0474
        45.5004         33.0004
  -9105903.83946  -7043201.10746  23619722.5394                   23619711.5944
        41.2504         40.5004
  -7199277.81446  -5368527.86843  23984702.3134                   23984694.2384
        36.5004         20.5004
 -19363621.18148 -21601379.68349  20499542.5084                   20499533.6724
        52.0004         55.0004
 23  1  8  0 36 30.0000000  0 10G23G24G27G08G22G10G21G31G01G32
  -7730104.42247  -7836356.33145  22615301.3444                   22615291.2194
        44.2504         33.0004
  -7126979.09646  -6309567.95043  23656672.2424                   23656664.6954
        37.0004         22.5004
  -2545115.55845  -1794217.56644  24922475.8834                   24922467.8674
        33.2504         24.5004
 -11615332.41345  -9017008.18445  24304776.2194                   24304768.3204
        33.2504         31.2504
 -13571648.39647 -10853628.76946  21331010.1644                   21330998.5164
        47.0004         36.5004
 -27084385.37348 -20981986.80549  20708510.8984                   20708501.8284
        51.5004         55.0004
 -15254191.76147 -10923132.25045  22902888.9304                   22902876.3444
        45.7504         33.5004
  -9223062.76046  -7134493.76146  23597428.4304                   23597417.2504
        41.7504         41.0004
  -7302075.97345  -5448630.28444  23965139.9774                   23965131.4924
        33.0004         28.0004
 -19366405.60648 -21603549.35949  20499012.6644                   20499003.5354
        52.0004         55.0004
 23  1  8  0 37  0.0000000  0 11G23G24G27G08G22G10G21G31G01G25G32
  -7653982.46147  -7777040.54145  22629787.1024                   22629776.2154
        45.0004         33.2504
  -7034952.78846  -6237859.16443  23674185.7114                   23674177.0514
        38.2504         22.7504
  -2452039.95745  -1721691.08044  24940187.4924                   24940178.5394
        32.7504         24.0004
 -11548477.09045  -8964913.16845  24317495.2664                   24317490.3014
        30.5004         30.5004
 -13623308.69747 -10893883.52146  21321178.7034                   21321168.1684
        46.5004         36.7504
 -27058844.49948 -20962084.83749  20713371.2504                   20713362.0634
        50.0004         55.0004
 -15311022.17047 -10967415.66545  22892072.8204                   22892060.9964
        44.0004         33.0004
  -9340104.15346  -7225694.84046  23575154.6644                   23575144.7154
        40.5004         40.5004
  -8980050.93856  -6756143.29255  23945627.3444                   23945616.8674
        36.5004         31.2504
   -428429.69554   -372757.09154  25382963.6804                   25382957.4804
        28.2504         26.5004
 -19368806.82748 -21605420.43049  20498555.6954                   20498546.7424
        51.0004         55.0004
 23  1  8  0 37 30.0000000  0 11G23G24G27G08G22G10G21G31G01G25G32
  -7577644.90647  -7717556.76745  22644312.8674                   22644302.8594
        45.7504         32.5004
  -6942560.21046  -6165864.92843  23691767.1884                   23691758.5274
        36.7504         22.5004
  -2358953.36245  -1649156.04244  24957901.6804                   24957893.2544
        31.2504         25.2504
 -11481335.10145  -8912594.77845  24330276.8594                   24330267.3204
        34.2504         32.0004
 -13674633.26047 -10933876.67246  21311411.9534                   21311401.0084
        46.5004         36.5004
 -27032982.75748 -20941932.82949  20718292.5864                   20718283.5164
        50.0004         55.2504
 -15367490.39947 -11011416.88045  22881328.9534                   22881315.5474
        46.5004         33.0004
  -9457025.85147  -7316802.66546  23552906.6644                   23552896.3634
        42.7504         41.5004
                                  23926154.1484                   23926147.6564
        32.2504         29.0004
                                  25366950.453
        35.000
 -19370826.50448 -21606994.20349  20498171.5164                   20498162.0354
        51.0004         55.2504
 23  1  8  0 38  0.0000000  0 11G23G24G27G08G22G10G21G31G01G25G32
  -7501089.34947  -7657903.11045  22658880.9534                   22658871.9414
        46.0004         33.5004
  -6849801.17046  -6093585.18143  23709417.6484                   23709409.9264
        36.5004         22.7504
                                  24975618.2664                   24975609.4884
        32.0004         25.5004
 -11413906.69345  -8860053.14145  24343105.7034                   24343098.1564
        31.5004         31.0004
 -13725619.27447 -10973606.01046  21301709.8444                   21301698.7814
        46.0004         37.0004
 -27006796.57248 -20921528.02149  20723275.4144                   20723266.0514
        50.5004         55.0004
 -15423590.59147 -11055131.32645  22870653.1484                   22870640.5044
        45.2504         33.5004
  -9573821.95346  -7407812.58846  23530681.5394                   23530669.4224
        41.7504         41.0004
  -9184419.91345  -6915391.80845  23906735.3914                   23906725.5004
        35.2504         30.5004
                                  25350945.9454                   25350937.9304
        34.7504         26.5004
 -19372462.41448 -21608268.93749  20497860.3054                   20497850.8244
        53.0004         54.7504
 23  1  8  0 38 30.0000000  0 11G23G24G27G08G22G10G21G12G31G01G32
  -7424317.77547  -7598081.10745  22673491.4614                   22673480.3404
        45.2504         33.0004
  -6756680.27646  -6021023.41243  23727139.1254                   23727129.6454
        36.7504         22.5004
 -11625271.88245  -8869663.96044  24993333.1884                   24993325.0554
        30.5004         25.2504
 -11346195.96645  -8807291.59645  24355990.3914                   24355982.9024
        31.0004         30.7504
 -13776267.81047 -11013072.38146  21292071.9534                   21292060.6564
        46.5004         37.0004
 -26980287.33048 -20900871.46849  20728320.1884                   20728310.7664
        51.0004         54.7504
 -15479323.47647 -11098559.53545  22860047.0234                   22860034.7304
        44.7504         32.5004
   -410847.72855   -299915.06552  25591563.0474                   25591553.9184
        34.0004         17.7504
  -9690491.16146  -7498723.68146  23508479.6254                   23508468.9734
        41.7504         41.5004
  -9286226.86545  -6994721.88545  23887361.1804                   23887352.7544
        34.7504         31.0004
 -19373717.00648 -21609246.52949  20497621.5234                   20497612.2774
        52.7504         55.0004
 23  1  8  0 39  0.0000000  0 12G23G24G27G08G22G10G21G12G31G01G25G32
  -7347331.39647  -7538091.74345  22688141.5474                   22688130.4264
        44.5004         33.5004
  -6663201.08946  -5948182.46543  23744927.6564                   23744918.1764
        36.7504         22.0004
 -11532165.16355  -8797113.32454  25011053.3444                   25011044.8014
        33.0004         25.2504
 -11278206.64645  -8754312.88545  24368929.8984                   24368921.7074
        33.0004         31.5004
 -13826579.62747 -11052276.37146  21282497.4224                   21282486.6524
        46.2504         37.2504
 -26953455.47248 -20879963.53049  20733426.1564                   20733416.7344
        51.0004         54.7504
 -15534687.99447 -11141700.71945  22849511.4844                   22849499.4264
        45.2504         33.5004
   -480399.03945   -354110.87542  25578327.5164                   25578318.2704
        33.7504         17.7504
  -9807031.21447  -7589534.08347  23486303.5314                   23486291.2974
        42.2504         42.0004
  -9387779.60246  -7073853.88045  23868037.9844                   23868028.2704
        37.0004         31.5004
                                  25318971.875
        33.750
 -19374591.75948 -21609928.15349  20497455.2894                   20497445.8674
        52.0004         54.7504
 23  1  8  0 39 30.0000000  0 12G23G24G27G08G22G10G21G12G31G01G25G32
  -7270130.26847  -7477935.04745  22702832.3754                   22702821.6054
        45.5004         32.2504
  -6569366.12345  -5875064.35943  23762782.9384                   23762774.6884
        35.5004         22.5004
 -11439058.40645  -8724562.55944  25028770.1414                   25028760.8364
        30.2504         24.5004
 -11209941.07745  -8701118.96845  24381919.4924                   24381912.0044
        31.7504         30.2504
 -13876554.22347 -11091217.60146  21272988.2814                   21272976.6334
        47.0004         37.0004
 -26926300.31448 -20858803.67249  20738593.7424                   20738584.5554
        50.7504         55.0004
 -15589682.14647 -11184553.31445  22839046.5704                   22839034.0434
        44.5004         33.5004
   -549698.40945   -408110.39242  25565140.6884                   25565130.7384
        33.0004         16.2504
  -9923438.43247  -7680241.01047  23464151.2034                   23464139.9654
        42.0004         42.2504
  -9489074.99645  -7152785.37445  23848759.0084                   23848751.6954
        34.5004         31.5004
                                  25303002.602
        38.750
 -19375087.21248 -21610314.22149  20497360.8364                   20497351.2974
        53.7504         55.0004
 23  1  8  0 40  0.0000000  0 12G23G24G27G08G22G10G21G12G31G01G25G32
  -7192713.76247  -7417610.51245  22717564.5944                   22717553.2384
        45.2504         32.5004
  -6475177.09045  -5801670.29343  23780706.2584                   23780697.7154
        35.5004         22.5004
 -11345953.14145  -8652013.04544  25046488.8364                   25046479.5314
        32.5004         27.2504
 -11141400.98955  -8647711.16055  24394962.2894                   24394954.2154
        32.0004         30.2504
 -13926190.21747 -11129894.98346  21263542.3594                   21263531.4144
        45.7504         37.5004
 -26898820.25048 -20837390.63849  20743823.0944                   20743813.4384
        50.5004         55.0004
 -15644302.53447 -11227114.65145  22828652.4844                   22828640.4844
        44.0004         33.7504
   -618741.60146   -448075.37852  25552002.5474                   25551991.1334
        36.2504         16.7504
 -10039708.88947  -7770841.35147  23442026.2814                   23442014.9264
        42.5004         42.7504
  -9590109.00446  -7231513.12045  23829535.8054                   23829526.5594
        37.2504         33.7504
                                  25287048.4534                   25287040.9064
        39.7504         26.7504
 -19375202.89948 -21610404.35849  20497338.8674                   20497329.6214
        52.5004         54.7504
 23  1  8  0 40 30.0000000  0 11G23G24G27G08G22G10G21G12G31G01G32
  -7115084.18347  -7357119.96945  22732336.8594                   22732326.3244
        45.2504         32.7504
  -6380638.72346  -5728004.04443  23798697.0314                   23798688.1374
        36.5004         22.7504
 -11252854.36245  -8579468.52444  25064203.1484                   25064195.3674
        31.0004         25.0004
 -11072591.87545  -8594093.64745  24408056.3914                   24408047.9064
        33.5004         30.5004
 -13975489.37447 -11168309.88146  21254161.2584                   21254150.3714
        46.2504         37.5004
 -26871016.68448 -20815725.53449  20749113.6254                   20749104.3794
        50.2504         55.2504
 -15698549.65747 -11269385.13845  22818330.2894                   22818317.5274
        46.0004         33.7504
   -687527.66146   -501674.80343  25538914.7664                   25538902.7664
        39.7504         18.2504
 -10155841.68746  -7861334.44747  23419925.4924                   23419915.1334
        41.2504         42.5004
  -9690880.65846  -7310036.52545  23810358.2664                   23810349.8404
        36.2504         32.7504
 -19374941.60848 -21610200.75549  20497388.4844                   20497379.2974
        51.7504         54.7504
 23  1  8  0 41  0.0000000  0 11G23G24G27G08G22G10G21G12G31G01G32
  -7037240.49247  -7296462.56845  22747149.2734                   22747139.2074
        45.0004         33.2504
  -6285752.55845  -5654066.75143  23816752.6414                   23816744.3914
        35.7504         21.5004
 -11159763.36655  -8506930.09254  25081917.1484                   25081908.9574
        30.2504         25.2504
 -11003514.36945  -8540267.05545  24421201.0314                   24421193.3674
        31.0004         30.0004
 -14024450.15747 -11206461.12846  21244844.2034                   21244833.3164
        47.5004         37.0004
 -26842887.74148 -20793806.88049  20754466.3134                   20754457.1844
        50.0004         55.0004
 -15752420.61847 -11311362.52845  22808079.3594                   22808066.2464
        45.2504         33.5004
   -756052.10645   -555070.44742  25525872.0634                   25525863.6374
        33.0004         16.2504
 -10271832.00647  -7951716.50047  23397853.4924                   23397842.8404
        42.0004         43.2504
  -9791385.75646  -7388352.14445  23791233.3204                   23791224.3674
        38.0004         33.5004
 -19374302.62048 -21609702.83549  20497510.1414                   20497500.5434
        51.7504         55.0004
 23  1  8  0 41 30.0000000  0 11G23G24G27G08G22G10G21G12G31G01G32
  -6959184.01247  -7235639.37045  22762003.1884                   22761992.7704
        44.7504         32.5004
  -6190522.20746  -5579861.30843  23834874.6954                   23834866.0944
        36.5004         21.2504
 -11066684.10645  -8434400.76644  25099630.4304                   25099621.9454
        30.5004         27.2504
 -10934172.55745  -8486234.47545  24434396.2114                   24434389.1334
        32.5004         31.2504
 -14073073.27547 -11244349.26146  21235591.6644                   21235580.4264
        47.0004         37.2504
 -26814434.10548 -20771635.23449  20759880.9774                   20759871.9064
        50.0004         55.0004
 -15805914.57447 -11353046.11745  22797898.0704                   22797886.4224
        44.0004         33.5004
   -824312.57746   -608260.46242  25512885.3204                   25512874.9024
        38.2504         17.7504
 -10387677.74247  -8041985.88147  23375809.6724                   23375798.0234
        42.5004         43.0004
  -9891622.12646  -7466458.38845  23772159.9384                   23772151.1604
        38.5004         33.5004
 -19373287.65448 -21608911.95549  20497703.0004                   20497693.8714
        52.0004         55.0004
 23  1  8  0 42  0.0000000  0 12G23G24G27G08G22G10G21G12G31G01G25G32
  -6880914.87347  -7174650.43645  22776897.9224                   22776886.9774
        45.7504         32.0004
  -6094950.23945  -5505389.60143  23853061.4064                   23853052.5124
        35.2504         20.5004
                                  25117340.6334                   25117331.6804
        33.5004         26.0004
 -10864568.85745  -8431997.85544  24447641.0314                   24447633.4844
        30.5004         29.2504
 -14121358.27147 -11281973.91746  21226403.1804                   21226392.0004
        47.0004         38.0004
 -26785655.21448 -20749210.11949  20765357.8054                   20765348.1484
        50.5004         55.0004
 -15859029.38047 -11394434.27145  22787791.7734                   22787779.3054
        45.7504         34.0004
   -892305.63255   -661241.98852  25499944.5234                   25499935.4534
        34.5004         16.7504
 -10503375.60546  -8132140.05847  23353792.0474                   23353781.9224
        41.5004         43.0004
  -9991586.77946  -7544352.91745  23753136.0784                   23753127.6524
        36.7504         34.0004
   -425516.12255   -580355.62953  25223366.3444                   25223354.8134
        33.0004         23.5004
 -19371897.19448 -21607828.47649  20497967.7814                   20497958.4184
        51.7504         54.7504
 23  1  8  0 42 30.0000000  0 12G23G24G27G08G22G10G21G12G31G01G25G32
  -6802433.36047  -7113496.02145  22791831.7114                   22791821.6454
        44.5004         32.2504
  -5999039.36745  -5430653.87443  23871313.4694                   23871304.4574
        35.2504         21.5004
 -10880570.72545  -8289377.35844  25135045.6254                   25135038.7234
        31.0004         26.5004
 -10794706.48445  -8377559.61445  24460933.9064                   24460928.1174
        30.5004         30.5004
 -14169304.96247 -11319334.96346  21217279.7194                   21217267.8954
        47.7504         37.2504
 -26756550.13648 -20726530.85049  20770896.2974                   20770886.8754
        50.5004         55.0004
 -15911762.87047 -11435525.32345  22777756.5084                   22777744.4494
        44.7504         33.2504
   -960027.83646   -714012.51343  25487058.2734                   25487048.1484
        36.2504         19.0004
 -10618922.30447  -8222176.44547  23331804.6334                   23331793.7464
        42.0004         43.2504
 -10091276.45646  -7622033.20245  23734166.0784                   23734157.0664
        37.5004         34.0004
   -508974.72755   -645388.30253  25207480.6254                   25207473.5474
        31.7504         23.2504
 -19370131.90748 -21606452.92649  20498303.5634                   20498294.4344
        52.0004         54.7504
 23  1  8  0 43  0.0000000  0 12G23G24G27G08G22G10G21G12G31G01G25G32
  -6723739.84247  -7052176.42345  22806807.1724                   22806796.6954
        45.0004         32.5004
  -5902792.43746  -5355656.26543  23889629.0554                   23889619.5744
        36.0004         20.2504
 -10787543.14355  -8216888.51854  25152749.9224                   25152740.5594
        31.7504         26.0004
 -10724587.44045  -8322921.42345  24474278.5944                   24474271.9264
        32.5004         31.2504
 -14216913.14547 -11356432.23246  21208219.4454                   21208208.6764
        46.7504         37.7504
 -26727118.75648 -20703597.31249  20776496.6094                   20776487.5394
        50.7504         55.0004
 -15964113.36747 -11476317.89945  22767794.3134                   22767782.3714
        45.0004         33.5004
  -1027476.43846   -766569.90543  25474224.2504                   25474212.6604
        38.5004         18.2504
 -10734314.73847  -8312092.61847  23309846.4064                   23309835.8134
        42.2504         43.0004
 -10190688.38646  -7699496.98445  23715249.5704                   23715239.2704
        38.7504         33.7504
   -592344.96955   -710352.01153  25191616.1804                   25191608.8094
        32.5004         22.5004
 -19367992.50248 -21604785.85749  20498710.7664                   20498701.4024
        52.0004         54.7504
 23  1  8  0 43 30.0000000  0 12G23G24G27G08G22G10G21G12G31G01G25G32
  -6644835.15247  -6990692.27845  22821822.2344                   22821811.1134
        44.2504         32.0004
  -5806212.62846  -5280399.29243  23908007.2974                   23907997.5234
        36.5004         21.5004
 -10694537.52545  -8144416.58544  25170448.5314                   25170438.9924
        33.0004         25.0004
 -10654215.64545  -8268086.28845  24487668.0864                   24487662.2974
        30.2504         30.5004
 -14264182.97647 -11393265.84446  21199224.7814                   21199213.8364
        47.0004         37.5004
 -26697360.65448 -20680409.18449  20782159.5004                   20782150.2544
        50.2504         54.7504
 -16016079.91147 -11516811.31545  22757906.3054                   22757893.6604
        46.0004         34.0004
  -1094648.97746   -818912.13443  25461441.6484                   25461429.4144
        37.7504         18.2504
 -10849550.33446  -8401886.58047  23287918.0394                   23287906.8014
        41.7504         43.0004
 -10289820.00445  -7776742.46245  23696382.3054                   23696375.6374
        35.7504         34.0004
   -675624.39345   -775245.09944  25175767.1414                   25175761.0004
        30.5004         25.0004
 -19365480.24148 -21602828.24549  20499189.0944                   20499179.9064
        52.5004         54.7504
 23  1  8  0 44  0.0000000  0 12G23G24G27G08G22G10G21G12G31G01G25G32
  -6565718.97947  -6929043.32145  22836876.6254                   22836866.5004
        43.7504         31.2504
  -5709302.12546  -5204884.63343  23926448.7114                   23926439.8164
        36.5004         21.5004
                                  25188141.3594                   25188133.4614
        33.0004         23.7504
 -10583592.55545  -8213055.26245  24501111.5704                   24501101.3284
        34.2504         32.0004
 -14311113.90247 -11429835.39546  21190293.6174                   21190282.4964
        46.7504         37.5004
 -26667275.01848 -20656965.83849  20787884.5314                   20787875.1684
        51.2504         54.7504
 -16067659.97647 -11557003.58345  22748090.3914                   22748078.3324
        45.0004         34.0004
  -1161541.07246   -871035.82743  25448710.5164                   25448701.3284
        36.2504         18.5004
 -10964625.33447  -8491555.40947  23266020.0554                   23266009.1684
        42.7504         43.2504
 -10388667.67346  -7853766.55345  23677575.6804                   23677565.2624
        38.5004         34.0004
   -758808.87045   -840064.03944  25159940.5474                   25159932.2974
        34.5004         28.0004
 -19362595.09548 -21600580.07949  20499738.1024                   20499728.5044
        53.2504         55.0004
 23  1  8  0 44 30.0000000  0 12G23G24G27G08G22G10G21G12G31G01G25G32
  -6486393.56247  -6867231.34045  22851972.7424                   22851962.0314
        43.7504         32.0004
  -5612065.45745  -5129115.79343  23944950.1884                   23944942.8164
        33.7504         20.0004
                                  25205828.5554                   25205819.3674
        31.5004         24.5004
 -10512723.60445  -8157832.71545  24514598.2344                   24514588.6374
        34.5004         31.7504
 -14357707.45247 -11466142.03946  21181427.5634                   21181416.5004
        46.7504         37.7504
 -26636863.31848 -20633268.42149  20793671.8914                   20793662.4694
        50.5004         55.0004
 -16118853.40747 -11596894.56545  22738347.9774                   22738336.3874
        44.5004         33.2504
  -1228151.65446   -922940.18042  25436037.0474                   25436026.0434
        38.0004         17.2504
 -11079538.29046  -8581097.96747  23244152.4144                   23244141.5864
        41.7504         43.0004
 -10487230.25646  -7930568.58945  23658819.0784                   23658809.0704
        38.0004         33.5004
   -841896.99045   -904808.12244  25144129.0164                   25144120.7074
        33.0004         27.2504
 -19359339.78848 -21598043.47049  20500357.5944                   20500347.9384
        53.0004         55.0004
 23  1  8  0 45  0.0000000  0 12G23G24G27G08G22G10G21G12G31G01G25G32
  -6406857.92247  -6805255.53845  22867107.1804                   22867097.2894
        43.7504         31.7504
  -5514504.11945  -5053094.02043  23963515.8594                   23963508.8984
        33.5004         21.5004
 -10415685.90255  -7927129.60854  25223514.2504                   25223503.4224
        32.2504         25.0004
 -10441609.85145  -8102419.41245  24528127.9384                   24528120.5664
        33.5004         31.5004
 -14403962.05647 -11502184.56946  21172625.1254                   21172614.1804
        46.5004         37.5004
 -26606123.69548 -20609315.48149  20799521.1484                   20799512.1374
        50.5004         55.0004
 -16169657.82947 -11636482.41545  22728680.9694                   22728668.4414
        45.2504         34.2504
  -1294476.27446   -974621.67442  25423414.9224                   25423404.4454
        36.5004         17.7504
 -11194284.65947  -8670510.72247  23222316.7504                   23222305.7464
        42.0004         43.0004
 -10585503.52146  -8007145.10945  23640116.4304                   23640109.2344
        37.0004         33.7504
   -924884.29244   -969473.53444  25128332.5864                   25128328.7344
        28.7504         26.5004
 -19355713.63148 -21595217.89449  20501047.5634                   20501038.0824
        53.7504         54.7504
 23  1  8  0 45 30.0000000  0 12G23G24G27G08G22G10G21G12G31G01G25G32
  -6327112.13547  -6743115.98445  22882281.3754                   22882272.2464
        43.0004         31.7504
  -5416620.61245  -4976821.13443  23982143.3444                   23982135.2704
        34.0004         19.7504
                                  25241187.2734                   25241178.6134
        32.7504         22.5004
 -10370253.90546  -8046817.39045  24541708.3444                   24541698.9224
        36.5004         31.5004
 -14449877.34147 -11537962.69946  21163888.3594                   21163876.8874
        46.7504         37.7504
 -26575055.32448 -20585106.37449  20805433.3054                   20805424.0594
        50.7504         54.7504
 -16220070.53147 -11675765.05545  22719087.9534                   22719075.5434
        45.5004         33.5004
  -1360511.77946  -1026077.90442  25410848.9224                   25410838.6214
        37.5004         17.2504
 -11308861.10447  -8759791.06347  23200513.9694                   23200502.9654
        42.0004         43.0004
 -10683484.03846  -8083493.59145  23621471.8444                   23621463.4184
        38.0004         34.5004
  -1007766.92045  -1034057.29444  25112564.7274                   25112556.8874
        33.0004         26.5004
 -19351717.13349 -21592103.74049  20501807.7114                   20501798.4064
        54.5004         55.0004
 23  1  8  0 46  0.0000000  0 12G23G24G27G08G22G10G21G12G31G01G25G32
  -6247159.18747  -6680814.98445  22897496.9224                   22897486.3284
        43.7504         31.5004
  -5318420.36546  -4900301.44743  24000831.6954                   24000821.6884
        36.0004         19.5004
 -10229951.60745  -7782401.54244  25258854.8364                   25258847.0554
        30.5004         24.2504
 -10298660.99745  -7991030.67245  24555329.5554                   24555322.5354
        33.5004         31.0004
 -14495455.87547 -11573478.42946  21155215.0864                   21155203.7894
        47.0004         38.0004
 -26543660.26848 -20560642.70449  20811407.4534                   20811398.6764
        50.5004         54.7504
 -16270092.42347 -11714743.14345  22709568.6334                   22709556.7504
        45.7504         34.0004
  -1426257.06446  -1077307.98043  25398337.9304                   25398327.8634
        37.7504         19.0004
 -11423267.15446  -8848938.63447  23178742.9064                   23178732.0784
        41.7504         43.0004
 -10781171.62446  -8159613.78045  23602880.8754                   23602874.4414
        36.0004         34.5004
  -1090544.18045  -1098559.06944  25096811.9844                   25096804.0864
        30.7504         24.5004
 -19347353.58848 -21588703.57449  20502638.0474                   20502628.9774
        53.5004         55.0004
 23  1  8  0 46 30.0000000  0 12G23G24G27G08G22G10G21G12G31G01G25G32
  -6166996.80147  -6618350.82645  22912751.6484                   22912740.5864
        44.5004         30.7504
  -5219903.34545  -4823534.93543  24019575.9844                   24019569.3164
        32.2504         19.2504
 -10137142.66355  -7710082.92353  25276516.0164                   25276506.9454
        32.0004         21.7504
 -10226831.38145  -7935059.54045  24568997.6564                   24568991.8674
        31.7504         31.7504
 -14540694.66747 -11608729.42446  21146605.7504                   21146594.9224
        46.5004         37.5004
 -26511936.01748 -20535922.52149  20817444.7814                   20817435.5944
        50.5004         55.0004
 -16319719.15847 -11753413.32045  22700125.6484                   22700112.8874
        46.0004         34.2504
  -1491706.39946  -1128307.48543  25385883.2114                   25385873.0864
        36.5004         19.5004
 -11537496.79247  -8937948.72347  23157005.1724                   23156994.4024
        42.0004         43.0004
 -10878560.47146  -8235501.17845  23584350.6024                   23584342.4694
        38.5004         35.5004
  -1173210.22145  -1162974.12444  25081081.1334                   25081073.8204
        34.0004         27.7504
 -19342621.15948 -21585015.96149  20503538.7814                   20503529.6524
        52.5004         54.7504
 23  1  8  0 47  0.0000000  0 12G23G24G27G08G22G10G21G12G31G01G25G32
  -6086627.21647  -6555725.21145  22928045.4774                   22928035.6454
        43.7504         31.2504
  -5121074.38345  -4746525.36443  24038384.0234                   24038375.1294
        34.2504         20.5004
 -10044377.34154  -7637798.15253  25294170.0634                   25294162.2814
        29.0004         22.5004
 -10154770.41446  -7878908.14945  24582714.2274                   24582703.7504
        36.2504         32.2504
 -14585595.61547 -11643717.16446  21138061.8914                   21138050.5354
        46.5004         37.7504
 -26479883.30148 -20510946.38449  20823543.9534                   20823534.7074
        50.5004         54.7504
 -16368951.36347 -11791776.08745  22690756.6884                   22690743.9844
        46.0004         34.0004
  -1556858.69645  -1179075.52542  25373483.7584                   25373473.8674
        35.2504         17.7504
 -11651549.02147  -9026820.60147  23135302.2584                   23135291.7234
        42.5004         43.2504
 -10975649.64346  -8311155.05745  23565874.7584                   23565865.9804
        38.2504         34.2504
  -1255763.58645  -1227301.38644  25065370.2974                   25065363.7464
        31.7504         25.5004
 -19337522.53948 -21581043.00949  20504509.0634                   20504499.9924
        52.5004         54.7504
 23  1  8  0 47 30.0000000  0 11G23G24G08G22G10G21G12G31G01G25G32
  -6006048.62647  -6492936.71945  22943378.5634                   22943369.0234
        43.7504         30.7504
  -5021933.86345  -4669273.01443  24057250.3054                   24057240.9414
        33.7504         19.0004
 -10082478.05245  -7822576.41245  24596467.9064                   24596461.0044
        34.0004         31.5004
 -14630156.16947 -11678439.66146  21129582.0084                   21129570.8874
        46.7504         38.0004
 -26447499.95248 -20485712.60949  20829706.3134                   20829697.2424
        51.0004         55.2504
 -16417785.13847 -11829828.37945  22681463.1644                   22681451.7504
        46.0004         34.7504
  -1621708.86346  -1229608.14542  25361144.0004                   25361133.1724
        36.0004         17.2504
 -11765418.24547  -9115549.84147  23113634.3594                   23113623.0044
        43.5004         43.7504
 -11072433.77646  -8386571.25845  23547457.2734                   23547449.1994
        38.5004         35.0004
  -1338198.52845  -1291536.41944  25049684.4924                   25049677.5904
        33.2504         27.0004
 -19332056.20048 -21576783.52349  20505549.3444                   20505539.8054
        53.0004         54.7504
 23  1  8  0 48  0.0000000  0 11G23G24G08G22G10G21G12G31G01G25G32
  -5925264.00847  -6429987.69445  22958752.2194                   22958741.5664
        44.5004         31.0004
  -4922487.36145  -4591782.18243  24076175.0634                   24076164.5864
        34.2504         20.5004
 -10009959.45045  -7766068.45145  24610268.0164                   24610260.2344
        34.0004         31.5004
 -14674378.92447 -11712898.94146  21121166.9454                   21121155.2384
        47.0004         38.0004
 -26414787.90748 -20460222.72349  20835931.0634                   20835922.0514
        50.5004         54.7504
 -16466220.61447 -11867570.29145  22672246.6484                   22672234.3554
        46.2504         34.5004
  -1686256.00645  -1279904.58042  25348860.9844                   25348851.0354
        35.7504         16.2504
 -11879103.96847  -9204136.11347  23091998.9844                   23091989.3874
        42.0004         43.5004
 -11168912.57146  -8461749.51645  23529097.2814                   23529089.5004
        37.2504         35.2504
  -1420514.43845  -1355678.67044  25034020.6254                   25034013.1374
        32.0004         26.7504
 -19326225.52448 -21572240.13849  20506658.9144                   20506649.3164
        53.0004         55.0004
 23  1  8  0 48 30.0000000  0 12G23G24G27G08G22G10G21G12G31G01G25G32
  -5844275.96647  -6366880.16045  22974163.9064                   22974152.9614
        45.0004         30.7504
  -4822739.75545  -4514056.79743  24095152.8754                   24095147.5554
        32.0004         20.5004
    142017.66954  -7467676.34254  25347074.9614                   25347065.8914
        29.0004         25.2504
  -9937220.23745  -7709388.52545  24624110.3284                   24624102.3134
        35.7504         32.5004
 -14718266.29547 -11747096.87746  21112815.1954                   21112803.5474
        46.2504         38.5004
 -26381749.27748 -20434478.34849  20842218.0314                   20842209.0784
        51.0004         55.0004
 -16514259.15947 -11905002.93645  22663105.8754                   22663093.3484
        45.5004         35.0004
  -1750499.31946  -1329964.23642  25336636.5164                   25336626.1564
        36.2504         17.2504
 -11992605.14647  -9292578.57347  23070402.1414                   23070390.1994
        43.0004         44.2504
 -11265085.25546  -8536689.28145  23510797.3204                   23510788.6024
        39.5004         35.0004
  -1502710.27645  -1419727.37244  25018378.3594                   25018371.3984
        32.0004         25.2504
 -19320033.51848 -21567415.19649  20507837.0784                   20507827.8324
        53.5004         54.7504
 23  1  8  0 49  0.0000000  0 12G23G24G27G08G22G10G21G12G31G01G25G32
  -5763077.24147  -6303608.44645  22989614.6094                   22989605.0124
        44.0004         31.2504
  -4722686.15845  -4436092.97143  24114194.9304                   24114186.4454
        33.5004         19.5004
                                  25364690.6094                   25364680.7194
        31.5004         24.5004
  -9864254.97145  -7652532.46845  24637993.4304                   24637986.9384
        33.5004         31.0004
 -14761810.17447 -11781027.15546  21104529.4694                   21104517.7034
        47.0004         38.5004
 -26348375.64548 -20408472.93349  20848569.1644                   20848559.9774
        50.7504         54.7504
 -16561891.08847 -11942118.73345  22654041.4534                   22654029.2194
        45.5004         34.7504
  -1814428.26546  -1379778.88443  25324471.0634                   25324461.0554
        36.2504         18.2504
 -12105911.08347  -9380868.90647  23048839.6884                   23048829.2704
        42.5004         44.2504
 -11360941.17946  -8611382.19746  23492555.9064                   23492548.4184
        39.7504         36.0004
  -1584774.98545  -1483673.87844  25002761.7894                   25002755.2384
        32.0004         26.7504
 -19313473.32548 -21562303.36049  20509085.6484                   20509075.9344
        53.2504         54.7504
 23  1  8  0 49 30.0000000  0 12G23G24G27G08G22G10G21G12G31G01G25G32
  -5681675.07147  -6240178.19345  23005105.5554                   23005095.0784
        44.2504         31.0004
  -4622336.18545  -4357898.13443  24133290.4694                   24133282.0434
        34.0004         19.0004
                                  25382293.1024                   25382282.7424
        33.0004         22.2504
  -9791074.01245  -7595508.37045  24651921.9384                   24651912.5164
        35.2504         31.7504
 -14805017.32647 -11814695.06046  21096306.5784                   21096295.6334
        46.7504         38.2504
 -26314673.55148 -20382211.55849  20854982.6094                   20854973.1884
        50.7504         54.7504
 -16609121.30947 -11978921.49645  22645053.5234                   22645041.7584
        46.2504         34.0004
  -1878046.50846  -1429351.54443  25312366.1024                   25312354.8634
        37.7504         18.5004
 -12219025.35147  -9469009.87347  23027315.6484                   23027304.0004
        43.2504         44.2504
 -11456484.12946  -8685831.24345  23474375.8134                   23474366.2154
        39.5004         35.7504
  -1666711.97145  -1547520.88144  24987169.6804                   24987162.7774
        31.7504         25.5004
 -19306552.51548 -21556910.52449  20510402.3594                   20510393.3484
        53.0004         55.0004
 23  1  8  0 50  0.0000000  0 11G23G24G08G22G10G21G12G31G01G25G32
  -5600068.76947  -6176588.90145  23020635.3284                   23020624.0314
        44.5004         30.7504
  -4521691.57145  -4279473.76543  24152444.5394                   24152433.9454
        35.0004         20.0004
  -9717678.72746  -7538317.24045  24665888.3364                   24665879.8524
        36.7504         31.0004
 -14847886.70747 -11848099.76546  21088149.5004                   21088137.9694
        46.7504         38.2504
 -26280641.55048 -20355693.13249  20861458.4144                   20861449.2854
        50.5004         55.2504
 -16655947.56447 -12015409.48945  22636143.0784                   22636130.8444
        46.2504         34.5004
  -1941349.60045  -1478678.53343  25300319.5944                   25300309.2934
        35.5004         18.2504
 -12331943.86747  -9556998.31347  23005827.6804                   23005816.5004
        43.2504         44.2504
 -11551710.14046  -8760033.32845  23456254.7814                   23456246.0634
        39.0004         35.5004
  -1748516.70645  -1611264.84144  24971603.9614                   24971596.1214
        33.0004         27.7504
 -19299270.81649 -21551236.46249  20511788.1564                   20511778.9104
        54.0004         55.0004
 23  1  8  0 50 30.0000000  0 12G23G24G27G08G22G10G21G12G31G01G25G32
  -5518261.71147  -6112843.17945  23036201.6644                   23036191.1294
        43.7504         31.0004
  -4420758.03445  -4200824.26343  24171650.3984                   24171641.9734
        34.2504         20.5004
    139357.55855  -7244319.80654  25417466.7194                   25417457.7664
        30.5004         24.7504
  -9644074.98246  -7480963.67545  24679895.7034                   24679886.3404
        37.0004         31.7504
 -14890421.32747 -11881243.61446  21080054.6954                   21080044.0434
        46.2504         38.5004
 -26246282.09548 -20328919.53749  20867996.9064                   20867987.7194
        50.7504         54.7504
 -16702371.05347 -12051583.64945  22627309.1174                   22627296.7664
        45.0004         34.2504
  -2004337.53746  -1527760.05242  25288333.5704                   25288322.3324
        36.7504         17.2504
 -12444666.54847  -9644834.15447  22984377.0784                   22984365.9574
        42.7504         44.5004
 -11646619.07746  -8833988.32745  23438193.6484                   23438185.4574
        39.0004         35.5004
                                  24956062.4614                   24956054.3284
        33.0004         27.0004
 -19291632.01648 -21545284.16149  20513241.2974                   20513232.4024
        53.2504         54.7504
 23  1  8  0 51  0.0000000  0 12G23G24G27G08G22G10G21G12G31G01G25G32
  -5436243.94247  -6048933.24345  23051810.0234                   23051799.0784
        44.0004         30.5004
  -4319527.92945  -4121943.64243  24190913.0234                   24190904.9494
        33.5004         20.0004
                                  25435032.6884                   25435025.5514
        28.5004         22.7504
  -9570255.19945  -7423441.74145  24693941.9304                   24693932.9184
        35.0004         32.0004
 -14932610.35547 -11914118.17146  21072027.0634                   21072015.7074
        46.5004         38.5004
 -26211584.33048 -20301882.33149  20874599.3204                   20874590.4844
        50.5004         54.7504
 -16748379.41547 -12087434.30345  22618553.4144                   22618541.3554
        44.5004         34.5004
  -2066997.05046  -1576585.61942  25276408.6564                   25276398.0044
        36.0004         17.2504
 -12557179.49647  -9732506.56347  22962966.9144                   22962955.6764
        44.0004         44.7504
 -11741197.65246  -8907685.89745  23420196.7734                   23420187.5274
        39.2504         35.5004
  -1911714.81355  -1738432.19454  24940546.3984                   24940540.6094
        30.7504         27.5004
 -19283626.53048 -21539046.11949  20514764.9924                   20514755.8634
        53.0004         55.0004
 23  1  8  0 51 30.0000000  0 12G23G24G27G08G22G10G21G12G31G01G25G32
  -5353802.89047  -5984693.50445  23067497.7974                   23067487.0864
        44.2504         30.0004
  -4217791.12245  -4042668.19343  24210273.1334                   24210263.8284
        32.7504         18.5004
                                  25452633.3204                   25452624.5434
        28.7504         27.7504
  -9496009.12845  -7365587.64445  24708069.0784                   24708062.2934
        33.2504         32.2504
 -14974240.90347 -11946557.55746  21064104.8834                   21064094.1134
        46.5004         38.7504
 -26176335.17548 -20274415.46949  20881307.2584                   20881298.3054
        51.0004         54.7504
 -16793758.42347 -12122794.57545  22609918.7424                   22609906.2734
        44.7504         34.2504
  -2129112.01646  -1624986.90242  25264589.2894                   25264577.8164
        36.2504         16.2504
 -12669266.58847  -9819847.13247  22941637.6724                   22941626.3754
        43.7504         45.0004
 -11835229.91646  -8980957.80046  23402303.0164                   23402293.8874
        38.7504         36.0004
  -1992878.13255  -1801676.35454  24925103.2584                   24925095.8874
        32.2504         27.2504
 -19275042.21049 -21532357.03849  20516398.7424                   20516389.3204
        54.2504         54.7504
 23  1  8  0 52  0.0000000  0 11G23G24G08G22G10G21G12G31G01G25G32
  -5271606.76947  -5920644.60244  23083137.9614                   23083128.5394
        43.0004         29.7504
  -4116218.21945  -3963520.46843  24229601.9384                   24229592.9844
        33.5004         19.5004
  -9422007.72345  -7307924.30645  24722152.9924                   24722144.0984
        35.5004         31.5004
 -15015980.77447 -11979082.11446  21056161.6804                   21056150.9104
        46.2504         38.5004
 -26141201.96348 -20247038.94949  20887993.0084                   20887984.0554
        52.0004         54.7504
 -16839174.17247 -12158183.48645  22601276.3754                   22601264.0824
        44.7504         34.2504
  -2191347.00845  -1673481.65243  25252746.1484                   25252735.4384
        35.7504         18.2504
 -12781592.75047  -9907373.99747  22920262.2424                   22920250.9454
        43.2504         45.0004
 -11929380.61246  -9054321.96745  23384384.7344                   23384377.3054
        37.5004         35.5004
                                  24909599.5784                   24909593.8484
        31.7504         26.7504
 -19266547.59849 -21525737.85549  20518015.2664                   20518005.9614
        54.2504         54.7504
 23  1  8  0 52 30.0000000  0 11G23G24G08G22G10G21G12G31G01G25G32
  -5188986.57247  -5856265.26244  23098861.8134                   23098850.9844
        43.7504         29.2504
  -4014142.31445  -3883980.86443  24249025.7974                   24249017.7814
        33.2504         18.5004
  -9347584.28946  -7249931.98445  24736315.4144                   24736306.5204
        36.7504         31.5004
 -15057160.58847 -12011170.27546  21048325.6414                   21048314.5204
        47.0004         38.7504
 -26105514.79748 -20219230.77649  20894784.3134                   20894774.7734
        51.0004         54.7504
 -16883955.80947 -12193078.26045  22592753.7274                   22592742.1374
        45.0004         34.5004
  -2253029.77345  -1721546.12042  25241009.1564                   25240997.5084
        35.5004         17.7504
 -12893485.05147  -9994562.78347  22898969.3834                   22898958.5554
        43.5004         44.7504
 -12022977.36546  -9127254.49745  23366574.6094                   23366566.5354
        38.5004         35.7504
  -2155441.43655  -1928348.89354  24894169.7504                   24894161.5004
        33.0004         27.7504
 -19257474.11848 -21518667.60049  20519742.0394                   20519732.3244
        53.0004         55.0004
 23  1  8  0 53  0.0000000  0 12G23G24G27G08G22G10G21G12G31G01G25G32
  -5106160.20947  -5791725.25645  23114622.1334                   23114611.4804
        43.0004         30.0004
  -3911784.00945  -3804221.08643  24268505.6804                   24268495.6134
        33.7504         19.5004
                                  25505177.313
        34.750
  -9272959.15345  -7191782.51445  24750515.4064                   24750507.0984
        35.0004         31.2504
 -15097997.79947 -12042991.46646  21040554.2194                   21040542.8054
        47.5004         39.0004
 -26069490.51548 -20191159.91749  20901639.2274                   20901630.0984
        51.7504         54.7504
 -16928319.11647 -12227647.06745  22584311.3134                   22584300.1914
        45.5004         34.0004
  -2314374.44146  -1769347.11843  25229336.0164                   25229324.4264
        36.0004         18.5004
 -13005157.92047 -10081580.58747  22877718.9534                   22877707.9494
        43.2504         45.0004
 -12116234.62346  -9199922.48145  23348828.7664                   23348820.2234
        37.7504         35.2504
  -2236379.60555  -1979240.79154  24878768.4304                   24878760.0634
        32.7504         28.0004
 -19248040.06549 -21511316.39149  20521537.1094                   20521527.4534
        54.0004         55.0004
 23  1  8  0 53 30.0000000  0 12G23G24G27G08G22G10G21G12G31G01G25G32
  -5023138.41547  -5727032.97745  23130420.6024                   23130409.8914
        42.7504         30.0004
  -3809156.11345  -3724251.37643  24288033.7734                   24288026.2274
        33.2504         19.7504
    384031.40755  -6906285.56654  25522673.6094                   25522663.4264
        31.0004         25.0004
  -9198145.02946  -7133485.83945  24764752.2894                   24764743.9224
        36.2504         31.0004
 -15138502.62247 -12074553.65346  21032846.9454                   21032835.5904
        47.5004         39.2504
 -26033139.50248 -20162834.45849  20908556.5234                   20908547.1604
        51.5004         54.7504
 -16972272.81047 -12261896.69945  22575948.4774                   22575936.1844
        46.2504         34.5004
  -2375388.39745  -1816890.44042  25217721.6254                   25217713.4344
        31.5004         16.7504
 -13116618.87447 -10168433.26247  22856508.4844                   22856497.7734
        43.0004         45.0004
 -12209159.82246  -9272331.72145  23331145.0474                   23331137.5594
        37.7504         35.0004
  -2317166.89855  -2042191.90854  24863394.7194                   24863387.4064
        32.7504         27.7504
 -19238256.58248 -21503692.89749  20523398.9304                   20523389.5084
        53.7504         54.7504
 23  1  8  0 54  0.0000000  0 12G23G24G27G08G22G10G21G12G31G01G25G32
  -4939914.62847  -5662183.30345  23146258.0474                   23146247.8054
        43.5004         30.2504
  -3706254.54845  -3644068.25843  24307616.0554                   24307606.5164
        33.5004         19.2504
    475904.50955  -6834696.15953  25540153.3834                   25540146.5394
        30.5004         22.7504
  -9123138.58646  -7075039.24445  24779026.4924                   24779017.0704
        36.5004         32.7504
 -15178668.20947 -12105851.50846  21025203.4224                   21025192.2424
        47.2504         39.0004
 -25996454.26548 -20134248.58449  20915537.9144                   20915528.6094
        51.7504         55.0004
 -17015808.10747 -12295820.32245  22567663.6644                   22567651.3714
        45.5004         34.5004
  -2436061.24355  -1864167.92952  25206177.8594                   25206167.4414
        35.2504         16.2504
 -13227857.15947 -10255112.43247  22835340.8914                   22835329.6524
        43.0004         45.0004
 -12301742.80546  -9344474.30745  23313527.1484                   23313518.9574
        38.0004         35.0004
                                  24848051.7194                   24848044.6994
        32.5004         27.0004
 -19228117.46448 -21495792.28149  20525328.0314                   20525318.8444
        53.5004         54.7504
 23  1  8  0 54 30.0000000  0 12G23G24G27G08G22G10G21G12G31G01G25G32
  -4856488.74947  -5597176.16045  23162132.6484                   23162122.9344
        42.2504         30.0004
  -3603081.39145  -3563673.60543  24327246.8134                   24327239.6174
        31.0004         19.5004
    567695.39055  -6763170.80753  25557621.5314                   25557613.5164
        30.2504         22.7504
  -9047941.42345  -7016444.04445  24793334.2194                   24793326.7304
        34.0004         32.5004
 -15218493.28347 -12136884.01946  21017624.9614                   21017614.0744
        47.2504         39.5004
 -25959433.94948 -20105401.58149  20922582.7034                   20922573.3404
        51.5004         54.7504
 -17058923.07547 -12329416.40345  22559458.7814                   22559447.3094
        45.2504         35.2504
  -2496389.97045  -1911177.31842  25194697.6334                   25194687.5664
        35.2504         16.7504
 -13338869.31247 -10341615.37747  22814216.5784                   22814204.5204
        43.5004         45.0004
 -12393980.21646  -9416347.60446  23295976.2894                   23295966.7504
        39.2504         36.0004
  -2478252.36955  -2167713.16054  24832739.3524                   24832732.3324
        33.0004         27.0004
 -19217623.00248 -21487614.77549  20527325.1174                   20527315.6954
        53.2504         54.7504
 23  1  8  0 55  0.0000000  0 12G23G24G27G08G22G10G21G12G31G01G25G32
  -4772864.97547  -5532014.79744  23178046.8204                   23178035.6414
        42.7504         29.0004
  -3499643.33545  -3483072.57243  24346932.2734                   24346924.1414
        33.0004         19.7504
    659397.83445  -6691714.23144  25575072.6094                   25575062.6604
        31.5004         25.5004
  -8972560.72345  -6957705.85145  24807680.1564                   24807671.3794
        35.5004         32.5004
 -15257982.40747 -12167654.75546  21010110.4144                   21010099.2344
        47.0004         40.2504
 -25922081.65148 -20076295.91349  20929690.4694                   20929680.7544
        51.5004         55.0004
 -17101619.58047 -12362686.40545  22551334.4304                   22551322.4304
        45.2504         35.2504
  -2556375.37545  -1957919.17442  25183281.6724                   25183272.6024
        34.5004         16.2504
 -13449655.95747 -10427942.60947  22793133.7114                   22793122.7664
        43.5004         45.2504
 -12485872.77146  -9487952.19346  23278488.3914                   23278480.6094
        37.7504         36.2504
  -2558551.09445  -2230283.60844  24817459.3984                   24817451.6174
        32.7504         27.5004
 -19206777.83148 -21479164.00249  20529388.7664                   20529379.4614
        52.7504         55.0004
 23  1  8  0 55 30.0000000  0 12G23G24G27G08G22G10G21G12G31G01G25G32
  -4689040.17647  -5466696.80744  23193997.4694                   23193987.5784
        42.0004         29.0004
  -3395939.39145  -3402264.29143  24366666.0864                   24366657.5434
        32.7504         18.2504
                                  25592506.6954                   25592497.8014
        31.7504         22.7504
  -8896995.57845  -6898823.89845  24822059.7114                   24822050.2894
        35.2504         32.5004
 -15297131.74547 -12198160.72446  21002660.5394                   21002649.5354
        47.5004         40.0004
 -25884393.69548 -20046928.67649  20936862.5394                   20936852.7664
        52.2504         54.7504
 -17143893.23047 -12395626.92345  22543289.6484                   22543277.7664
        45.5004         34.5004
  -2616010.66745  -2004388.26142  25171933.0554                   25171924.1604
        34.5004         16.7504
 -13560210.62447 -10514089.10047  22772096.1414                   22772085.0784
        43.0004         45.5004
 -12577413.87946  -9559282.92546  23261068.8754                   23261060.7424
        38.2504         36.5004
  -2638678.95245  -2292720.90044  24802211.9144                   24802204.5434
        33.0004         27.2504
 -19195579.16348 -21470437.76649  20531519.7664                   20531510.6374
        53.7504         55.0004
 23  1  8  0 56  0.0000000  0 12G23G24G27G08G22G10G21G12G31G01G25G32
  -4605019.78647  -5401226.39844  23209986.4614                   23209976.5124
        42.5004         29.5004
  -3291977.44645  -3321254.96143  24386449.5474                   24386441.1804
        33.5004         19.0004
                                  25609921.4224                   25609913.5824
        30.7504         24.2504
  -8821253.20845  -6839803.89645  24836471.9534                   24836464.4654
        34.5004         32.0004
 -15335946.27348 -12228405.79646  20995274.8674                   20995263.4534
        48.0004         39.7504
 -25846374.98548 -20017303.71949  20944096.7274                   20944087.6564
        51.7504         55.0004
 -17185747.14047 -12428240.35945  22535325.2894                   22535313.2894
        45.5004         35.0004
  -2675297.68045  -2050585.86042  25160652.8524                   25160642.7274
        34.5004         16.7504
 -13670534.71347 -10600055.88747  22751102.4304                   22751091.1334
        43.7504         45.7504
 -12668605.60046  -9630341.39746  23243715.6644                   23243707.3554
        38.7504         37.2504
                                  24786995.4224                   24786989.5744
        31.0004         27.7504
 -19184032.81148 -21461440.61049  20533717.4384                   20533707.6054
        53.5004         55.0004
 23  1  8  0 56 30.0000000  0 12G23G24G27G08G22G10G21G12G31G01G25G32
  -4520802.78347  -5335602.80644  23226012.7584                   23226002.2234
        42.7504         29.7504
  -3187758.63845  -3240045.53242  24406281.4304                   24406274.1764
        32.2504         17.2504
    933957.29255  -6477771.72754  25627320.8444                   25627310.4844
        33.7504         24.5004
  -8745335.70245  -6780647.44345  24850917.2344                   24850911.3284
        35.0004         32.2504
 -15374424.60647 -12258388.91046  20987952.6174                   20987941.0864
        47.5004         39.7504
 -25808023.43548 -19987419.40949  20951394.9844                   20951385.9144
        50.7504         55.0004
 -17227178.25047 -12460524.32745  22527440.9844                   22527429.3954
        45.5004         35.0004
  -2734232.30345  -2096508.94442  25149437.2664                   25149427.7854
        35.0004         17.2504
 -13780623.69547 -10685839.49647  22730153.0704                   22730141.4224
        44.0004         46.0004
 -12759443.53146  -9701124.20346  23226430.2894                   23226422.2154
        39.2504         36.7504
  -2798422.05655  -2417195.99654  24771813.2114                   24771806.1334
        32.7504         28.7504
 -19172138.19348 -21452172.07349  20535980.8524                   20535971.0204
        52.5004         54.7504
 23  1  8  0 57  0.0000000  0 12G23G24G27G08G22G10G21G12G31G01G25G32
  -4436388.13847  -5269825.19644  23242075.5634                   23242065.1454
        42.5004         29.7504
  -3083284.35645  -3158636.97843  24426163.5474                   24426153.8914
        34.7504         18.5004
   1025284.59355  -6406607.55854  25644697.4534                   25644688.7344
        33.0004         24.7504
  -8669244.30446  -6721355.44745  24865398.4924                   24865389.8914
        36.5004         32.2504
 -15412565.26648 -12288108.89146  20980694.2894                   20980683.2274
        48.2504         40.2504
 -25769337.15448 -19957274.25949  20958756.9224                   20958747.0904
        52.0004         54.7504
 -17268183.14447 -12492476.21145  22519638.3674                   22519626.4844
        46.0004         35.2504
  -2792809.64745  -2142153.63142  25138289.3054                   25138280.3524
        33.5004         17.2504
 -13890472.93147 -10771436.28547  22709249.1804                   22709238.0594
        44.0004         46.0004
 -12849923.07946  -9771627.74046  23209212.5234                   23209203.5124
        40.0004         37.5004
  -2878027.52445  -2479226.19944  24756664.3674                   24756656.9964
        33.0004         27.2504
 -19159894.61748 -21442631.61949  20538310.5634                   20538301.0234
        53.5004         55.0004
 23  1  8  0 57 30.0000000  0 12G23G24G27G08G22G10G21G12G31G01G25G32
  -4351774.47146  -5203892.49844  23258177.7814                   23258166.7194
        41.5004         29.5004
  -2978555.41645  -3077030.10243  24446091.9924                   24446084.2114
        33.2504         18.2504
                                  25662057.7894                   25662050.2424
        32.0004         25.7504
  -8592979.30245  -6661928.14145  24879909.7194                   24879902.6994
        33.7504         32.5004
 -15450366.27948 -12317564.21146  20973500.8674                   20973489.5124
        48.2504         40.5004
 -25730313.85548 -19926866.50249  20966182.7114                   20966173.3484
        51.7504         54.7504
 -17308758.76347 -12524093.56945  22511916.7504                   22511904.6914
        47.0004         35.5004
  -2851025.10745  -2187516.29242  25127210.5394                   25127201.9384
        32.2504         16.2504
 -14000077.41147 -10856842.35047  22688392.1334                   22688380.8364
        44.2504         46.2504
 -12940039.48046  -9841848.31146  23192063.7734                   23192055.2304
        40.5004         38.5004
  -2957448.64445  -2541112.82344  24741550.8914                   24741543.4024
        31.7504         28.7504
 -19147301.06748 -21432818.46149  20540707.0234                   20540697.7194
        52.5004         54.7504
 23  1  8  0 58  0.0000000  0 12G23G24G27G08G22G10G21G12G31G01G25G32
  -4266970.11147  -5137811.20744  23274315.3284                   23274305.2034
        42.2504         29.5004
  -2873582.56745  -2995233.04043  24466068.7424                   24466058.7934
        35.0004         20.0004
   1207635.28244  -6264515.98543  25679396.3204                   25679389.4184
        29.0004         22.5004
  -8516552.50246  -6602374.81745  24894457.1644                   24894447.6844
        36.7504         33.2504
 -15487835.71347 -12346761.16546  20966370.7974                   20966359.6764
        47.7504         40.5004
 -25690961.27648 -19896202.15649  20973671.0864                   20973661.6644
        51.2504         54.7504
 -17348911.98947 -12555381.80445  22504275.5634                   22504263.9144
        46.0004         35.5004
  -2908883.41245  -2232600.72142  25116201.5784                   25116192.3324
        34.0004         16.7504
 -14109441.93947 -10942061.45547  22667580.9144                   22667569.7934
        44.7504         46.2504
 -13029797.69646  -9911789.75846  23174983.6804                   23174975.3134
        40.2504         39.2504
  -3036690.18245  -2602859.46444  24726470.6094                   24726465.3484
        31.7504         28.5004
 -19134366.31148 -21422739.43249  20543168.3914                   20543158.7344
        52.2504         54.7504
 23  1  8  0 58 30.0000000  0 12G23G24G27G08G22G10G21G12G31G01G25G32
  -4181965.52847  -5071573.90544  23290490.9844                   23290481.4454
        42.5004         29.2504
  -2768358.33145  -2913240.11943  24486090.6954                   24486082.7384
        33.0004         19.2504
                                  25696717.4384                   25696709.0704
        30.5004         22.7504
  -8439956.36945  -6542689.52045  24909031.1884                   24909021.8244
        34.5004         31.7504
 -15524963.54148 -12375691.92746  20959306.0084                   20959294.4184
        48.0004         41.0004
 -25651269.33148 -19865273.38949  20981223.8674                   20981214.9144
        51.5004         55.0004
 -17388631.06647 -12586331.72245  22496717.9064                   22496705.9064
        44.5004         35.2504
  -2966371.92145  -2277396.97042  25105263.3524                   25105252.3484
        35.5004         16.7504
 -14218553.15947 -11027083.15547  22646818.0314                   22646806.3834
        44.5004         46.5004
 -13119184.68646  -9981441.95246  23157974.3284                   23157964.8484
        41.0004         39.0004
  -3115738.43645  -2664455.46845  24711430.6644                   24711423.2344
        34.5004         30.0004
 -19121081.18048 -21412387.38549  20545696.6024                   20545686.8284
        52.0004         54.7504
 23  1  8  0 59  0.0000000  0 12G23G24G27G08G22G10G21G12G31G01G25G32
  -4096769.18147  -5005187.17844  23306703.3134                   23306693.1294
        42.0004         29.0004
  -2662893.62145  -2831059.84343  24506161.7194                   24506152.0634
        35.7504         20.5004
                                  25714017.5554                   25714009.8914
        30.2504         24.5004
  -8363201.49145  -6482880.51345  24923636.6804                   24923628.1374
        35.0004         32.5004
 -15561757.88648 -12404362.83546  20952304.2584                   20952292.4924
        48.0004         40.5004
 -25611245.25048 -19834085.80349  20988840.3204                   20988831.0164
        52.0004         54.7504
 -17427922.62647 -12616948.52145  22489241.1644                   22489228.5784
        46.0004         35.5004
  -3023495.32145  -2321908.69442  25094393.3054                   25094382.4184
        35.7504         17.7504
 -14327415.97847 -11111911.30047  22626101.3834                   22626090.6134
        44.5004         46.5004
 -13208205.50146 -10050808.82246  23141033.8054                   23141025.5554
        40.7504         39.2504
  -3194598.10145  -2725904.57445  24696424.3284                   24696416.7234
        34.0004         30.0004
 -19107454.54348 -21401769.22149  20548289.3444                   20548280.2154
        52.0004         54.7504
 23  1  8  0 59 30.0000000  0 12G23G24G27G08G22G10G21G12G31G01G25G32
  -4011380.32646  -4938650.42744  23322952.1644                   23322942.2154
        41.7504         29.5004
  -2557189.84345  -2748693.22743  24526273.8754                   24526266.3284
        32.5004         19.5004
   1480362.87355  -6052000.92354  25731297.2344                   25731287.6374
        33.7504         25.7504
  -8286289.90645  -6422949.41945  24938272.3674                   24938264.5864
        35.2504         33.2504
 -15598217.42647 -12432772.85946  20945365.8914                   20945354.6524
        47.5004         40.5004
 -25570887.99348 -19802638.60249  20996520.5554                   20996511.3094
        51.0004         54.7504
 -17466783.57647 -12647229.78746  22481846.4774                   22481833.7154
        45.0004         36.0004
  -3080249.76145  -2366132.99742  25083591.8444                   25083582.4804
        32.7504         17.7504
 -14436025.89847 -11196542.39447  22605434.1334                   22605422.8954
        44.5004         46.7504
 -13296855.97246 -10119887.09446  23124164.6644                   23124155.5354
        41.0004         39.7504
  -3273264.59045  -2787203.12544  24681453.4064                   24681445.8014
        33.0004         28.2504
 -19093485.95348 -21390884.61149  20550947.7274                   20550937.8954
        51.5004         54.7504
 23  1  8  1  0  0.0000000  0 12G23G24G27G08G22G10G21G12G31G01G25G32
  -3925796.42746  -4871961.71844  23339238.0084                   23339228.7624
        41.5004         29.7504
  -2451246.77245  -2666140.21943  24546436.5864                   24546427.7504
        34.2504         20.5004
   1571048.29655  -5981336.79553  25748553.4144                   25748545.4574
        30.0004         23.0004
  -8209221.10545  -6362895.81445  24952936.2734                   24952929.9574
        34.5004         32.0004
 -15634339.33247 -12460919.80646  20938492.3444                   20938480.8134
        47.7504         41.2504
 -25530193.73548 -19770928.80449  21004263.9924                   21004254.7464
        50.5004         54.7504
 -17505209.94347 -12677172.40546  22474533.5784                   22474521.8134
        45.0004         36.0004
  -3136629.34045  -2410065.12642  25072863.3754                   25072854.3634
        33.7504         15.5004
 -14544377.02047 -11280971.80047  22584815.4064                   22584804.1094
        45.2504         46.7504
 -13385130.10246 -10188672.12846  23107365.6724                   23107357.5984
        40.0004         39.5004
  -3351731.56245  -2848346.20744  24666521.0554                   24666514.4454
        31.7504         27.0004
 -19079173.33848 -21379731.91449  20553671.1724                   20553661.6334
        52.2504         55.0004
 23  1  8  1  0 30.0000000  0 12G23G24G27G08G22G10G21G12G31G01G25G32
  -3840020.60047  -4805123.45544  23355561.3674                   23355550.2464
        42.0004         29.0004
  -2345069.69145  -2583404.80242  24566639.1564                   24566631.9024
        31.2504         17.7504
    423457.90415                  25765788.430
        31.500
  -8132000.42445  -6302723.87245  24967632.6804                   24967624.1374
        35.5004         32.2504
 -15670126.32348 -12488805.75646  20931682.2274                   20931670.9884
        48.7504         41.0004
 -25489164.82348 -19738958.22949  21012071.6254                   21012062.8484
        52.5004         55.0004
 -17543202.87647 -12706777.28546  22467303.4844                   22467291.8364
        46.2504         36.2504
  -3192633.36345  -2453704.59043  25062205.8594                   25062197.0234
        34.5004         18.2504
 -14652468.61447 -11365198.99647  22564246.1644                   22564234.9844
        44.5004         46.7504
 -13473027.54846 -10257163.64246  23090639.4924                   23090631.5354
        40.2504         40.0004
  -3429998.06045  -2909333.08344  24651628.0474                   24651621.0274
        34.0004         29.0004
 -19064520.14448 -21368313.84049  20556459.4064                   20556450.4534
        52.2504         55.0004
 23  1  8  1  1  0.0000000  0 12G23G24G27G08G22G10G21G12G31G01G25G32
  -3754052.07147  -4738135.01944  23371920.4694                   23371909.8164
        42.0004         27.7504
  -2238660.13145  -2500488.30143  24586888.9924                   24586880.8594
        34.7504         19.7504
    513908.34555  -5868663.01354  25783000.3834                   25782991.8404
        31.5004         25.7504
  -8054629.55946  -6242434.89445  24982356.5234                   24982347.5704
        36.5004         33.5004
 -15705577.27648 -12516429.86546  20924936.1174                   20924924.5864
        49.0004         41.0004
 -25447800.08448 -19706725.97649  21019943.1484                   21019934.0784
        51.0004         54.7504
 -17580759.70347 -12736042.35546  22460157.6254                   22460144.9804
        47.5004         36.5004
  -3248257.50045  -2497048.09342  25051620.8984                   25051611.5944
        35.0004         16.7504
 -14760296.31847 -11449220.56147  22543726.9844                   22543716.3914
        44.7504         47.0004
 -13560544.17346 -10325358.39746  23073985.6564                   23073977.1724
        40.5004         39.7504
  -3508059.50845  -2970160.23444  24636773.7344                   24636766.0124
        34.2504         29.5004
 -19049526.03248 -21356630.11949  20559312.7034                   20559303.3404
        51.5004         54.7504
 23  1  8  1  1 30.0000000  0 12G23G24G27G08G22G10G21G12G31G01G25G32
  -3667892.49247  -4670997.72444  23388316.8364                   23388305.7734
        42.0004         29.2504
  -2132021.89145  -2417393.59943  24607180.7664                   24607174.3914
        32.2504         20.7504
    604237.00744  -5798277.05343  25800188.6094                   25800180.0664
        27.2504         21.0004
  -7977112.84345  -6182032.23845  24997106.3054                   24997098.7584
        35.0004         32.7504
 -15740693.25647 -12543792.96046  20918253.7664                   20918242.2344
        47.5004         41.0004
 -25406100.31548 -19674232.66749  21027878.2034                   21027869.1914
        51.0004         55.0004
 -17617880.11047 -12764967.34946  22453093.2424                   22453081.1844
        45.7504         36.5004
  -3303500.63445  -2540094.65942  25041109.0004                   25041099.0514
        35.5004         17.2504
 -14867858.16747 -11533034.97547  22523258.8834                   22523247.8794
        44.5004         46.7504
 -13647678.08946 -10393254.96746  23057405.0314                   23057396.1374
        40.5004         40.0004
  -3585913.64545  -3030825.79345  24621959.2734                   24621950.7304
        34.5004         30.0004
 -19034192.91848 -21344682.23649  20562230.6414                   20562220.9264
        51.7504         55.0004
 23  1  8  1  2  0.0000000  0 11G23G24G08G22G10G21G12G31G01G25G32
  -3581540.52646  -4603710.51044  23404748.5084                   23404737.9734
        40.7504         29.0004
  -2025156.02645  -2334121.48843  24627518.1804                   24627509.8134
        35.0004         20.0004
  -7899450.98345  -6121516.52045  25011883.6804                   25011877.4224
        33.0004         32.2504
 -15775472.62848 -12570893.75646  20911635.3524                   20911623.9964
        49.0004         41.0004
 -25364063.37748 -19641476.62949  21035877.4454                   21035868.4924
        52.0004         54.7504
 -17654560.60247 -12793549.55146  22446112.8984                   22446101.3674
        46.2504         36.0004
  -3358357.92045  -2582840.55542  25030670.2424                   25030660.4104
        35.5004         16.2504
 -14975149.37147 -11616638.49347  22502842.0314                   22502830.7344
        45.0004         47.0004
 -13734424.59146 -10460849.63246  23040896.7504                   23040888.8524
        39.7504         39.7504
  -3663555.37145  -3091325.81144  24607183.4304                   24607176.9964
        33.5004         29.7504
 -19018519.97148 -21332469.55049  20565213.1804                   20565203.6414
        51.2504         54.7504
 23  1  8  1  2 30.0000000  0 11G23G24G08G22G10G21G12G31G01G25G32
  -3494999.59146  -4536276.04944  23421216.5704                   23421205.8594
        41.5004         29.0004
  -1918067.97445  -2250676.22043  24647895.3284                   24647887.9574
        33.2504         19.2504
  -7821650.32246  -6060892.65845  25026692.5394                   25026682.2384
        37.5004         32.7504
 -15809918.37848 -12597734.59546  20905080.7114                   20905069.2974
        48.5004         41.0004
 -25321691.76148 -19608459.79349  21043941.0164                   21043931.7114
        51.7504         54.7504
 -17690802.91647 -12821790.31646  22439216.3674                   22439204.4844
        47.0004         36.0004
  -3412829.42246  -2625285.84642  25020304.1254                   25020293.7664
        36.0004         16.7504
 -15082169.30247 -11700030.62047  22482476.4304                   22482465.2504
        44.7504         46.5004
 -13820783.65246 -10528142.39846  23024464.2034                   23024454.9574
        40.2504         40.2504
                                  24592449.6724                   24592443.1804
        34.0004         29.5004
 -19002510.91148 -21319994.95749  20568259.2664                   20568249.7274
        51.2504         54.7504
 23  1  8  1  3  0.0000000  0 11G23G24G08G22G10G21G12G31G01G25G32
  -3408269.53346  -4468694.19944  23437721.0394                   23437710.4454
        41.0004         29.0004
  -1810759.81945  -2167059.55643  24668317.1884                   24668308.2934
        35.7504         21.2504
  -7743712.17946  -6000161.64945  25041519.6724                   25041513.2974
        36.0004         33.0004
 -15844029.97447 -12624315.05346  20898589.3364                   20898578.0394
        47.2504         41.0004
 -25278984.80648 -19575181.65949  21052067.4774                   21052058.4654
        51.2504         54.7504
 -17726605.26347 -12849688.24746  22432403.3204                   22432391.6134
        45.0004         36.2504
  -3466911.08245  -2667427.45542  25010011.9844                   25010002.6214
        33.0004         17.2504
 -15188914.26347 -11783208.49547  22462163.3984                   22462152.8634
        44.7504         46.7504
 -13906751.61746 -10595130.42746  23008104.6254                   23008096.2584
        41.0004         40.2504
  -3818195.65346  -3211824.72645  24577756.9224                   24577749.3164
        36.5004         30.5004
 -18986165.95148 -21307258.62449  20571369.5474                   20571360.5944
        51.0004         54.7504
 23  1  8  1  3 30.0000000  0 11G23G24G08G22G10G21G12G31G01G25G32
  -3321350.74246  -4400965.31044  23454260.6804                   23454250.3204
        40.5004         27.7504
  -1703234.19545  -2083273.30943  24688777.0314                   24688769.4264
        34.0004         20.7504
  -7665640.00146  -5939326.20245  25056378.6334                   25056369.9144
        37.0004         33.0004
 -15877807.52048 -12650635.20946  20892161.6724                   20892150.0234
        48.5004         41.2504
 -25235941.64548 -19541641.55649  21060258.6254                   21060249.4384
        52.0004         54.7504
 -17761966.30547 -12877242.31046  22425674.8284                   22425662.1844
        47.5004         36.2504
  -3520600.31346  -2709263.24342  24999796.2584                   24999785.3134
        36.0004         16.7504
 -15295381.11047 -11866169.65847  22441903.8834                   22441892.4694
        45.2504         46.7504
 -13992325.52846 -10661811.37946  22991820.1884                   22991812.0554
        40.2504         40.5004
  -3895186.80445  -3271817.80744  24563106.3754                   24563098.2424
        33.5004         28.5004
 -18969485.85448 -21294261.14649  20574543.9534                   20574534.6484
        51.0004         54.7504
 23  1  8  1  4  0.0000000  0 11G23G24G08G22G10G21G12G31G01G25G32
  -3234243.69146  -4333089.72644  23470836.8984                   23470826.8324
        41.2504         27.7504
  -1595493.74946  -1999319.74743  24709281.2974                   24709271.8164
        36.0004         21.2504
  -7587435.94646  -5878387.91745  25071261.3444                   25071251.3364
        36.7504         33.0004
 -15911251.03848 -12676695.08646  20885797.9304                   20885786.3404
        48.7504         41.0004
 -25192562.57248 -19507839.69549  21068513.0474                   21068504.2114
        51.0004         54.7504
 -17796884.15947 -12904451.04346  22419030.2814                   22419017.6954
        47.2504         36.5004
  -3573894.18045  -2750790.93542  24989654.6804                   24989644.8484
        35.7504         17.7504
 -15401566.65247 -11948911.62747  22421697.0314                   22421686.3204
        44.7504         46.7504
 -14077502.34046 -10728182.92546  22975613.0474                   22975603.4494
        41.2504         40.5004
  -3971953.89555  -3331636.26854  24548497.0704                   24548490.1684
        33.7504         29.5004
 -18952471.43748 -21281003.15449  20577781.1884                   20577772.2344
        50.5004         55.0004
 23  1  8  1  4 30.0000000  0 11G23G24G08G22G10G21G12G31G01G25G32
  -3146949.08946  -4265067.98544  23487448.2894                   23487437.5204
        41.2504         27.0004
  -1487541.30745  -1915200.99243  24729823.0784                   24729814.2424
        34.5004         20.0004
  -7509103.38745  -5817349.59845  25086164.3364                   25086158.3134
        34.5004         33.0004
 -15944360.82448 -12702494.91846  20879497.4774                   20879485.8874
        48.7504         41.0004
 -25148847.03048 -19473775.64349  21076832.2894                   21076823.3954
        51.7504         54.7504
 -17831357.75147 -12931313.59146  22412469.8834                   22412457.5904
        46.0004         36.0004
  -3626790.13946  -2792008.48543  24979589.9454                   24979578.8834
        37.0004         18.5004
 -15507468.05347 -12031432.17047  22401545.1254                   22401533.5944
        45.2504         47.0004
 -14162279.33946 -10794242.91646  22959479.3834                   22959470.7814
        41.2504         40.2504
  -4048493.66845  -3391277.63945  24533933.6334                   24533925.5004
        35.2504         30.7504
 -18935123.80748 -21267485.52449  20581082.4774                   20581073.1724
        50.7504         55.0004
 23  1  8  1  5  0.0000000  0 11G23G24G08G22G10G21G12G31G01G25G32
  -3059467.70246  -4196900.68944  23504095.8834                   23504085.5234
        41.2504         27.7504
  -1379379.86945  -1830919.35043  24750406.0784                   24750397.0084
        33.5004         20.0004
  -7430645.55145  -5756213.65845  25101095.2424                   25101088.5744
        35.5004         31.5004
 -15977137.24848 -12728034.97346  20873259.5234                   20873248.3444
        49.0004         41.0004
 -25104795.27848 -19439449.62949  21085215.0784                   21085205.6564
        51.0004         54.7504
 -17865385.97647 -12957829.09146  22405994.0004                   22405982.1764
        46.2504         36.5004
  -3679285.48746  -2832913.96143  24969599.8914                   24969589.8244
        36.5004         19.2504
 -15613082.04047 -12113728.77047  22381446.5004                   22381435.9064
        44.5004         47.0004
 -14246653.85946 -10859989.28946  22943423.9224                   22943415.0274
        41.5004         41.0004
  -4124803.17745  -3450739.59145  24519411.2894                   24519403.3324
        35.0004         30.5004
 -18917444.06948 -21253709.11249  20584447.0474                   20584438.0354
        50.2504         55.2504
 23  1  8  1  5 30.0000000  0 11G23G24G08G22G10G21G12G31G01G25G32
  -2971799.85446  -4128588.12144  23520778.2734                   23520768.0904
        40.2504         27.5004
  -1271011.95445  -1746476.80043  24771027.0234                   24771019.5354
        34.0004         20.2504
  -7352064.59445  -5694981.70945  25116050.0864                   25116041.4264
        34.5004         31.0004
 -16009580.14447 -12753315.14746  20867085.8754                   20867074.7544
        47.2504         41.2504
 -25060406.91748 -19404861.29749  21093662.0634                   21093652.7584
        51.2504         54.7504
 -17898967.53047 -12983996.54746  22399604.7734                   22399591.7774
        47.0004         36.7504
  -3731377.64345  -2873505.20442  24959686.2894                   24959677.2774
        34.0004         17.7504
 -15718405.73547 -12195799.15447  22361404.8284                   22361393.7664
        45.2504         47.2504
 -14330622.82046 -10925419.64546  22927444.8054                   22927436.0274
        41.2504         41.0004
  -4200878.66245  -3510019.17044  24504934.8754                   24504926.6254
        35.5004         29.5004
 -18899432.89348 -21239674.42849  20587874.6174                   20587865.0204
        51.5004         55.0004
 23  1  8  1  6  0.0000000  0 11G23G24G08G22G10G21G12G31G01G25G32
  -2883946.59946  -4060131.08344  23537496.2974                   23537485.8204
        41.0004         27.5004
  -9039540.59055  -7799875.78453  24791687.4064                   24791679.2734
        33.5004         19.2504
  -7273363.79245  -5633656.41845  25131024.2504                   25131017.9924
        33.7504         32.2504
 -16041690.22748 -12778335.97646  20860975.9454                   20860964.2384
        48.5004         41.2504
 -25015682.26148 -19370010.94049  21102172.7584                   21102163.2194
        50.5004         54.7504
 -17932101.87647 -13009815.53746  22393299.4534                   22393287.0434
        46.5004         36.7504
  -3783064.06045  -2913780.28742  24949849.7664                   24949841.8094
        33.0004         17.2504
 -15823436.10847 -12277640.97547  22341418.1954                   22341407.1914
        45.5004         47.5004
 -14414183.78447 -10990532.08546  22911544.0944                   22911535.2584
        42.7504         41.5004
  -4276717.35445  -3569114.22445  24490503.2974                   24490494.8714
        35.0004         30.0004
 -18881091.70948 -21225382.58449  20591364.6254                   20591355.6724
        50.5004         54.7504
 23  1  8  1  6 30.0000000  0 11G23G24G08G22G10G21G12G31G01G25G32
  -2795908.29546  -3991529.83844  23554249.0314                   23554239.1994
        41.0004         28.0004
  -8930768.38745  -7715118.17443  24812386.2974                   24812377.5784
        34.0004         19.5004
  -7194546.66745  -5572240.56045  25146022.8754                   25146016.3834
        34.2504         30.5004
 -16073467.41147 -12803097.41446  20854928.7114                   20854917.1804
        47.5004         41.0004
 -24970620.76148 -19334898.10249  21110747.3754                   21110738.4224
        50.5004         55.0004
 -17964787.58047 -13035284.91346  22387078.6174                   22387067.2624
        45.0004         36.7504
  -3834341.57345  -2953736.77842  24940092.7664                   24940083.6374
        34.0004         17.7504
 -15928170.21047 -12359251.93547  22321487.7194                   22321476.5984
        46.5004         47.7504
 -14497333.70046 -11055324.21346  22895720.4304                   22895712.2974
        41.5004         41.5004
  -4352315.72045  -3628022.02845  24476117.4614                   24476110.0904
        34.7504         31.7504
 -18862421.20048 -21210834.14549  20594917.5864                   20594908.4574
        50.2504         55.0004
 23  1  8  1  7  0.0000000  0 11G23G24G08G22G10G21G12G31G01G25G32
  -2707683.83646  -3922783.54844  23571038.7424                   23571027.7974
        41.7504         27.7504
                                  24833121.2194                   24833114.3164
        32.5004         18.2504
  -7115613.84545  -5510734.44745  25161044.4384                   25161036.7154
        34.7504         32.2504
 -16104910.26647 -12827598.33546  20848945.3444                   20848934.2234
        47.0004         41.0004
 -24925220.63248 -19299521.39249  21119386.7974                   21119377.5514
        50.0004         54.7504
 -17997021.50747 -13060402.25746  22380944.8674                   22380933.0434
        45.0004         37.0004
  -3885205.70846  -2993371.18343  24930414.6804                   24930403.9104
        36.5004         19.0004
 -16032603.22747 -12440628.28548  22301614.6724                   22301603.9024
        46.0004         48.0004
 -14580068.00447 -11119792.50347  22879977.2274                   22879968.0394
        42.5004         42.0004
  -4427668.61045  -3686738.55745  24461778.4224                   24461770.8164
        35.0004         32.0004
 -18843420.63248 -21196028.50649  20598532.9384                   20598523.9844
        50.0004         55.0004
 23  1  8  1  7 30.0000000  0 11G23G24G08G22G10G21G12G31G01G25G32
  -2619280.32446  -3853897.73144  23587859.9614                   23587850.3634
        41.0004         27.2504
  -8712633.82145  -7545143.18843  24853895.8444                   24853887.0084
        34.0004         19.7504
  -7036574.48045  -5449145.33345  25176085.6884                   25176077.7304
        35.2504         31.2504
 -16136025.41347 -12851843.89646  20843024.4614                   20843013.1054
        47.5004         41.0004
 -24879488.13048 -19263885.70149  21128089.7034                   21128080.6334
        52.0004         54.7504
 -18028808.42847 -13085171.29646  22374896.2274                   22374884.2854
        46.5004         36.5004
  -3935660.38046  -3032686.46643  24920813.2344                   24920802.4654
        36.0004         18.5004
 -16136738.29347 -12521772.47048  22281799.0314                   22281787.3834
        45.7504         48.0004
 -14662390.41146 -11183939.83346  22864311.2274                   22864303.4454
        41.2504         41.5004
  -4502779.28645  -3745266.33645  24447484.6954                   24447477.7934
        34.0004         31.2504
 -18824097.44448 -21180971.47949  20602210.5084                   20602201.3204
        52.0004         54.7504
 23  1  8  1  8  0.0000000  0 11G23G24G08G22G10G21G12G31G01G25G32
  -2530691.07746  -3784867.18744  23604718.2734                   23604708.0904
        41.0004         26.5004
  -8603276.00055  -7459929.33753  24874704.8754                   24874697.3874
        32.2504         19.7504
  -6957424.42455  -5387469.94255  25191146.8524                   25191138.8954
        34.5004         30.7504
 -16166806.15748 -12875828.88746  20837166.8914                   20837156.0044
        48.0004         41.0004
 -24833415.76948 -19227985.17549  21136857.0864                   21136847.7814
        52.0004         55.0004
 -18060140.45547 -13109585.86346  22368933.9534                   22368921.8954
        46.0004         37.0004
  -3985695.72445  -3071674.98842  24911291.2274                   24911280.5164
        35.0004         17.7504
 -16240565.31947 -12602676.61748  22262040.6254                   22262029.6804
        45.5004         48.0004
 -14744290.80246 -11247758.29946  22848725.8754                   22848717.7424
        41.5004         41.7504
  -4577637.08445  -3803597.07245  24433239.3134                   24433231.9414
        34.5004         30.7504
 -18804445.30448 -21165658.12949  20605950.2734                   20605940.9694
        52.2504         54.7504
 23  1  8  1  8 30.0000000  0 11G23G24G08G22G10G21G12G31G01G25G32
  -2441920.24746  -3715695.14344  23621611.5004                   23621600.3794
        40.2504         26.7504
  -8493729.21345  -7374568.19743  24895552.9064                   24895543.8364
        33.0004         19.5004
  -6878170.16145  -5325713.37545  25206227.9774                   25206220.4304
        33.5004         31.0004
 -16197256.11148 -12899556.11346  20831372.3914                   20831361.1524
        48.0004         41.5004
 -24787007.26648 -19191822.72649  21145687.7814                   21145678.9454
        51.0004         54.7504
 -18091020.60247 -13133648.32046  22363057.9384                   22363045.4104
        46.7504         36.7504
  -4035312.65745  -3110337.56142  24901850.1094                   24901838.8134
        35.7504         16.7504
 -16344084.72447 -12683341.06848  22242341.7344                   22242330.8484
        46.2504         48.0004
 -14825769.83346 -11311248.45746  22833221.7424                   22833212.4384
        41.7504         41.2504
  -4652242.23745  -3861730.92544  24419041.9384                   24419035.3284
        33.7504         29.5004
 -18784468.67948 -21150091.92349  20609751.7424                   20609742.3204
        52.0004         54.7504
 23  1  8  1  9  0.0000000  0 11G23G24G08G22G10G21G12G31G01G25G32
  -2352969.32346  -3646382.77044  23638537.6334                   23638527.5084
        39.5004         27.2504
  -8383997.10545  -7289062.67443  24916431.7194                   24916424.9924
        32.0004         18.2504
  -6798815.60345  -5263878.62445  25221326.0164                   25221321.4614
        30.2504         30.0004
 -16227376.37448 -12923026.43946  20825640.6954                   20825629.4574
        48.2504         41.2504
 -24740263.18548 -19155398.78149  21154582.9304                   21154574.2704
        51.0004         54.7504
 -18121447.44147 -13157357.54646  22357268.3444                   22357255.7584
        46.5004         36.5004
  -4084509.10545  -3148672.44242  24892488.2504                   24892476.2504
        35.7504         17.7504
 -16447294.21447 -12763764.01148  22222702.3364                   22222690.6294
        46.0004         48.2504
 -14906825.63846 -11374408.80946  22817796.4064                   22817788.9184
        41.2504         41.5004
  -4726592.29945  -3919666.01645  24404894.7274                   24404886.8284
        35.0004         30.7504
 -18764169.39248 -21134274.30249  20613614.4844                   20613605.4144
        53.2504         55.0004
 23  1  8  1  9 30.0000000  0 11G23G24G08G22G10G21G12G31G01G25G32
  -2263836.04946  -3576928.33144  23655499.3444                   23655489.2194
        40.7504         27.5004
  -8274079.43655  -7203412.57253  24937349.8984                   24937341.4144
        32.7504         18.5004
                                  25236448.4144                   25236440.9844
        33.2504         30.7504
 -16257164.26348 -12946237.77746  20819972.7194                   20819961.1294
        48.5004         41.0004
 -24693180.71148 -19118711.16349  21163542.5784                   21163533.4494
        50.7504         54.7504
 -18151417.36347 -13180710.72946  22351564.7114                   22351552.3014
        46.7504         36.7504
  -4133280.07245  -3186675.78742  24883206.9224                   24883196.2114
        35.2504         16.2504
 -16550188.07047 -12843941.02048  22203122.2194                   22203110.3364
        46.0004         48.2504
 -14987452.54646 -11437234.97046  22802454.2114                   22802445.1994
        41.5004         41.5004
  -4800681.15645  -3977397.59545  24390796.3054                   24390788.2304
        35.0004         30.7504
 -18743545.56548 -21118203.78749  20617539.0474                   20617529.7424
        52.2504         55.0004
 23  1  8  1 10  0.0000000  0 11G23G24G08G22G10G21G12G31G01G25G32
  -2174523.91246  -3507334.50544  23672495.3674                   23672484.4804
        39.7504         26.0004
  -8163981.90055  -7117622.26753  24958300.7504                   24958292.3834
        33.5004         20.2504
  -6639810.44145  -5139978.60545  25251588.6094                   25251578.3094
        35.0004         30.5004
 -16286622.95448 -12969192.59246  20814366.8054                   20814355.2154
        48.2504         41.0004
 -24645762.10848 -19081761.62149  21172566.1724                   21172556.9264
        50.5004         54.7504
 -18180932.51347 -13203709.55346  22345948.3674                   22345935.7814
        47.0004         36.5004
  -4181625.32346  -3224347.32542  24874007.9614                   24873996.7814
        37.0004         17.7504
 -16652766.13747 -12923871.96348  22183601.2344                   22183590.8754
        46.5004         48.2504
 -15067650.60346 -11499726.96446  22787192.9924                   22787184.5084
        41.5004         41.5004
  -4874508.24845  -4034925.18945  24376747.6804                   24376740.5434
        34.5004         31.5004
 -18722600.98848 -21101883.33849  20621524.2194                   20621515.2664
        51.0004         55.0004
 23  1  8  1 10 30.0000000  0 11G23G24G08G22G10G21G12G31G01G25G32
  -2085031.86646  -3437600.48044  23689524.5784                   23689514.8054
        39.5004         27.5004
  -8053705.25245  -7031692.47142  24979284.9844                   24979277.3204
        32.2504         17.7504
  -6560166.98745  -5077918.76445  25266744.2974                   25266734.8754
        35.7504         31.5004
 -16315751.04448 -12991889.79446  20808823.9454                   20808812.4144
        48.0004         41.0004
 -24598006.14748 -19044549.19949  21181653.4924                   21181644.3634
        50.2504         54.7504
 -18209989.95647 -13226351.72146  22340418.5864                   22340406.4694
        46.7504         37.5004
  -4229540.69345  -3261684.00343  24864889.0864                   24864879.6644
        35.2504         18.2504
 -16755023.76347 -13003553.20348  22164142.9384                   22164131.5824
        47.0004         48.5004
 -15147415.31747 -11561881.26246  22772014.3134                   22772006.0044
        42.0004         41.7504
  -4948068.63045  -4092244.95345  24362749.5864                   24362741.9804
        33.7504         30.5004
 -18701334.94348 -21085312.40549  20625571.6484                   20625562.4024
        52.2504         55.0004
 23  1  8  1 11  0.0000000  0 11G23G24G08G22G10G21G12G31G01G25G32
  -1995361.43646  -3367727.44944  23706588.0314                   23706578.6684
        38.5004         27.0004
  -7943253.15845  -6945625.84843  25000304.0554                   25000295.5704
        34.0004         19.5004
  -6480433.98645  -5015789.09245  25281916.2344                   25281906.5204
        34.7504         30.0004
 -16344549.54347 -13014330.17846  20803343.4614                   20803332.2814
        47.0004         41.2504
 -24549913.35848 -19007074.31549  21190805.6334                   21190796.1524
        49.2504         54.7504
 -18238589.17247 -13248636.82246  22334975.9304                   22334964.0474
        46.5004         37.5004
  -4277024.93446  -3298684.67243  24855852.4924                   24855843.5984
        36.5004         19.0004
 -16856958.59247 -13082982.92648  22144744.7734                   22144734.0044
        46.5004         48.5004
 -15226744.83147 -11623696.48146  22756918.2344                   22756909.2814
        42.2504         41.7504
  -5021359.90545  -4149355.03544  24348801.1484                   24348793.7194
        33.5004         29.2504
 -18679749.28148 -21068492.41649  20629678.9774                   20629669.4964
        52.5004         54.7504
 23  1  8  1 11 30.0000000  0 11G23G24G08G22G10G21G12G31G01G25G32
  -1905510.65446  -3297713.91344  23723686.9224                   23723676.5044
        39.5004         27.0004
                                  25021356.4924                   25021347.8324
        31.7504         17.2504
  -6400611.35555  -4953589.63955  25297106.5944                   25297096.4104
        35.5004         30.5004
 -16373016.03047 -13036511.85046  20797926.2034                   20797915.0234
        47.7504         41.2504
 -24501481.08348 -18969334.89249  21200021.3674                   21200012.7664
        50.2504         54.7504
 -18266726.57947 -13270562.07446  22329622.1024                   22329609.9264
        46.7504         37.0004
  -4324072.49846  -3335345.07943  24846900.5704                   24846891.3834
        36.7504         19.2504
 -16958565.23347 -13162156.91448  22125410.1334                   22125399.0124
        46.0004         48.5004
 -15305633.76747 -11685168.37547  22741906.1254                   22741898.0514
        42.0004         42.0004
  -5094376.10645  -4206250.76445  24334908.4774                   24334899.6414
        34.2504         30.2504
 -18657842.35948 -21051422.08349  20633847.9304                   20633838.5084
        53.0004         54.7504
 23  1  8  1 12  0.0000000  0 11G23G24G08G22G10G21G12G31G01G25G32
  -1815487.48346  -3227566.02644  23740817.6094                   23740807.3674
        39.2504         25.5004
  -7721833.15645  -6773090.87843  25042439.5394                   25042430.0594
        33.0004         19.0004
  -6320709.40245  -4891328.34945  25312310.5784                   25312302.1524
        35.0004         31.5004
 -16401158.36748 -13058440.93646  20792571.0944                   20792559.5634
        48.0004         41.5004
 -24452716.45148 -18931336.49549  21209301.2034                   21209292.3094
        50.2504         54.5004
 -18294408.36847 -13292132.29546  22324353.8914                   22324342.0664
        46.5004         37.2504
  -4370687.82246  -3371668.68543  24838030.0944                   24838020.2624
        36.7504         20.2504
 -17059847.79047 -13241078.37148  22106136.6094                   22106125.4304
        45.2504         48.5004
 -15384086.63547 -11746300.48846  22726977.1334                   22726968.8244
        42.0004         41.7504
  -5167121.33745  -4262935.32645  24321064.2814                   24321057.4964
        34.0004         30.7504
 -18635622.47248 -21034107.89349  20638076.3754                   20638067.0124
        53.5004         55.0004
 23  1  8  1 12 30.0000000  0 11G23G24G08G22G10G21G12G31G01G25G32
  -1725285.07646  -3157278.46544  23757982.5084                   23757971.9144
        39.2504         26.2504
  -7610870.23245  -6686626.23243  25063554.1954                   25063545.7114
        32.7504         19.5004
  -6240723.37855  -4829001.60155  25327530.9304                   25327522.0354
        33.2504         30.5004
 -16428969.43047 -13080111.89246  20787278.9844                   20787267.6294
        47.2504         41.5004
 -24403612.12148 -18893073.39249  21218645.5704                   21218636.6174
        50.0004         54.7504
 -18321626.28247 -13313341.06346  22319175.1564                   22319162.7464
        47.0004         37.0004
  -4416861.17046  -3407647.87043  24829245.0704                   24829233.8914
        37.0004         19.7504
 -17160795.68347 -13319739.04248  22086926.4844                   22086915.4224
        46.2504         48.5004
 -15462093.27946 -11807084.86346  22712132.4694                   22712123.8674
        41.7504         41.0004
  -5239584.75145  -4319400.30045  24307275.1954                   24307267.8834
        34.0004         31.2504
 -18613083.06148 -21016544.71249  20642365.2734                   20642356.0864
        53.5004         54.7504
 23  1  8  1 13  0.0000000  0 11G23G24G08G22G10G21G12G31G01G25G32
  -1634908.20046  -3086854.99044  23775181.0634                   23775170.8204
        38.5004         26.0004
  -7499743.95045  -6600034.35342  25084700.6954                   25084692.9734
        30.7504         17.2504
  -6160660.16545  -4766614.66045  25342763.6564                   25342758.6914
        32.7504         30.7504
 -16456453.52247 -13101528.05146  20782048.6174                   20782037.3794
        46.7504         41.5004
 -24354172.13548 -18854548.74849  21228053.5944                   21228044.5824
        49.5004         54.5004
 -18348383.57147 -13334190.90046  22314083.0474                   22314070.6954
        45.5004         37.0004
  -4462594.07446  -3443283.92143  24820541.6724                   24820531.5474
        36.7504         19.7504
 -17261410.24947 -13398139.97848  22067780.1174                   22067769.1724
        45.5004         48.7504
 -15539654.97247 -11867522.55347  22697374.6564                   22697364.8834
        42.7504         42.5004
  -5311767.16845  -4375646.37745  24293539.7894                   24293531.8324
        34.7504         31.7504
 -18590229.26948 -20998736.56449  20646714.1644                   20646704.8014
        53.0004         54.7504
 23  1  8  1 13 30.0000000  0 11G23G24G08G22G10G21G12G31G01G25G32
  -1544356.09546  -3016294.97144  23792412.7584                   23792401.9304
        39.5004         25.5004
  -7388455.33345  -6513315.99643  25105879.5704                   25105870.3834
        32.2504         18.2504
  -7655941.56255  -5931768.98755  25358016.0554                   25358006.8094
        34.0004         30.7504
 -16483609.35047 -13122688.43547  20776881.1484                   20776869.9694
        47.2504         42.0004
 -24304394.63148 -18815761.09549  21237526.0864                   21237517.2504
        49.0004         54.5004
 -18374677.33947 -13354679.55646  22309079.7034                   22309067.2934
        46.0004         36.7504
  -4507882.67145  -3478573.67443  24811921.8594                   24811912.3794
        34.5004         18.5004
 -17361686.75447 -13476277.48648  22048699.0784                   22048687.0784
        46.2504         49.0004
 -15616767.58946 -11927610.29746  22682699.1414                   22682691.0664
        40.7504         41.5004
  -5383663.96945  -4431669.87045  24279857.4304                   24279849.2384
        34.0004         30.5004
 -18567060.52948 -20980683.01749  20651123.0784                   20651113.7734
        52.7504         55.0004
 23  1  8  1 14  0.0000000  0 11G23G24G08G22G10G21G12G31G01G25G32
  -1453629.51146  -2945598.95744  23809677.0474                   23809667.2154
        39.0004         26.0004
  -7277007.35845  -6426473.39143  25127085.9774                   25127077.8444
        32.2504         18.2504
  -7575729.95245  -5869266.41345  25373279.8444                   25373271.6524
        33.5004         30.2504
 -16510437.54947 -13143593.51646  20771775.9924                   20771764.4614
        47.5004         41.7504
 -24254279.89748 -18776710.67349  21247062.6804                   21247053.6094
        49.0004         54.5004
 -18400506.95547 -13374806.53046  22304163.8834                   22304151.8244
        47.2504         37.2504
  -4552724.26545  -3513515.18243  24803388.8284                   24803379.6414
        34.7504         20.2504
 -17461622.41247 -13554149.41048  22029682.4224                   22029669.9534
        46.5004         49.0004
 -15693428.44247 -11987346.03546  22668112.3364                   22668102.3284
        43.0004         41.7504
  -5455271.80645  -4487468.17044  24266230.1254                   24266223.1644
        32.2504         29.7504
 -18543577.91548 -20962384.87849  20655591.8674                   20655582.3874
        53.2504         55.0004
 23  1  8  1 14 30.0000000  0 11G23G24G08G22G10G21G12G31G01G25G32
  -1362727.64746  -2874766.37844  23826975.0004                   23826965.1684
        38.5004         25.0004
  -8740821.06455  -7567107.46252  25148324.1884                   25148316.4654
        31.0004         14.7504
                                  25388556.8204                   25388548.4534
        34.2504         31.5004
 -16536936.75947 -13164242.24347  20766733.4064                   20766722.2274
        47.5004         42.0004
 -24203826.42248 -18737396.30449  21256663.3984                   21256654.3874
        49.2504         54.2504
 -18425870.15047 -13394570.06446  22299337.6884                   22299325.8634
        47.2504         37.5004
  -4597114.81445  -3548105.18043  24794940.8054                   24794931.9104
        35.2504         19.0004
 -17561212.95947 -13631752.41348  22010730.2274                   22010719.0474
        46.0004         49.5004
 -15769633.43246 -12046726.54347  22653609.6804                   22653601.4884
        41.5004         42.0004
  -5526585.98045  -4543037.63545  24252659.7734                   24252653.9844
        33.7504         32.5004
 -18519780.97848 -20943841.81449  20660120.3594                   20660110.7034
        53.5004         54.7504
 23  1  8  1 15  0.0000000  0 11G23G24G08G22G10G21G12G31G01G25G32
  -1271657.01846  -2803802.30844  23844305.1094                   23844295.2194
        38.5004         25.5004
  -8629064.75954  -7480024.63752  25169590.9144                   25169583.6604
        29.5004         16.7504
  -7415106.11445  -5753028.89345  25403847.1174                   25403839.5704
        34.5004         31.7504
 -16563113.23048 -13184639.48647  20761752.0474                   20761740.9264
        48.0004         42.5004
 -24153040.11248 -18697822.57249  21266327.8204                   21266319.2774
        49.5004         54.2504
 -18450771.38247 -13413973.62746  22294599.0084                   22294587.0084
        47.5004         38.0004
  -4641058.12545  -3582346.67943  24786578.4924                   24786569.4224
        35.0004         18.2504
 -17660461.12347 -13709088.62148  21991843.7194                   21991832.0704
        46.0004         49.5004
 -15845385.67346 -12105754.26047  22639195.0164                   22639186.4734
        41.2504         42.0004
  -5597609.13645  -4598380.36345  24239145.8674                   24239139.0234
        34.5004         32.7504
 -18495676.52648 -20925059.12649  20664706.9614                   20664697.5394
        52.5004         54.7504
 23  1  8  1 15 30.0000000  0 11G23G24G08G22G10G21G12G31G01G25G32
  -1180412.18146  -2732702.50144  23861668.9774                   23861658.7934
        39.0004         24.5004
  -8517155.14955  -7392822.39353  25190886.2814                   25190878.8524
        32.0004         18.5004
  -7334695.40556  -5690371.19055  25419149.3914                   25419138.7974
        36.7504         30.5004
 -16588961.04648 -13204780.63747  20756833.4534                   20756822.1564
        48.2504         42.2504
 -24101914.45448 -18657984.40849  21276056.8054                   21276047.6174
        48.7504         54.2504
 -18475203.57547 -13433011.70246  22289950.2114                   22289937.8014
        47.5004         37.0004
  -4684545.52646  -3616232.97143  24778306.3524                   24778294.5864
        36.7504         18.5004
 -17759357.95147 -13786151.06448  21973023.9844                   21973012.8634
        45.5004         49.5004
 -15920676.34046 -12164422.32546  22624866.8364                   22624858.2934
        41.5004         41.5004
  -5668331.82245  -4653488.97045  24225687.6804                   24225680.0164
        34.5004         31.2504
 -18471259.35248 -20906032.76349  20669353.5784                   20669344.1564
        52.7504         55.0004
 23  1  8  1 16  0.0000000  0 11G23G24G08G22G10G21G12G31G01G25G32
  -1088997.04846  -2661469.99544  23879064.6254                   23879054.2074
        39.0004         24.5004
  -8405098.06255  -7305505.25753  25212210.3284                   25212202.3714
        31.5004         18.5004
  -7254224.53156  -5627666.60855  25434465.3054                   25434455.9414
        38.0004         33.5004
 -16614483.90847 -13224668.57447  20751976.4694                   20751965.2304
        47.2504         42.0004
 -24050452.95748 -18617884.55349  21285849.6724                   21285840.3094
        49.5004         54.0004
 -18499169.37847 -13451686.36146  22285389.0634                   22285377.2974
        47.5004         37.7504
  -4727577.68145  -3649764.50043  24770114.5164                   24770104.5664
        35.5004         18.5004
 -17857903.68247 -13862939.92248  21954271.9694                   21954260.1454
        46.5004         49.5004
 -15995505.92647 -12222731.08747  22610628.5314                   22610619.8714
        42.0004         42.0004
  -5738754.03745  -4708363.40345  24212286.7274                   24212279.2974
        34.0004         31.0004
 -18446533.68248 -20886766.01549  20674058.3594                   20674049.2894
        52.5004         54.7504
 23  1  8  1 16 30.0000000  0 11G23G24G08G22G10G21G12G31G01G25G32
   -997413.09346  -2590105.92944  23896492.7194                   23896482.9454
        39.0004         25.5004
  -8292896.82245  -7218075.71343  25233562.0234                   25233553.6564
        32.5004         18.5004
  -7173697.70755  -5564918.38055  25449782.6414                   25449777.4384
        32.0004         30.5004
 -16639683.09047 -13244304.30346  20747181.5704                   20747170.0394
        47.0004         41.7504
 -23998656.18948 -18577523.44849  21295706.1094                   21295697.2734
        49.2504         54.0004
 -18522668.50347 -13469997.36646  22280918.1484                   22280905.5044
        46.2504         37.0004
  -4770152.74546  -3682939.80842  24762013.9844                   24762002.3954
        36.0004         17.7504
 -17956095.96647 -13939453.36548  21935586.2504                   21935574.3094
        46.5004         49.5004
 -16069872.50246 -12280679.08247  22596476.0234                   22596467.8914
        41.5004         42.0004
  -5808873.26545  -4763001.74445  24198941.8524                   24198936.4144
        33.5004         31.2504
 -18421501.27948 -20867260.25449  20678822.0634                   20678812.4654
        53.5004         55.0004
 23  1  8  1 17  0.0000000  0 11G23G24G08G22G10G21G12G31G01G25G32
   -905653.13546  -2518604.69943  23913953.1414                   23913943.4264
        38.7504         23.7504
                                  25254941.6024                   25254933.2934
        30.2504         15.5004
  -7093109.91846  -5502122.70345  25465122.6024                   25465110.9534
        36.0004         30.7504
 -16664550.99848 -13263681.88647  20742449.5314                   20742437.8834
        48.0004         42.0004
 -23946516.47248 -18536895.10749  21305628.4454                   21305619.2584
        49.7504         54.0004
 -18545692.08247 -13487937.81946  22276536.9534                   22276524.8954
        47.0004         37.2504
  -4812261.02146  -3715751.42142  24754002.2114                   24753989.4494
        36.2504         16.7504
 -18053924.44347 -14015683.32248  21916970.0944                   21916959.0904
        46.5004         49.5004
 -16143765.63047 -12338258.13146  22582414.1954                   22582406.1804
        42.0004         41.5004
  -5878678.45945  -4817395.39845  24185660.2664                   24185651.9574
        34.5004         32.7504
 -18396155.21048 -20847510.08249  20683645.5004                   20683635.7854
        53.0004         54.7504
 23  1  8  1 17 30.0000000  0 11G23G24G08G22G10G21G12G31G01G25G32
   -813729.33346  -2446975.80944  23931445.9614                   23931436.1884
        38.2504         26.2504
                                  25276346.5634                   25276340.0124
        27.2504         15.5004
  -7012475.00145  -5439290.26045  25480464.5944                   25480457.6334
        31.7504         32.5004
 -16689099.07248 -13282810.24847  20737777.7424                   20737766.6804
        48.0004         42.0004
 -23894045.36648 -18496008.56049  21315613.7344                   21315604.4304
        50.0004         54.0004
 -18568251.00647 -13505516.21246  22272243.4924                   22272231.3754
        47.5004         37.5004
  -4853911.25546  -3748206.15543  24746075.7974                   24746063.6214
        36.0004         18.5004
 -18151396.91647 -14091635.86748  21898421.3444                   21898410.3984
        46.2504         49.5004
 -16217194.10247 -12395475.13046  22568442.3754                   22568433.4224
        42.5004         41.7504
  -5948177.81445  -4871550.71645  24172434.4694                   24172427.3324
        35.2504         32.2504
 -18370507.96948 -20827525.22349  20688525.9924                   20688516.3954
        53.0004         54.7504
 23  1  8  1 18  0.0000000  0 10G23G08G22G10G21G12G31G01G25G32
   -721636.83946  -2375215.51244  23948971.1094                   23948961.1024
        39.0004         25.0004
  -6931790.21845  -5376418.99644  25495816.5554                   25495810.0634
        30.5004         29.0004
 -16713322.05047 -13301685.29247  20733168.4614                   20733157.1644
        47.2504         42.0004
 -23841237.06248 -18454859.25048  21325662.3134                   21325653.3014
        49.0004         53.7504
 -18590338.69047 -13522727.39246  22268040.4304                   22268028.3134
        45.5004         37.7504
  -4895095.51046  -3780297.72543  24738238.6804                   24738226.6804
        36.5004         19.0004
 -18248505.07147 -14167304.54748  21879942.2344                   21879931.1724
        46.0004         49.7504
 -16290149.63547 -12452323.60146  22554558.6804                   22554550.7234
        42.2504         41.7504
  -6017362.44445  -4925460.81145  24159268.9694                   24159262.7114
        35.0004         33.5004
 -18344554.90248 -20807302.05549  20693464.3674                   20693455.2384
        52.5004         54.7504
 23  1  8  1 18 30.0000000  0 10G23G08G22G10G21G12G31G01G25G32
   -629376.85746  -2303324.68843  23966526.5164                   23966517.5634
        37.0004         22.7504
  -6851059.15645  -5313511.74945  25511182.0084                   25511172.8204
        35.5004         32.5004
 -16737221.46748 -13320308.20547  20728620.5704                   20728609.2734
        48.5004         42.2504
 -23788091.91648 -18413447.46148  21335775.5474                   21335766.0664
        49.2504         53.5004
 -18611954.39948 -13539570.80746  22263927.4144                   22263915.4734
        48.0004         37.2504
  -4935811.87646  -3812024.78343  24730489.9844                   24730479.5664
        36.7504         19.5004
 -18345246.77847 -14242687.66648  21861533.2814                   21861521.8674
        46.5004         50.0004
 -16362630.15446 -12508801.91646  22540766.0864                   22540757.7194
        40.5004         41.5004
  -6086229.78245  -4979123.66445  24146163.7584                   24146156.7384
        35.2504         31.7504
 -18318297.52548 -20786841.77049  20698461.0234                   20698451.7774
        52.7504         54.7504
 23  1  8  1 19  0.0000000  0 10G23G08G22G10G21G12G31G01G25G32
   -536951.08846  -2231304.63943  23984115.4844                   23984105.3594
        37.7504         22.2504
  -6770285.81445  -5250571.44345  25526549.9384                   25526544.6174
        31.7504         30.0004
 -16760798.14748 -13338679.64147  20724133.9144                   20724122.7934
        49.0004         42.0004
 -23734611.31548 -18371774.28648  21345952.3364                   21345943.7934
        48.7504         53.5004
 -18633099.30948 -13556047.36446  22259903.7664                   22259891.4144
        48.5004         37.7504
  -4976059.06546  -3843386.17543  24722831.9144                   24722820.8524
        37.2504         19.7504
 -18441620.00247 -14317783.66448  21843193.6564                   21843182.6524
        46.5004         49.7504
 -16434634.01147 -12564908.81546  22527065.4924                   22527056.0124
        42.5004         41.7504
  -6154777.46745  -5032537.41645  24133119.1644                   24133111.6764
        34.7504         32.2504
 -18291737.77048 -20766145.86549  20703515.4924                   20703505.6024
        52.7504         55.0004
 23  1  8  1 19 30.0000000  0 10G23G08G22G10G21G12G31G01G25G32
   -444359.48346  -2159155.40143  24001734.8834                   24001725.6954
        38.0004         22.7504
  -6689471.94145  -5187599.54745  25541930.6024                   25541921.8834
        33.5004         31.7504
 -16784051.86747 -13356799.42547  20719709.4144                   20719697.3554
        47.0004         42.2504
 -23680794.44448 -18329839.08748  21356193.5784                   21356184.9184
        49.0004         53.5004
 -18653770.90247 -13572155.10846  22255969.8204                   22255957.4694
        46.0004         37.5004
  -5015833.72246  -3874379.43343  24715262.2344                   24715252.1094
        36.0004         19.7504
 -18537621.14947 -14392589.73248  21824925.4844                   21824913.9534
        46.2504         50.0004
 -16506157.80246 -12620641.65046  22513453.7034                   22513445.6294
        40.7504         41.5004
  -6223001.69045  -5085699.15245  24120136.0634                   24120129.8634
        34.0004         31.7504
 -18264875.93348 -20745214.56949  20708626.9844                   20708617.2704
        52.5004         54.7504
 23  1  8  1 20  0.0000000  0 10G23G08G22G10G21G12G31G01G25G32
   -351602.65946  -2086877.43143  24019386.1334                   24019376.0664
        38.0004         22.2504
  -6608620.39245  -5124598.31044  25557316.7194                   25557307.1214
        35.7504         28.5004
 -16806982.91047 -13374667.76247  20715345.3984                   20715334.1604
        46.5004         42.2504
 -23626641.23848 -18287641.80848  21366498.9144                   21366489.9614
        48.7504         53.5004
 -18673968.16847 -13587893.24146  22252126.8364                   22252114.6024
        46.0004         37.5004
  -5055134.01245  -3905003.02243  24707783.5944                   24707773.4104
        35.5004         19.5004
 -18633247.00647 -14467103.36548  21806728.3754                   21806716.9614
        47.0004         50.0004
 -16577198.87746 -12675998.30546  22499935.6954                   22499926.6254
        41.2504         41.5004
  -6290898.79945  -5138605.99345  24107217.2504                   24107209.6454
        35.2504         32.0004
 -18237712.71748 -20724048.42849  20713795.6804                   20713786.4344
        51.5004         54.7504
 23  1  8  1 20 30.0000000  0 10G23G08G22G10G21G12G31G01G25G32
   -258688.10446  -2014476.52443  24037066.5554                   24037057.4844
        37.5004         23.0004
                                  25572705.5164                   25572700.4344
        27.5004         32.2504
 -16829598.27347 -13392290.13047  20711041.8364                   20711030.2464
        47.0004         42.2504
 -23572158.36648 -18245187.65148  21376866.3984                   21376857.3874
        49.7504         53.5004
 -18693697.42147 -13603266.69146  22248371.8054                   22248359.9804
        46.2504         37.5004
  -5093964.03546  -3935260.13543  24700394.8984                   24700384.4224
        36.0004         19.7504
 -18728501.36247 -14541327.50548  21788602.5394                   21788590.8324
        46.7504         50.0004
 -16647761.26447 -12730982.01846  22486508.1254                   22486498.9384
        42.0004         41.5004
  -6358472.69745  -5191260.96545  24094357.5944                   24094350.6334
        34.7504         32.5004
 -18210255.98948 -20702653.58749  20719020.8364                   20719011.6484
        51.7504         54.7504
 23  1  8  1 21  0.0000000  0 11G23G03G08G22G10G21G12G31G01G25G32
   -165594.48746  -1941936.13743  24054781.9454                   24054773.2854
        37.5004         22.7504
                                  25663927.859
        34.000
                                  25588113.422
        39.000
 -16851876.33747 -13409649.65647  20706802.7344                   20706791.0274
        47.2504         42.2504
 -23517323.94448 -18202459.55348  21387301.0864                   21387291.7814
        49.0004         53.5004
 -18712936.12848 -13618257.89246  22244711.0944                   22244698.9184
        48.0004         37.5004
  -5132299.50945  -3965131.93243  24693098.5004                   24693089.6644
        35.5004         19.7504
 -18823359.38847 -14615242.82348  21770550.5084                   21770539.7974
        46.2504         50.0004
 -16717820.43846 -12785573.56446  22473176.2114                   22473167.7274
        41.5004         41.5004
  -6425697.90545  -5243644.24045  24081565.5864                   24081558.3914
        35.0004         32.5004
 -18182484.57048 -20681013.52649  20724305.7584                   20724295.8094
        51.5004         55.0004
 23  1  8  1 21 30.0000000  0 10G23G08G22G10G21G12G31G01G25G32
    -72355.50546  -1869282.45443  24072525.9534                   24072515.9454
        37.7504         22.5004
   -412845.41755  -4983162.75155  25603509.3754                   25603502.8244
        35.7504         31.7504
 -16873850.71648 -13426772.53747  20702621.0704                   20702609.3054
        48.5004         42.0004
 -23462170.97548 -18159483.24848  21397796.0234                   21397787.3054
        49.2504         53.5004
 -18731716.24948 -13632891.75746  22241138.0864                   22241125.3244
        49.0004         37.5004
  -5170170.74445  -3994641.94443  24685892.9774                   24685883.2624
        35.5004         19.7504
 -18917851.26047 -14688872.83248  21752570.0704                   21752558.7154
        46.2504         50.2504
 -16787406.80647 -12839796.70847  22459934.5944                   22459925.0554
        43.0004         42.0004
  -6492604.39345  -5295779.17245  24068832.8674                   24068825.8484
        34.5004         32.2504
 -18154432.47948 -20659154.75349  20729643.8984                   20729634.1844
        52.0004         54.7504
 23  1  8  1 22  0.0000000  0  9G23G22G10G21G12G31G01G25G32
     21059.28446  -1796491.75843  24090300.2734                   24090291.6724
        36.2504         21.7504
 -16895490.26748 -13443634.52447  20698503.3134                   20698491.5474
        48.7504         42.0004
 -23406668.30448 -18116234.43548  21408358.3594                   21408349.4654
        49.0004         53.5004
 -18750005.53848 -13647143.16146  22237657.4304                   22237645.0204
        48.5004         37.5004
  -5207545.17545  -4023764.86643  24678780.5004                   24678771.4884
        35.0004         19.7504
 -19011942.83247 -14762190.91948  21734664.9844                   21734653.5124
        46.5004         50.5004
 -16856486.62446 -12893625.14947  22446788.0784                   22446779.7114
        41.5004         42.0004
  -6559157.62745  -5347638.82945  24056168.2424                   24056160.6954
        34.5004         32.0004
 -18126069.43148 -20637053.67949  20735040.9534                   20735031.2384
        51.0004         54.7504
 23  1  8  1 22 30.0000000  0 10G23G08G22G10G21G12G31G01G25G32
    114620.96546  -1723586.61443  24108105.5084                   24108096.1454
        37.0004         22.5004
   -250879.19154  -4856955.30954  25634327.1174                   25634322.2114
        29.5004         26.0004
 -16916823.61447 -13460257.90547  20694443.7424                   20694431.7424
        47.2504         42.0004
 -23350844.28848 -18072735.22848  21418980.9224                   21418972.3794
        49.0004         53.2504
 -18767831.91247 -13661033.84746  22234265.0784                   22234252.4344
        47.5004         37.5004
  -5244448.21845  -4052520.46543  24671759.4774                   24671748.1214
        35.7504         20.0004
 -19105659.55547 -14835216.91348  21716831.0784                   21716819.6644
        46.2504         50.5004
 -16925085.45747 -12947078.76647  22433734.4774                   22433726.5784
        42.5004         42.7504
  -6625382.63446  -5399242.72945  24043567.3754                   24043559.0084
        36.2504         32.2504
 -18097424.61248 -20614733.04349  20740492.1954                   20740482.3054
        51.0004         55.0004
 23  1  8  1 23  0.0000000  0 10G23G08G22G10G21G12G31G01G25G32
    208350.09146  -1650551.00243  24125941.8754                   24125932.3954
        37.5004         22.5004
   -169863.02645  -4793825.73745  25649747.3444                   25649739.0944
        35.5004         30.2504
 -16937830.00948 -13476626.52247  20690446.2034                   20690434.1454
        48.2504         42.0004
 -23294677.47548 -18028968.90948  21429669.1484                   21429660.1954
        48.0004         53.2504
 -18785173.21748 -13674546.55846  22230965.2194                   22230952.8674
        48.0004         37.5004
  -5280856.53646  -4080890.54943  24664830.3914                   24664819.9734
        36.0004         20.5004
 -19198977.22847 -14907931.96748  21699073.7274                   21699062.0784
        47.0004         50.7504
 -16993179.50547 -13000139.06847  22420776.7194                   22420767.8834
        42.2504         42.7504
  -6691254.89545  -5450571.78745  24031031.6414                   24031023.5084
        35.7504         33.0004
 -18068477.61448 -20592176.94749  20746000.7504                   20745990.8014
        51.0004         55.0004
 23  1  8  1 23 30.0000000  0 11G23G03G08G22G10G21G12G31G01G25G32
    302237.85146  -1577391.79643  24143807.1564                   24143798.7894
        36.5004         21.7504
                                  25568617.3834                   25568607.4924
        33.7504         26.5004
    -88830.10645  -4730683.31845  25665166.5704                   25665159.7854
        35.7504         31.0004
 -16958517.70648 -13492746.79547  20686509.2664                   20686497.9104
        48.0004         42.2504
 -23238176.52048 -17984942.20848  21440421.6724                   21440412.1334
        49.0004         53.2504
 -18802037.06647 -13687687.22646  22227755.6414                   22227743.6414
        45.7504         37.5004
  -5316775.93746  -4108879.72743  24657994.6564                   24657984.5314
        36.0004         19.2504
 -19291900.94747 -14980340.02848  21681390.8134                   21681379.2234
        46.7504         51.0004
 -17060774.32946 -13052810.35447  22407913.2114                   22407905.1954
        41.5004         42.7504
  -6756779.47145  -5501629.91945  24018562.8754                   24018555.2704
        34.7504         32.5004
 -18039237.57248 -20569392.49649  20751564.7114                   20751554.9384
        51.7504         54.7504
 23  1  8  1 24  0.0000000  0 11G23G03G08G22G10G21G12G31G01G25G32
    396281.63946  -1504110.99743  24161703.8754                   24161694.3364
        36.2504         21.5004
   -575849.72144   -609657.15543  25549526.9224                   25549520.7814
        28.0004         22.2504
     -7785.13145  -4667531.39944  25680586.8284                   25680581.7464
        33.0004         29.7504
 -16978889.10747 -13508620.60947  20682632.7034                   20682620.8204
        47.0004         42.0004
 -23181342.87748 -17940656.27648  21451236.4454                   21451227.4344
        49.0004         53.0004
 -18818423.90147 -13700456.18746  22224637.5314                   22224625.4144
        47.0004         38.0004
  -5352205.84346  -4136487.41043  24651253.4144                   24651242.0594
        37.2504         20.0004
 -19384429.69647 -15052440.33348  21663782.8984                   21663771.6604
        47.0004         51.2504
 -17127869.12247 -13105092.02147  22395146.7424                   22395138.2584
        43.5004         44.0004
  -6821954.89545  -5552415.94645  24006159.8674                   24006153.1994
        35.0004         33.0004
 -18009707.18648 -20546381.80449  20757183.8284                   20757174.3484
        51.7504         54.7504
 23  1  8  1 24 30.0000000  0 11G23G03G08G22G10G21G12G31G01G25G32
    490485.16446  -1430705.72743  24179631.0784                   24179620.9534
        37.0004         22.2504
   -676190.01555   -671431.94654  25530435.9304                   25530427.4454
        33.5004         25.7504
     73273.61245  -4604368.73344  25696013.2974                   25696007.0394
        33.7504         28.7504
 -16998939.96648 -13524244.65047  20678817.0554                   20678805.6414
        48.2504         42.0004
 -23124172.22048 -17896107.74548  21462115.3914                   21462106.6134
        48.2504         53.0004
 -18834329.33047 -13712850.03746  22221611.1024                   22221598.8674
        47.2504         37.5004
  -5387140.05546  -4163708.87243  24644606.2274                   24644593.8754
        37.5004         21.5004
 -19476556.37347 -15124227.32748  21646251.8444                   21646240.3134
        47.0004         51.2504
 -17194457.11546 -13156978.74047  22382473.8284                   22382466.2814
        41.7504         43.0004
  -6886773.63745  -5602924.05745  23993825.1884                   23993818.7544
        34.7504         33.0004
 -17979883.00048 -20523142.18349  20762859.3594                   20762850.0554
        51.0004         54.7504
 23  1  8  1 25  0.0000000  0 11G23G03G08G22G10G21G12G31G01G25G32
    584844.43446  -1357179.10443  24197586.6094                   24197576.8364
        36.5004         22.0004
   -776572.79255   -749652.40054  25511333.5474                   25511324.8284
        33.2504         27.5004
    154340.72145  -4541199.51744  25711439.7974                   25711433.1294
        33.7504         27.5004
 -17018674.21048 -13539621.98347  20675061.8834                   20675050.0594
        48.7504         42.0004
 -23066668.01848 -17851299.30348  21473058.0394                   21473049.1454
        48.2504         53.0004
 -18849755.37147 -13724870.33546  22218675.1254                   22218663.1254
        47.0004         37.5004
  -5421579.72546  -4190544.97343  24638053.4224                   24638039.4884
        38.2504         20.7504
 -19568281.37647 -15195701.33548  21628797.0394                   21628785.6254
        47.2504         51.2504
 -17260538.97847 -13208471.10647  22369900.4694                   22369890.9884
        42.5004         44.0004
  -6951235.68845  -5653154.20645  23981559.8834                   23981551.1644
        35.5004         32.5004
 -17949769.25848 -20499676.91749  20768589.6884                   20768580.2074
        51.2504         54.7504
 23  1  8  1 25 30.0000000  0 11G23G03G08G22G10G21G12G31G01G25G32
    679360.29646  -1283530.44143  24215571.3914                   24215562.7894
        36.2504         21.5004
   -876994.20245   -827902.87544  25492222.6564                   25492214.6414
        31.0004         26.2504
    235414.66545  -4478024.98744  25726866.7504                   25726860.6684
        33.0004         28.0004
 -17038090.52148 -13554751.57246  20671367.2504                   20671355.5434
        49.0004         41.7504
 -23008829.00548 -17806229.97148  21484064.7894                   21484055.8954
        48.2504         53.0004
 -18864699.99147 -13736515.49546  22215831.7664                   22215819.0634
        47.7504         37.5004
  -5455520.80746  -4216992.60843  24631594.3284                   24631580.3954
        38.7504         20.0004
 -19659599.97347 -15266858.66148  21611419.3914                   21611408.5634
        47.2504         51.5004
 -17326110.61946 -13259565.90047  22357421.8204                   22357414.1564
        41.5004         43.7504
  -7015336.39445  -5703102.80245  23969360.7274                   23969352.8284
        35.0004         31.5004
 -17919365.21248 -20475985.45049  20774375.5234                   20774366.2194
        50.5004         54.7504
 23  1  8  1 26  0.0000000  0 11G23G03G08G22G10G21G12G31G01G25G32
    774029.18745  -1209762.60943  24233586.6804                   24233578.1954
        35.7504         21.2504
   -977456.24845   -906184.89744  25473105.4774                   25473098.1644
        31.7504         28.5004
    316489.50545  -4414849.72344  25742295.8524                   25742288.7154
        32.2504         29.2504
 -17057192.06648 -13569635.87646  20667732.5084                   20667720.8594
        48.2504         41.7504
 -22950657.73047 -17760901.73448  21495133.9924                   21495125.2734
        47.7504         52.7504
 -18879165.82247 -13747787.57346  22213078.5554                   22213066.6724
        46.7504         37.2504
  -5488964.02946  -4243052.25143  24625230.4144                   24625216.3634
        38.0004         20.0004
 -19750512.25847 -15337699.37948  21594119.6954                   21594108.4574
        47.5004         51.5004
 -17391172.41247 -13310263.36247  22345041.5474                   22345032.5354
        42.5004         43.7504
  -7079075.49345  -5752769.65245  23957231.3754                   23957222.4804
        35.0004         32.2504
 -17888674.68148 -20452070.75649  20780215.3594                   20780206.1134
        50.0004         54.7504
 23  1  8  1 26 30.0000000  0 11G23G03G08G22G10G21G12G31G01G25G32
    868852.63646  -1135874.25943  24251632.7114                   24251622.1174
        36.0004         22.0004
  -1077955.39245   -984495.91744  25453979.9064                   25453973.6484
        31.7504         28.7504
    397566.14545  -4351673.01944  25757723.8754                   25757717.3244
        33.5004         29.2504
 -17075976.95048 -13584273.45146  20664157.3914                   20664145.6844
        49.2504         41.7504
 -22892152.18448 -17715313.02248  21506267.4534                   21506258.6174
        48.0004         52.7504
 -18893149.63748 -13758684.05146  22210418.2894                   22210405.7034
        48.0004         37.5004
  -5521905.35746  -4268720.81043  24618962.3984                   24618947.2344
        39.0004         21.2504
 -19841013.18747 -15408219.56348  21576897.7734                   21576886.1844
        47.0004         51.5004
 -17455719.48647 -13360559.79447  22332758.7424                   22332749.5554
        43.0004         44.0004
  -7142447.36145  -5802150.34045  23945171.0164                   23945164.6994
        33.0004         31.2504
 -17857696.26348 -20427931.73249  20786110.5234                   20786101.3364
        50.5004         54.7504
 23  1  8  1 27  0.0000000  0 11G23G03G08G22G10G21G12G31G01G25G32
    963829.67746  -1061866.32043  24269704.9844                   24269695.7384
        36.0004         21.0004
  -1178490.79945  -1062835.18344  25434850.7504                   25434842.0314
        31.5004         29.0004
    478640.48745  -4288498.34344  25773152.3284                   25773145.2504
        34.7504         28.7504
 -17094446.01348 -13598664.92246  20660642.7894                   20660631.5514
        49.2504         41.7504
 -22833312.61447 -17669464.02948  21517463.8364                   21517455.2344
        47.7504         52.5004
 -18906651.08648 -13769204.67146  22207848.6884                   22207836.2194
        48.0004         36.7504
  -5554342.42946  -4293996.49143  24612789.5474                   24612774.6764
        38.5004         20.5004
 -19931100.34847 -15478417.31448  21559754.8524                   21559743.2034
        47.2504         51.5004
 -17519749.71147 -13410453.48647  22320572.8204                   22320565.6254
        42.2504         44.0004
  -7205449.18945  -5851242.68145  23933184.1804                   23933177.7464
        35.5004         34.0004
 -17826431.12448 -20403569.28749  20792060.2664                   20792050.9024
        50.2504         54.7504
 23  1  8  1 27 30.0000000  0 11G23G03G08G22G10G21G12G31G01G25G32
   1058959.08446   -987739.59043  24287807.7894                   24287798.4264
        36.0004         21.5004
  -1279061.90645  -1141202.26344  25415711.8284                   25415703.6954
        31.7504         27.7504
    559709.62045  -4225327.51144  25788580.4534                   25788571.1484
        35.5004         28.7504
 -17112599.89048 -13612810.80146  20657188.3524                   20657176.8794
        49.0004         41.5004
 -22774139.55348 -17623355.18748  21528724.4384                   21528715.8954
        48.0004         52.5004
 -18919669.85847 -13779349.17146  22205370.8754                   22205358.4064
        47.5004         36.7504
  -5586274.24546  -4318878.50543  24606713.3284                   24606697.6954
        38.7504         19.2504
 -20020771.28547 -15548290.75048  21542691.3054                   21542679.7154
        47.2504         51.5004
 -17583261.03547 -13459942.79247  22308489.0784                   22308479.8324
        43.0004         44.5004
  -7268078.32745  -5900044.56245  23921266.3364                   23921258.4384
        35.7504         33.0004
 -17794880.64448 -20378984.49549  20798064.0864                   20798054.8984
        50.5004         54.7504
 23  1  8  1 28  0.0000000  0 11G23G03G08G22G10G21G12G31G01G25G32
   1154239.37145   -913495.34243  24305939.6024                   24305929.3594
        35.2504         22.0004
  -1379668.12945  -1219596.73245  25396567.2974                   25396559.2234
        33.5004         30.0004
    640770.05745  -4162163.53444  25804006.5004                   25803996.2584
        34.5004         27.7504
 -17130439.58848 -13626711.86146  20653793.4454                   20653781.9734
        48.5004         41.7504
 -22714634.11847 -17576987.34648  21540048.0234                   21540039.3054
        47.7504         52.5004
 -18932206.02748 -13789117.63046  22202986.1954                   22202973.3164
        48.5004         37.2504
  -5617699.00446  -4343365.28743  24600730.8524                   24600717.3874
        37.2504         18.2504
 -20110023.74747 -15617838.11148  21525707.0634                   21525695.5314
        47.5004         51.7504
 -17646251.68547 -13509026.43747  22296501.9844                   22296492.2704
        43.0004         44.0004
  -7330332.22545  -5948554.05945  23909419.0944                   23909413.3054
        35.5004         33.2504
 -17763046.40348 -20354178.59649  20804121.8674                   20804112.3284
        50.2504         55.0004
 23  1  8  1 28 30.0000000  0 11G23G03G08G22G10G21G12G31G01G25G32
   1249671.02045   -839133.13943  24324099.6724                   24324090.0164
        35.5004         20.7504
  -1480307.29145  -1298016.85945  25377416.0784                   25377408.4734
        33.2504         31.0004
    721820.29555  -4107708.48054  25819428.8284                   25819420.2274
        35.5004         27.2504
 -17147964.62648 -13640367.72847  20650458.8834                   20650447.4104
        48.5004         42.0004
 -22654794.89848 -17530359.40648  21551435.6024                   21551426.4734
        48.0004         52.5004
 -18944258.31148 -13798509.03346  22200691.9064                   22200679.9654
        48.0004         37.0004
  -5648613.60646  -4367454.64243  24594849.2894                   24594835.7074
        37.2504         19.5004
 -20198853.89647 -15687056.38048  21508803.0704                   21508791.5984
        47.2504         51.7504
 -17708718.29246 -13557701.68947  22284613.7974                   22284605.7234
        41.5004         44.0004
  -7392206.82445  -5996768.03545  23897643.9384                   23897636.7424
        34.7504         31.7504
 -17730928.24348 -20329151.45849  20810234.0474                   20810224.5664
        50.5004         55.0004
 23  1  8  1 29  0.0000000  0 11G23G03G08G22G10G21G12G31G01G25G32
   1345251.88945   -764654.63343  24342287.4224                   24342278.9384
        35.7504         21.7504
  -1580979.68945  -1376462.85044  25358258.4844                   25358250.0594
        34.5004         29.7504
    802856.41545  -4044563.35744  25834847.5474                   25834841.1134
        31.7504         28.0004
 -17165176.39548 -13653779.49847  20647183.4774                   20647171.8874
        48.7504         42.0004
 -22594623.72647 -17483472.81548  21562885.1564                   21562876.4384
        47.5004         52.2504
 -18955827.26648 -13807523.80546  22198491.1954                   22198478.1994
        48.0004         37.0004
  -5679017.40946  -4391145.92443  24589063.7344                   24589049.5084
        37.2504         18.2504
 -20287260.30847 -15755944.47448  21491980.0784                   21491968.5474
        47.5004         51.7504
 -17770659.56447 -13605967.61947  22272828.2664                   22272819.4884
        44.0004         44.5004
  -7453700.26545  -6044684.99245  23885942.2194                   23885934.6724
        35.0004         32.0004
 -17698528.39448 -20303904.81649  20816399.1174                   20816389.6374
        51.0004         55.2504
 23  1  8  1 29 30.0000000  0 11G23G03G08G22G10G21G12G31G01G25G32
   1440981.17145   -690060.53043  24360504.3364                   24360495.5594
        35.0004         21.7504
  -1681684.04755  -1454933.80055  25339095.3284                   25339087.4884
        33.2504         30.2504
    883876.31145  -3981431.05244  25850265.9614                   25850258.8834
        32.7504         28.0004
 -17182075.61247 -13666947.71246  20643967.3444                   20643955.9884
        47.0004         41.7504
 -22534120.56347 -17436327.51948  21574398.5234                   21574389.6884
        47.5004         52.2504
 -18966912.32747 -13816161.52746  22196380.6884                   22196368.9804
        47.5004         37.0004
  -5708908.19146  -4414437.44943  24583375.4224                   24583361.8984
        37.2504         18.5004
 -20375239.97247 -15824500.03548  21475237.8594                   21475226.0944
        47.5004         52.0004
 -17832073.24946 -13653822.44447  22261139.5704                   22261131.6724
        41.5004         43.7504
  -7514809.48645  -6092302.60045  23874314.8834                   23874305.2274
        35.7504         32.5004
 -17665847.76148 -20278439.39549  20822618.2194                   20822608.9734
        50.2504         55.0004
 23  1  8  1 30  0.0000000  0 11G23G03G08G22G10G21G12G31G01G25G32
   1536857.81446   -615351.58743  24378748.9064                   24378740.0704
        36.0004         22.7504
  -1782419.50345  -1533428.94845  25319926.5084                   25319918.6094
        35.0004         31.2504
    964875.36455  -3927010.02354  25865678.0314                   25865671.1884
        31.0004         27.5004
 -17198663.04647 -13679872.98346  20640811.0864                   20640799.5554
        47.2504         41.7504
 -22473285.99747 -17388923.99548  21585974.9224                   21585966.2624
        47.5004         52.2504
 -18977513.22047 -13824421.96746  22194363.2664                   22194351.5004
        46.5004         37.0004
  -5738284.78346  -4437328.31443  24577785.5944                   24577771.7194
        37.5004         19.0004
 -20462790.95147 -15892721.56448  21458577.4694                   21458566.0554
        47.5004         52.0004
 -17892957.24847 -13701264.49647  22249555.2274                   22249545.8054
        42.7504         44.0004
  -7575531.66245  -6139618.55445  23862758.1174                   23862751.8014
        34.0004         32.2504
 -17632887.56848 -20252756.12949  20828890.1334                   20828880.7704
        50.5004         54.7504
 23  1  8  1 30 30.0000000  0 11G23G03G08G22G10G21G12G31G01G25G32
   1632882.75445   -540527.08243  24397021.1484                   24397013.0744
        33.7504         22.0004
  -1883183.27245  -1611946.15145  25300751.7584                   25300743.2734
        34.2504         30.2504
   1045854.67656  -3863909.40954  25881091.4614                   25881083.2114
        36.2504         28.5004
 -17214937.40248 -13692554.29547  20637714.2814                   20637702.9264
        49.2504         42.0004
 -22412118.52147 -17341261.06648  21597614.9534                   21597606.1764
        47.5004         52.0004
 -18987627.94147 -13832303.56946  22192438.9774                   22192426.8594
        47.0004         37.0004
  -5767143.50146  -4459815.58643  24572294.5784                   24572279.7664
        38.5004         19.2504
 -20549908.71147 -15960605.50848  21441999.0084                   21441988.2974
        47.7504         52.0004
 -17953307.51447 -13748290.70547  22238071.8134                   22238062.4494
        43.0004         44.2504
  -7635862.09245  -6186629.31445  23851278.0944                   23851272.0124
        35.5004         34.0004
 -17599647.11748 -20226854.48649  20835215.6884                   20835206.3834
        51.2504         55.2504
 23  1  8  1 31  0.0000000  0 11G23G03G08G22G10G21G12G31G01G25G32
   1729052.87746   -465589.48043  24415323.6564                   24415314.0594
        36.0004         21.0004
  -1983976.44445  -1690486.28945  25281570.9384                   25281562.6294
        33.7504         30.7504
   1126808.74555  -3800828.13954  25896492.8524                   25896488.0634
        31.0004         25.7504
 -17230901.41148 -13704993.78346  20634676.4694                   20634664.9384
        48.5004         41.7504
 -22350620.36947 -17293340.45348  21609317.3754                   21609308.7154
        47.2504         52.0004
 -18997258.17747 -13839807.65946  22190605.9224                   22190594.0394
        47.2504         36.5004
  -5795484.29046  -4481899.31643  24566900.1724                   24566887.1764
        37.7504         19.2504
 -20636592.50348 -16028151.30448  21425504.7974                   21425492.7974
        48.0004         52.0004
 -18013123.93646 -13794900.87547  22226686.8364                   22226679.5234
        41.0004         44.2504
  -7695799.99546  -6233334.12945  23839872.9924                   23839865.6804
        36.0004         33.5004
 -17566129.47948 -20200736.85049  20841593.7114                   20841584.4064
        50.7504         55.0004
 23  1  8  1 31 30.0000000  0 11G23G03G08G22G10G21G12G31G01G25G32
   1825368.01645   -390538.81443  24433650.9614                   24433642.3014
        34.5004         21.0004
  -2084797.19345  -1769047.90645  25262385.8914                   25262377.0554
        34.2504         31.5004
   1207735.58845  -3737768.32544  25911894.4774                   25911886.7544
        35.0004         27.5004
 -17246554.65448 -13717191.11746  20631697.4064                   20631685.7584
        48.5004         41.7504
 -22288791.37847 -17245162.05148  21621083.5234                   21621074.6294
        47.5004         52.0004
 -19006402.99247 -13846933.48846  22188866.0704                   22188854.1294
        47.2504         37.5004
  -5823304.99346  -4503577.77243  24561606.1954                   24561594.1374
        37.0004         18.2504
 -20722839.08848 -16095356.42048  21409092.0474                   21409080.3984
        48.0004         52.2504
 -18072403.67047 -13841092.87347  22215407.5634                   22215398.0824
        43.0004         44.2504
  -7755341.61745  -6279730.20245  23828540.8914                   23828535.0434
        33.5004         33.7504
 -17532334.99848 -20174403.49649  20848024.9454                   20848015.6414
        51.7504         55.0004
 23  1  8  1 32  0.0000000  0 10G23G03G22G10G21G12G31G01G25G32
   1921827.76645   -315375.50843  24452006.5864                   24451998.2774
        34.7504         21.2504
  -2185644.13345  -1847629.87045  25243194.8364                   25243186.7624
        34.2504         30.2504
 -17261897.16148 -13729146.31947  20628778.0394                   20628766.3914
        48.5004         42.0004
 -22226631.21347 -17196725.57148  21632912.3134                   21632903.6524
        47.5004         51.7504
 -19015061.22447 -13853680.17946  22187218.5234                   22187206.2894
        47.0004         37.2504
  -5850603.28846  -4524849.11843  24556410.7034                   24556399.4654
        37.2504         19.0004
 -20808645.56248 -16162218.59048  21392763.7034                   21392751.8794
        48.2504         52.2504
 -18131144.01347 -13886864.59747  22204229.8914                   22204220.5274
        42.5004         44.5004
  -7814483.70246  -6325814.92345  23817288.9144                   23817280.3134
        36.0004         32.5004
 -17498264.30448 -20147854.90649  20854508.2344                   20854499.1054
        52.0004         54.7504
 23  1  8  1 32 30.0000000  0 10G23G03G22G10G21G12G31G01G25G32
   2018430.11145   -240101.07843  24470389.4924                   24470381.3014
        34.2504         21.5004
  -2286516.99645  -1926232.13245  25223998.5634                   25223990.5474
        34.7504         30.2504
 -17276930.66048 -13740860.72946  20625917.3134                   20625905.6644
        48.0004         41.7504
 -22164141.45347 -17148032.27248  21644803.3364                   21644794.9694
        47.0004         51.7504
 -19023234.30747 -13860048.82546  22185662.9924                   22185650.7584
        47.7504         37.0004
  -5877378.59446  -4545712.99043  24551317.1414                   24551303.6174
        37.7504         18.5004
 -20894010.20747 -16228736.47348  21376519.0314                   21376507.8524
        47.5004         52.5004
 -18189343.81646 -13932215.06947  22193153.0634                   22193145.8674
        41.5004         44.2504
  -7873224.36545  -6371586.87545  23806109.5944                   23806101.4614
        35.7504         32.5004
 -17463919.36248 -20121092.62349  20861043.8524                   20861034.6644
        51.7504         54.7504
 23  1  8  1 33  0.0000000  0 10G23G03G22G10G21G12G31G01G25G32
   2115174.68645   -164715.83643  24488800.8674                   24488791.2704
        35.7504         20.2504
  -2387414.35645  -2004853.39145  25204799.1254                   25204790.5234
        33.5004         30.0004
 -17291655.42448 -13752334.57347  20623115.4064                   20623103.9344
        49.0004         42.0004
 -22101321.38647 -17099081.60648  21656757.7114                   21656749.1684
        47.7504         51.5004
 -19030920.79247 -13866038.30046  22184200.8364                   22184188.3094
        47.2504         37.0004
  -5903628.33946  -4566167.31943  24546321.3524                   24546308.1214
        37.0004         18.2504
 -20978929.92048 -16294907.66148  21360359.1644                   21360347.8674
        48.2504         52.5004
 -18247000.37847 -13977142.25747  22182183.2424                   22182173.7624
        43.5004         44.7504
  -7931560.03246  -6417043.25845  23795010.0394                   23795001.3204
        36.5004         33.5004
 -17429300.66048 -20094117.02049  20867631.8914                   20867622.4694
        52.5004         55.0004
 23  1  8  1 33 30.0000000  0 10G23G03G22G10G21G12G31G01G25G32
   2212060.09745    -89220.85343  24507237.5474                   24507227.8914
        35.5004         21.0004
  -2488335.31345  -2083493.09245  25185594.7974                   25185586.4884
        35.0004         31.7504
 -17306072.27148 -13763568.48147  20620371.7814                   20620359.9574
        49.0004         42.0004
 -22038172.41947 -17049874.66048  21668774.6954                   21668765.8594
        47.5004         51.5004
 -19038121.06247 -13871648.91746  22182830.7114                   22182818.3594
        47.5004         37.0004
  -5929351.61046  -4586211.40343  24541426.0084                   24541413.8324
        37.0004         19.2504
 -21063402.77648 -16360730.64048  21344284.5864                   21344273.0554
        48.2504         52.7504
 -18304112.00547 -14021644.84847  22171314.8594                   22171305.7304
        42.5004         44.7504
  -7989488.40945  -6462182.23245  23783985.4064                   23783977.2154
        34.5004         33.5004
 -17394409.77048 -20066929.30849  20874271.4224                   20874262.0594
        52.2504         55.5004
 23  1  8  1 34  0.0000000  0 10G23G03G22G10G21G12G31G01G25G32
   2309086.32445    -13616.12743  24525700.1254                   24525691.4654
        34.7504         19.7504
  -2589278.03745  -2162149.75045  25166386.5784                   25166377.3914
        35.0004         30.0004
 -17320181.03948 -13774562.32347  20617686.9384                   20617675.9344
        48.7504         42.0004
 -21974693.81347 -17000410.83948  21680854.3674                   21680845.2974
        47.0004         51.2504
 -19044834.06447 -13876879.82646  22181553.2274                   22181540.8164
        47.5004         36.5004
  -5954545.91446  -4605843.30343  24536630.6334                   24536619.3364
        36.0004         18.5004
 -21147425.33748 -16426202.75148  21328295.5394                   21328284.1254
        48.2504         52.7504
 -18360675.75947 -14065720.47447  22160550.7664                   22160542.5744
        42.7504         45.0004
  -8047005.78846  -6507000.98745  23773040.4224                   23773033.0514
        36.2504         33.7504
 -17359246.77948 -20039529.58149  20880962.5084                   20880953.0864
        52.5004         55.0004
 23  1  8  1 34 30.0000000  0 10G23G03G22G10G21G12G31G01G25G32
   2406252.13945     62097.32643  24544191.0394                   24544181.6764
        35.5004         21.7504
  -2690241.71846  -2240822.73145  25147173.9144                   25147164.8444
        36.0004         31.7504
 -17333982.25548 -13785316.52347  20615060.5864                   20615049.5234
        49.5004         42.0004
 -21910886.27147 -16950690.70948  21692996.0864                   21692987.8364
        47.0004         51.0004
 -19051059.81347 -13881731.07146  22180368.3284                   22180356.2114
        47.7504         37.0004
  -5979209.67646  -4625061.83342  24531937.4304                   24531926.5434
        37.0004         17.2504
 -21230995.34448 -16491322.21748  21312393.1174                   21312381.4694
        48.0004         53.0004
 -18416689.70947 -14109367.71447  22149892.6644                   22149883.0084
        44.5004         45.2504
  -8104109.42945  -6551497.30145  23762172.4304                   23762167.5234
        33.7504         34.0004
 -17323812.95348 -20011918.81849  20887705.4454                   20887695.9064
        52.2504         55.0004
 23  1  8  1 35  0.0000000  0 10G23G03G22G10G21G12G31G01G25G32
   2503555.79446    137918.21843  24562708.7344                   24562698.4924
        37.2504         21.0004
  -2791225.88945  -2319511.68445  25127957.9304                   25127948.7424
        34.7504         31.2504
 -17347477.24948 -13795832.09747  20612493.3914                   20612481.6844
        49.5004         42.0004
 -21846750.68347 -16900714.96448  21705201.2344                   21705192.2234
        46.7504         50.7504
 -19056798.91147 -13886203.10446  22179276.4774                   22179263.8914
        47.5004         37.0004
  -6003342.22946  -4643866.30242  24527347.2114                   24527333.3954
        38.0004         16.7504
 -21314110.92748 -16556087.58848  21296576.6804                   21296565.2664
        48.5004         53.0004
 -18472152.60647 -14152585.54947  22139337.5234                   22139328.7464
        42.7504         45.5004
  -8160797.43246  -6595669.74945  23751386.9694                   23751378.7194
        36.5004         34.0004
 -17288110.09348 -19984098.41449  20894499.4064                   20894489.9264
        51.5004         55.0004
 23  1  8  1 35 30.0000000  0 10G23G03G22G10G21G12G31G01G25G32
   2600997.44445    213846.58643  24581249.5394                   24581240.9384
        35.2504         20.0004
  -2892228.44645  -2398214.95645  25108736.8914                   25108728.3484
        35.0004         31.0004
 -17360665.83748 -13806108.91347  20609983.0234                   20609971.4924
        49.0004         42.0004
 -21782286.67747 -16850483.31048  21717468.7504                   21717459.5044
        46.7504         50.5004
 -19062050.16247 -13890294.98946  22178277.0394                   22178264.6294
        47.5004         37.0004
  -6026940.85646  -4662254.85343  24522855.2114                   24522844.1484
        36.2504         19.7504
 -21396768.65448 -16620496.19448  21280847.3444                   21280835.6954
        48.5004         53.0004
 -18527061.36747 -14195371.58447  22128889.3754                   22128880.0124
        43.0004         45.2504
  -8217065.82146  -6639515.25745  23740679.3524                   23740671.2774
        36.5004         34.5004
 -17252138.22648 -19956068.40049  20901344.7664                   20901335.1684
        51.7504         54.7504
 23  1  8  1 36  0.0000000  0 10G23G03G22G10G21G12G31G01G25G32
   2698575.80146    289881.48943  24599818.6954                   24599809.6844
        36.0004         20.5004
  -2993248.48045  -2476931.86345  25089513.0234                   25089504.2464
        34.0004         30.7504
 -17373549.02348 -13816147.76147  20607531.3204                   20607519.9064
        48.5004         42.0004
 -21717494.95347 -16799996.28948  21729797.4454                   21729788.6094
        47.0004         50.5004
 -19066813.75048 -13894006.88646  22177370.5164                   22177358.1644
        48.5004         37.5004
  -6050004.16845  -4680226.33942  24518465.0704                   24518455.2384
        35.5004         17.7504
 -21478966.37547 -16684546.34748  21265205.3284                   21265194.0904
        47.7504         53.2504
 -18581414.10547 -14237724.37847  22118546.2734                   22118537.6134
        43.5004         45.7504
  -8272912.04346  -6683031.79245  23730052.1254                   23730044.0514
        36.5004         33.7504
 -17215898.59748 -19927829.73449  20908240.9384                   20908231.1054
        52.5004         55.0004
 23  1  8  1 36 30.0000000  0 10G23G03G22G10G21G12G31G01G25G32
   2796289.69446    366022.00743  24618414.0864                   24618403.5514
        36.5004         21.0004
  -3094285.13945  -2555661.71645  25070286.6414                   25070278.0394
        34.7504         30.5004
 -17386127.26748 -13825948.98747  20605138.3444                   20605125.9924
        48.5004         42.5004
 -21652375.89347 -16749254.19948  21742189.5784                   21742180.6254
        46.7504         50.5004
 -19071089.62247 -13897338.73946  22176556.8914                   22176544.5394
        47.0004         37.5004
  -6072530.80345  -4697779.52742  24514179.2274                   24514167.0514
        35.7504         17.7504
 -21560701.89948 -16748236.34648  21249651.7734                   21249640.0084
        48.0004         53.2504
 -18635209.20647 -14279642.63547  22108308.6254                   22108300.1414
        43.2504         45.5004
  -8328333.56945  -6726217.40845  23719505.5474                   23719497.0634
        34.5004         33.7504
 -17179392.51948 -19899383.43849  20915187.8364                   20915178.4144
        51.7504         55.0004
 23  1  8  1 37  0.0000000  0 10G23G03G22G10G21G12G31G01G25G32
   2894138.63846    442267.75743  24637033.8204                   24637024.2814
        36.0004         20.7504
  -3195336.78145  -2634403.24045  25051057.4144                   25051048.1094
        34.5004         30.0004
 -17398400.60948 -13835512.63247  20602802.3674                   20602790.8364
        48.5004         42.5004
 -21586929.58247 -16698257.10948  21754643.4224                   21754634.7034
        47.0004         50.5004
 -19074876.92047 -13900289.88746  22175836.1414                   22175823.9064
        46.5004         37.0004
  -6094518.79046  -4714912.95943  24509995.2114                   24509983.7384
        37.0004         19.0004
 -21641972.04948 -16811563.73148  21234186.8364                   21234175.2464
        48.0004         53.2504
 -18688444.10847 -14321124.36447  22098178.5474                   22098169.4774
        43.2504         45.7504
  -8383327.21646  -6769069.60545  23709041.3834                   23709033.5434
        36.5004         34.0004
 -17142620.46448 -19870729.90549  20922185.0234                   20922175.8364
        51.7504         54.7504
 23  1  8  1 37 30.0000000  0 10G23G03G22G10G21G12G31G01G25G32
   2992121.21446    518617.62243  24655679.5944                   24655669.6454
        37.0004         21.5004
  -3296402.53745  -2713155.78044  25031823.7734                   25031816.4024
        33.0004         29.7504
 -17410370.52248 -13844839.83047  20600524.4144                   20600512.8244
        49.5004         42.2504
 -21521156.61147 -16647005.49648  21767159.4614                   21767151.3874
        46.5004         50.2504
 -19078176.33247 -13902860.85746  22175208.1024                   22175196.1604
        47.5004         37.0004
  -6115967.10245  -4731625.91642  24505912.6954                   24505902.8054
        35.0004         17.7504
 -21722774.94947 -16874527.00448  21218810.3754                   21218798.8444
        47.7504         53.2504
 -18741117.11947 -14362168.28947  22088155.7344                   22088146.7814
        43.7504         46.0004
  -8437890.51245  -6811586.45945  23698658.1094                   23698650.9734
        35.5004         35.5004
 -17105583.88248 -19841870.24249  20929233.2974                   20929223.8164
        52.0004         55.0004
 23  1  8  1 38  0.0000000  0 10G23G03G22G10G21G12G31G01G25G32
   3090236.30945    595070.76243  24674349.7114                   24674340.5824
        35.5004         20.0004
  -3397481.55245  -2791918.62645  25012589.7424                   25012581.3164
        34.2504         31.2504
 -17422037.44348 -13853930.93947  20598304.6804                   20598292.7384
        48.5004         42.5004
 -21455057.72947 -16595499.90648  21779737.9924                   21779729.3324
        46.5004         50.2504
 -19080987.85847 -13905051.67146  22174673.1884                   22174661.1294
        46.2504         37.7504
  -6136874.39246  -4747917.35843  24501936.3444                   24501924.5784
        37.0004         19.2504
 -21803108.37848 -16937124.47348  21203523.5944                   21203512.0634
        48.0004         53.5004
 -18793226.63347 -14402773.10547  22078238.8984                   22078230.9414
        42.5004         45.7504
  -8492020.89245  -6853765.97445  23688357.1254                   23688349.6374
        35.5004         34.2504
 -17068284.01648 -19812805.41449  20936331.0864                   20936321.4884
        52.2504         54.7504
 23  1  8  1 38 30.0000000  0 10G23G03G22G10G21G12G31G01G25G32
   3188483.21445    671626.56543  24693044.6954                   24693036.4454
        35.2504         20.5004
  -3498572.26445  -2870690.59644  24993351.5864                   24993344.6844
        32.5004         29.2504
 -17433401.80048 -13862786.28147  20596141.7344                   20596130.4384
        48.5004         42.5004
 -21388633.24647 -16543740.58748  21792377.7504                   21792369.4414
        46.2504         50.0004
 -19083311.28147 -13906862.14146  22174230.8364                   22174218.8364
        46.2504         37.2504
  -6157239.24645  -4763786.03143  24498059.0554                   24498049.7504
        35.5004         20.5004
 -21882969.81748 -16999354.15248  21188326.4064                   21188314.8164
        48.0004         53.5004
 -18844770.32847 -14442937.00047  22068430.7034                   22068422.2774
        43.0004         46.0004
  -8545715.41446  -6895605.85645  23678138.8444                   23678131.9414
        36.5004         34.0004
 -17030721.57848 -19783535.99649  20943478.7114                   20943469.3484
        51.7504         54.7504
 23  1  8  1 39  0.0000000  0 10G23G03G22G10G21G12G31G01G25G32
   3286860.77146    748284.19143  24711767.0634                   24711757.5824
        36.0004         20.7504
  -3599673.52046  -2949470.77845  24974115.6724                   24974105.4304
        36.0004         31.0004
 -17444464.35448 -13871406.45447  20594036.6414                   20594025.3444
        48.5004         42.7504
 -21321883.51447 -16491727.85548  21805079.5084                   21805071.4344
        46.0004         50.2504
 -19085146.31147 -13908292.03646  22173881.8674                   22173869.8094
        46.5004         37.5004
  -6177059.70745  -4779230.64343  24494288.1024                   24494278.8554
        35.5004         19.0004
 -21962356.62447 -17061213.97848  21173219.3914                   21173207.7424
        47.7504         53.5004
 -18895746.32147 -14482658.56047  22058731.2424                   22058721.4694
        44.2504         46.0004
  -8598971.38646  -6937104.01745  23668004.8054                   23667997.6684
        36.7504         34.0004
 -16992897.62148 -19754062.79649  20950676.4924                   20950666.9534
        52.7504         54.7504
 23  1  8  1 39 30.0000000  0 10G23G03G22G10G21G12G31G01G25G32
   3385367.06145    825042.07943  24730510.9454                   24730503.0474
        35.2504         20.5004
  -3700785.32345  -3028259.21844  24954873.3204                   24954864.6604
        32.7504         29.7504
 -17455226.78048 -13879792.75947  20591988.7894                   20591977.1414
        48.2504         42.7504
 -21254810.13647 -16439462.92048  21817844.1954                   21817834.8324
        46.7504         50.0004
 -19086494.13947 -13909342.29346  22173625.3984                   22173613.4574
        46.7504         37.7504
  -6196335.81846  -4794250.95443  24490622.2734                   24490608.6914
        38.0004         19.5004
 -22041267.65248 -17122703.07848  21158203.3204                   21158191.8484
        48.0004         53.5004
 -18946153.87847 -14521937.19147  22049137.5704                   22049129.2034
        42.2504         45.7504
  -8651787.15046  -6978259.16745  23657954.1564                   23657946.7274
        36.7504         34.0004
 -16954814.29148 -19724387.48149  20957923.6644                   20957913.9494
        52.0004         54.7504
 23  1  8  1 40  0.0000000  0 10G23G03G22G10G21G12G31G01G25G32
   3484003.59345    901901.48843  24749281.3754                   24749273.2424
        35.7504         21.2504
  -3801903.81445  -3107052.81345  24935630.2974                   24935622.8674
        34.2504         31.0004
 -17465686.74148 -13887943.37947  20589998.2114                   20589986.5634
        48.5004         42.7504
 -21187411.08947 -16386944.20548  21830669.8754                   21830660.5704
        46.5004         50.0004
 -19087352.26947 -13910010.97446  22173462.1644                   22173449.9304
        46.5004         37.2504
  -6215063.60546  -4808844.02543  24487056.4844                   24487044.8364
        36.7504         20.0004
 -22119698.00848 -17183817.62948  21143278.1644                   21143266.9264
        48.0004         53.5004
 -18995988.48747 -14560769.33647  22039654.7584                   22039646.4494
        43.0004         46.0004
  -8704157.45245  -7019067.21345  23647988.2584                   23647980.8284
        35.7504         34.0004
 -16916469.94948 -19694508.77849  20965220.1724                   20965210.8674
        51.7504         54.7504
 23  1  8  1 40 30.0000000  0 10G23G03G22G10G21G12G31G01G25G32
   3582767.23746    978859.96843  24768076.2344                   24768067.4574
        36.0004         20.5004
  -3903029.94045  -3185852.41145  24916386.6884                   24916378.6724
        34.5004         30.7504
 -17475847.18848 -13895860.61647  20588065.0634                   20588053.0634
        49.0004         42.5004
 -21119689.02847 -16334173.81148  21843556.3984                   21843548.0314
        46.5004         50.0004
 -19087722.98547 -13910299.85946  22173391.7734                   22173379.2464
        46.7504         38.2504
  -6233243.91746  -4823010.51443  24483598.6024                   24483586.7194
        37.5004         21.2504
 -22197647.62348 -17244557.57848  21128444.9924                   21128433.4614
        48.0004         53.5004
 -19045250.33147 -14599155.19947  22030281.5314                   22030271.9344
        44.0004         46.2504
  -8756081.72146  -7059527.67745  23638107.4694                   23638100.0984
        37.0004         33.2504
 -16877867.78848 -19664429.18949  20972566.0474                   20972556.6844
        52.2504         55.0004
 23  1  8  1 41  0.0000000  0 10G23G03G22G10G21G12G31G01G25G32
   3681658.10545   1055917.55343  24786893.1094                   24786886.2664
        35.7504         21.2504
  -4004161.12245  -3264655.91245  24897142.3524                   24897133.7504
        34.0004         31.5004
 -17485707.81048 -13903544.20947  20586188.4064                   20586176.5824
        48.5004         42.5004
 -21051642.91647 -16281150.90648  21856505.8674                   21856496.9734
        47.0004         50.0004
 -19087604.51447 -13910207.55346  22173414.2034                   22173401.8524
        47.7504         38.0004
  -6250873.85446  -4836748.15343  24480243.1884                   24480231.1294
        36.7504         19.7504
 -22275112.86348 -17304920.09448  21113703.5634                   21113692.3244
        48.5004         53.5004
 -19093936.53447 -14637092.50947  22021015.6884                   22021007.4964
        42.5004         46.0004
  -8807556.06746  -7099637.54845  23628313.4924                   23628306.0044
        38.0004         34.2504
 -16839007.66148 -19634148.58049  20979960.7814                   20979951.1254
        52.7504         54.7504
 23  1  8  1 41 30.0000000  0 10G23G03G22G10G21G12G31G01G25G32
  -8822686.02156  -8687727.44853  24805737.3364                   24805728.3834
        36.0004         19.2504
  -4105297.71345  -3343463.65145  24877897.2894                   24877888.6294
        34.5004         31.2504
 -17495270.29348 -13910995.49747  20584368.8054                   20584357.2154
        48.0004         43.0004
 -20983274.73947 -16227877.03648  21869515.9384                   21869506.8094
        46.7504         49.7504
 -19086998.54847 -13909735.37946  22173529.7344                   22173517.4414
        46.0004         38.0004
  -6267953.79646  -4850057.26843  24476993.4534                   24476981.2774
        38.5004         21.7504
 -22352092.55348 -17364904.25948  21099055.4614                   21099043.4024
        49.2504         53.5004
 -19142046.49347 -14674580.77647  22011860.8204                   22011852.2774
        43.2504         46.0004
  -8858579.30646  -7139395.92345  23618602.3754                   23618596.4104
        36.0004         34.0004
 -16799891.78248 -19603668.67949  20987404.2274                   20987394.9224
        52.0004         55.0004
 23  1  8  1 42  0.0000000  0 10G23G03G22G10G21G12G31G01G25G32
  -8723545.35746  -8610475.20043  24824601.8054                   24824595.1374
        36.0004         20.2504
  -4206437.52945  -3422273.89445  24858650.8444                   24858641.4804
        34.7504         31.2504
 -17504534.47148 -13918214.35247  20582605.7034                   20582594.1724
        48.5004         42.7504
 -20914584.19847 -16174351.96848  21882586.9144                   21882578.4304
        47.5004         49.7504
 -19085904.33247 -13908882.75446  22173738.0704                   22173725.6024
        46.2504         37.2504
  -6284481.52046  -4862936.01342  24473847.4694                   24473834.0044
        37.0004         17.2504
 -22428583.68948 -17424507.73048  21084499.1174                   21084487.8794
        49.0004         53.7504
 -19189577.54947 -14711617.97047  22002817.1884                   22002807.7074
        44.5004         46.2504
  -8909147.69245  -7178799.85445  23608980.8834                   23608973.2774
        35.7504         34.2504
 -16760520.41848 -19572989.70749  20994896.5234                   20994887.1024
        52.7504         54.7504
 23  1  8  1 42 30.0000000  0 10G23G03G22G10G21G12G31G01G25G32
  -8624279.89445  -8533125.70643  24843492.9924                   24843484.1564
        35.0004         19.0004
  -4307578.25345  -3501084.82645  24839404.7664                   24839395.5204
        35.2504         32.0004
 -17513500.08848 -13925200.54547  20580899.7344                   20580888.0864
        48.5004         42.7504
 -20845570.82347 -16120575.35748  21895720.0784                   21895711.5354
        47.0004         50.0004
 -19084321.10247 -13907649.07546  22174039.6644                   22174026.5514
        47.5004         38.0004
  -6300454.77646  -4875382.68443  24470807.0474                   24470794.0514
        37.2504         18.5004
 -22504583.15848 -17483728.08049  21070037.4844                   21070025.4264
        49.0004         54.0004
 -19236526.92047 -14748201.90647  21993882.4924                   21993873.0124
        43.5004         46.5004
  -8959257.96045  -7217846.79745  23599443.7584                   23599437.5594
        35.5004         34.7504
 -16720893.50548 -19542111.61249  21002437.4694                   21002427.5784
        52.2504         55.0004
 23  1  8  1 43  0.0000000  0 10G23G03G22G10G21G12G31G01G25G32
  -8524892.52445  -8455681.22043  24862405.2344                   24862396.5164
        35.5004         19.0004
  -4408720.55045  -3579897.01845  24820157.3594                   24820148.6414
        34.2504         31.2504
 -17522169.67348 -13931956.06847  20579249.4534                   20579238.2734
        49.0004         42.7504
 -20776236.98247 -16066549.01548  21908913.5474                   21908905.0044
        47.2504         49.7504
 -19082250.78547 -13906035.84446  22174433.1254                   22174420.6564
        47.7504         38.0004
  -6315874.26946  -4887397.90243  24467872.7734                   24467863.4104
        37.2504         21.5004
 -22580090.46248 -17542564.93449  21055668.2894                   21055656.6414
        49.7504         54.0004
 -19282894.75847 -14784332.68647  21985057.4924                   21985050.1804
        42.0004         46.2504
  -9008909.06646  -7256535.96645  23589996.2034                   23589989.3594
        36.5004         34.7504
 -16681013.91148 -19511036.61749  21010026.2734                   21010016.5004
        53.2504         54.7504
 23  1  8  1 43 30.0000000  0 10G23G03G22G10G21G12G31G01G25G32
  -8425382.83845  -8378141.43643  24881340.6334                   24881333.5554
        35.2504         20.2504
  -4509861.57545  -3658708.18745  24800911.0004                   24800902.3984
        34.7504         32.2504
 -17530542.26348 -13938480.16647  20577656.9224                   20577645.3914
        48.5004         42.7504
 -20706581.64247 -16012272.16948  21922168.7424                   21922159.6134
        47.0004         49.7504
 -19079691.90747 -13904041.92646  22174919.9304                   22174907.6374
        47.5004         37.7504
  -6330736.98046  -4898979.29643  24465044.3914                   24465033.5044
        37.5004         18.2504
 -22655101.66348 -17601015.21049  21041394.2974                   21041382.5314
        49.7504         54.0004
 -19328677.71247 -14820007.70847  21976346.8914                   21976337.4694
        44.5004         46.5004
  -9058096.96746  -7294864.19845  23580636.5234                   23580627.9804
        36.0004         33.5004
 -16640881.08548 -19479764.29449  21017663.3204                   21017653.7234
        53.2504         54.7504
 23  1  8  1 44  0.0000000  0 11G23G17G03G22G10G21G12G31G01G25G32
  -8325752.97745  -8300508.00243  24900300.5234                   24900292.7424
        33.7504         19.2504
     59027.69615                  25872466.055
        31.000
  -4611001.20146  -3737518.30345  24781665.3134                   24781656.1254
        36.0004         32.5004
 -17538619.20148 -13944773.88747  20576119.9144                   20576108.0904
        49.2504         43.0004
 -20636606.57347 -15957746.19748  21935484.6254                   21935475.7894
        47.5004         49.5004
 -19076645.73748 -13901668.29546  22175499.8834                   22175487.7074
        48.0004         38.0004
  -6345043.19846  -4910126.96542  24462323.2584                   24462308.3874
        39.0004         17.2504
 -22729615.59048 -17659077.99949  21027214.9144                   21027203.1484
        50.7504         54.2504
 -19373875.23647 -14855226.57647  21967745.8054                   21967736.8524
        44.7504         46.7504
  -9106820.37646  -7332830.49845  23571364.0474                   23571356.7344
        36.2504         34.5004
 -16600497.20348 -19448296.35249  21025348.1174                   21025338.4024
        53.0004         55.0004
 23  1  8  1 44 30.0000000  0 11G23G17G03G22G10G21G12G31G01G25G32
  -8226002.79445  -8222780.81842  24919282.9614                   24919274.6524
        35.5004         17.7504
     41765.22315                  25869180.484
        31.000
  -4712137.06845  -3816325.44445  24762418.4924                   24762410.7704
        34.7504         32.2504
 -17546400.38848 -13950837.15547  20574639.2034                   20574627.4384
        49.0004         42.7504
 -20566311.02147 -15902970.48348  21948860.9924                   21948852.2734
        47.5004         49.5004
 -19073111.02648 -13898913.98646  22176172.5314                   22176160.0634
        48.5004         38.0004
  -6358790.52946  -4920839.21843  24459705.8444                   24459692.8484
        38.2504         18.2504
 -22803629.31448 -17716751.02849  21013130.1174                   21013118.9384
        49.7504         54.5004
 -19418484.51747 -14889987.04347  21959257.1884                   21959247.5314
        44.0004         46.7504
  -9155075.37346  -7370431.79245  23562182.7664                   23562174.8094
        36.7504         35.0004
 -16559862.12948 -19416632.67349  21033080.5164                   21033071.1524
        53.7504         54.7504
 23  1  8  1 45  0.0000000  0 11G23G17G03G22G10G21G12G31G01G25G32
  -8126135.01245  -8144962.04343  24938287.8364                   24938279.5274
        35.0004         19.2504
     24967.517 4                  25865984.805
        29.250
  -4813269.52845  -3895129.95645  24743174.4694                   24743166.1024
        35.7504         33.2504
 -17553888.09648 -13956671.73447  20573213.9304                   20573202.4574
        49.5004         42.7504
 -20495697.52348 -15847947.01748  21962298.8524                   21962289.7814
        48.0004         49.5004
 -19069089.97848 -13895780.71746  22176937.6414                   22176925.1134
        49.0004         38.5004
  -6371979.42046  -4931116.30843  24457196.9614                   24457185.2544
        38.0004         20.7504
 -22877141.85248 -17774033.51149  20999140.5084                   20999129.1524
        50.7504         54.5004
 -19462505.64447 -14924289.22747  21950880.9224                   21950871.6174
        45.7504         46.7504
  -9202861.38546  -7407667.62245  23553088.6724                   23553080.7154
        36.0004         34.0004
 -16518978.55848 -19384775.36249  21040860.5394                   21040850.7664
        53.0004         54.7504
 23  1  8  1 45 30.0000000  0 11G23G17G03G22G10G21G12G31G01G25G32
  -8026148.80845  -8067050.90043  24957313.7424                   24957305.7854
        35.0004         19.0004
      8636.65015                  25862876.875
        30.500
  -4914395.28445  -3973929.23145  24723930.4774                   24723922.5204
        35.0004         32.0004
 -17561081.11848 -13962276.69647  20571845.4304                   20571833.7814
        49.2504         43.0004
 -20424764.55248 -15792674.62148  21975796.5704                   21975788.2034
        48.0004         49.5004
 -19064580.73948 -13892267.03146  22177795.6644                   22177783.5474
        48.0004         38.5004
  -6384606.67246  -4940955.71143  24454793.6334                   24454782.8634
        37.5004         20.0004
 -22950149.53948 -17830922.61349  20985248.8834                   20985237.5864
        50.7504         54.7504
 -19505934.79547 -14958130.12647  21942616.1334                   21942606.4184
        45.7504         47.0004
  -9250173.65246  -7444534.32845  23544084.3284                   23544078.3634
        36.2504         34.7504
 -16477845.35748 -19352723.53349  21048688.1094                   21048678.2194
        53.5004         54.7504
 23  1  8  1 46  0.0000000  0 11G23G17G03G22G10G21G12G31G01G25G32
  -7926046.02245  -7989048.99543  24976361.6094                   24976355.2934
        33.0004         18.2504
     -7227.730 5                  25859857.586
        32.000
  -5015513.83746  -4052722.89945  24704689.3594                   24704679.9384
        37.2504         33.2504
 -17567980.88248 -13967653.13447  20570532.5474                   20570520.8984
        49.5004         42.7504
 -20353513.37548 -15737154.27648  21989355.7114                   21989347.1094
        48.0004         49.5004
 -19059584.51748 -13888373.88746  22178746.6094                   22178734.1414
        49.2504         38.5004
  -6396671.94846  -4950357.25943  24452497.9844                   24452486.7464
        37.5004         19.2504
 -23022651.02048 -17887417.27649  20971451.8674                   20971440.0434
        50.2504         54.7504
 -19548771.29147 -14991509.22347  21934463.4924                   21934455.1254
        45.2504         47.0004
  -9297010.66946  -7481030.68945  23535171.8674                   23535164.7894
        36.2504         35.2504
 -16436464.46648 -19320478.69449  21056562.2584                   21056552.7194
        53.5004         54.7504
 23  1  8  1 46 30.0000000  0 11G23G17G03G22G10G21G12G31G01G25G32
  -7825827.99945  -7910957.27343  24995435.2814                   24995426.7974
        34.0004         19.0004
    -22625.77045    254893.61952  25856927.1644                   25856917.6254
        31.7504         14.7504
  -5116624.13346  -4131510.13845  24685447.1094                   24685439.0944
        36.0004         32.2504
 -17574588.19748 -13972801.68847  20569275.2504                   20569263.3094
        49.7504         43.0004
 -20281944.92547 -15681386.69548  22002974.6804                   22002966.1374
        47.5004         49.0004
 -19054101.43948 -13884101.36446  22179789.8674                   22179777.2814
        48.5004         38.5004
  -6408175.02146  -4959320.65743  24450309.9304                   24450296.5234
        38.5004         18.5004
 -23094644.17048 -17943515.82649  20957752.3204                   20957740.6134
        51.2504         54.7504
 -19591013.75647 -15024425.41447  21926425.8204                   21926417.0434
        46.0004         47.2504
  -9343370.17545  -7517154.97645  23526349.9224                   23526342.8444
        35.5004         34.5004
 -16394837.08748 -19288041.78949  21064483.6094                   21064474.4224
        53.5004         55.0004
 23  1  8  1 47  0.0000000  0 11G23G17G03G22G10G21G12G31G01G25G32
  -7725495.69645  -7832776.51842  25014526.8364                   25014518.7624
        34.2504         17.2504
    -37556.67645    243259.06842  25854086.9304                   25854077.1564
        30.0004         14.7504
  -5217724.95946  -4210289.99145  24666209.2034                   24666199.9574
        38.0004         32.7504
 -17580903.78548 -13977722.93347  20568073.1484                   20568061.6174
        50.0004         43.0004
 -20210059.80247 -15625372.37248  22016653.9924                   22016645.0984
        47.7504         49.0004
 -19048131.87648 -13879449.76946  22180926.2344                   22180913.8244
        49.0004         38.7504
  -6419114.44646  -4967844.92543  24448227.9614                   24448214.7894
        37.5004         19.0004
 -23166126.90048 -17999216.66349  20944149.6804                   20944137.7384
        50.5004         54.7504
 -19632660.62347 -15056877.52247  21918501.4614                   21918492.0394
        45.0004         47.5004
  -9389249.72746  -7552905.27045  23517619.5554                   23517612.4774
        36.7504         34.5004
 -16352964.28948 -19255413.65249  21072451.9924                   21072442.6294
        52.7504         55.0004
 23  1  8  1 47 30.0000000  0 11G23G17G03G22G10G21G12G31G01G25G32
  -7625050.23745  -7754507.57243  25033641.5554                   25033633.7154
        34.2504         18.2504
    -52020.70645    231988.41542  25851333.2504                   25851324.8834
        31.5004         15.5004
  -5318814.83446  -4289061.31345  24646972.0474                   24646963.6214
        38.2504         33.5004
 -17586928.13348 -13982417.22847  20566927.0164                   20566915.2504
        49.0004         42.7504
 -20137858.61547 -15569111.74648  22030392.8984                   22030384.7074
        47.7504         48.7504
 -19041676.00048 -13874419.22546  22182154.2114                   22182142.0354
        48.2504         39.0004
  -6429488.98646  -4975929.01843  24446253.9454                   24446241.0664
        38.5004         20.5004
 -23237097.00148 -18054518.02349  20930644.3914                   20930632.8594
        50.5004         54.7504
 -19673710.23147 -15088864.23547  21910688.5554                   21910680.3054
        44.7504         47.5004
  -9434646.69546  -7588279.53645  23508981.6724                   23508974.0084
        37.0004         35.2504
 -16310846.87648 -19222594.90149  21080466.9694                   21080457.3714
        53.0004         54.7504
 23  1  8  1 48  0.0000000  0 11G23G17G03G22G10G21G12G31G01G25G32
  -7524491.77645  -7676150.55642  25052776.5704                   25052769.6684
        32.2504         17.7504
    -66016.68145    221082.44342  25848670.3364                   25848662.1454
        30.7504         16.2504
  -5419891.43146  -4367822.27745  24627737.8054                   24627729.4964
        37.5004         33.7504
 -17592661.11048 -13986884.49347  20565835.7504                   20565824.1604
        49.7504         43.0004
 -20065340.91247 -15512604.50648  22044193.1254                   22044184.5234
        47.5004         48.5004
 -19034733.45548 -13869009.46346  22183475.7034                   22183463.1764
        49.2504         39.0004
  -6439297.11946  -4983571.69843  24444385.8444                   24444376.1294
        37.0004         21.0004
 -23307551.55848 -18109417.68349  20917237.3444                   20917225.2854
        50.5004         54.7504
 -19714160.16347 -15120383.65347  21902991.1724                   21902983.2734
        44.7504         47.5004
  -9479557.82846  -7623275.21345  23500435.5634                   23500427.5474
        37.0004         35.2504
 -16268484.94048 -19189585.62149  21088527.8594                   21088518.2624
        52.5004         55.0004
 23  1  8  1 48 30.0000000  0 11G23G17G03G22G10G21G12G31G01G25G32
  -7423822.52046  -7597707.26642  25071937.1484                   25071926.6134
        37.2504         17.7504
    -79545.748 5                  25846094.656
        31.500
  -5520954.70246  -4446572.88445  24608505.7504                   24608497.5594
        36.5004         33.0004
 -17598104.38048 -13991126.00747  20564799.9224                   20564788.6844
        49.5004         43.0004
 -19992508.78147 -15455852.23648  22058053.1174                   22058043.8134
        47.7504         48.5004
 -19027305.79548 -13863221.68546  22184888.6024                   22184876.6604
        48.2504         38.5004
  -6448539.13745  -4990773.33343  24442626.7974                   24442618.6054
        35.0004         21.0004
 -23377489.74248 -18163914.96649  20903928.3364                   20903916.2774
        50.7504         54.7504
 -19754010.09247 -15151435.54647  21895408.7344                   21895399.7814
        45.5004         47.5004
  -9523981.91946  -7657891.39745  23491979.8834                   23491973.0394
        36.2504         34.7504
 -16225880.70448 -19156387.53449  21096635.1334                   21096625.7704
        52.0004         54.7504
 23  1  8  1 49  0.0000000  0 11G23G17G03G22G10G21G12G31G01G25G32
  -7323042.28245  -7519177.47043  25091110.9064                   25091105.5274
        33.0004         19.5004
    -92606.239 5                  25843612.125
        32.000
  -5622001.96346  -4525310.98345  24589278.2734                   24589269.3204
        37.5004         34.0004
 -17603257.74848 -13995141.62147  20563819.2344                   20563807.8204
        48.5004         43.0004
 -19919361.32847 -15398854.26748  22071971.6804                   22071963.3134
        47.0004         48.2504
 -19019391.79348 -13857054.94946  22186394.8444                   22186382.7274
        48.0004         38.5004
  -6457212.43246  -4997531.71543  24440977.5784                   24440966.9264
        37.7504         20.0004
 -23446907.93348 -18218007.05749  20890718.8054                   20890707.0394
        50.7504         54.7504
 -19793257.16147 -15182017.69347  21887939.8204                   21887931.1604
        46.0004         47.5004
  -9567915.20846  -7692125.12445  23483621.1804                   23483612.6374
        36.0004         35.0004
 -16183033.76348 -19123000.32549  21104788.7664                   21104779.5784
        52.5004         54.7504
 23  1  8  1 49 30.0000000  0 11G23G17G03G22G10G21G12G31G01G25G32
  -7222153.10145  -7440562.72943  25110312.5704                   25110304.2624
        35.2504         19.2504
   -105199.009 5                  25841213.742
        31.250
  -5723032.71846  -4604036.22945  24570051.5004                   24570043.1914
        36.5004         33.7504
 -17608122.24248 -13998932.13047  20562893.7894                   20562882.3754
        49.0004         43.5004
 -19845900.49947 -15341612.12548  22085951.1644                   22085942.3284
        46.2504         48.2504
 -19010992.68948 -13850510.20546  22187992.8834                   22187980.9414
        48.5004         38.5004
  -6465317.14646  -5003847.09943  24439434.8754                   24439424.6334
        36.0004         21.2504
 -23515805.35248 -18271693.36249  20877607.8444                   20877596.3714
        50.2504         54.7504
 -19831900.88947 -15212129.68747  21880585.7274                   21880577.5354
        44.7504         47.5004
  -9611356.27246  -7725975.28845  23475352.7114                   23475346.7464
        36.2504         35.5004
 -16139946.04748 -19089425.49949  21112988.0084                   21112978.5864
        51.7504         54.7504
 23  1  8  1 50  0.0000000  0 11G23G17G03G22G10G21G12G31G01G25G32
  -7121156.41345  -7361864.25043  25129529.4304                   25129522.8204
        34.2504         19.0004
   -117324.192 5                  25838906.883
        31.000
  -5824045.97446  -4682747.83045  24550829.3134                   24550821.1214
        37.2504         34.0004
 -17612699.08948 -14002498.51447  20562022.6884                   20562011.3324
        48.0004         43.2504
 -19772126.76447 -15284126.13248  22099989.9064                   22099981.3054
        46.2504         48.0004
 -19002108.89447 -13843587.78246  22189683.8754                   22189671.6994
        47.2504         38.5004
  -6472852.76846  -5009719.03143  24438000.8134                   24437991.0394
        38.2504         22.5004
 -23584180.05448 -18324972.34749  20864596.2974                   20864585.2344
        50.0004         55.0004
 -19869940.16947 -15241770.67747  21873347.0554                   21873338.6884
        44.5004         47.5004
  -9654303.17146  -7759440.39345  23467181.9144                   23467174.2504
        37.5004         35.0004
 -16096618.82448 -19055664.05249  21121233.0634                   21121223.8754
        50.7504         54.7504
 23  1  8  1 50 30.0000000  0 11G23G17G03G22G10G21G12G31G01G25G32
  -7020052.55445  -7283082.37343  25148770.7344                   25148763.7154
        35.5004         19.2504
   -128980.76914                  25836689.102
        29.250
  -5925039.56246  -4761444.12545  24531612.0394                   24531603.0274
        37.5004         34.2504
 -17616988.21448 -14005840.69247  20561206.6724                   20561194.8484
        48.0004         43.2504
 -19698040.31947 -15226396.48448  22114088.4384                   22114079.7774
        47.2504         48.0004
 -18992740.73747 -13836287.93046  22191466.5084                   22191454.2154
        47.7504         38.7504
  -6479817.68546  -5015146.24243  24436675.2974                   24436665.4654
        37.5004         21.5004
 -23652029.65248 -18377842.16249  20851685.3054                   20851673.5984
        49.7504         55.0004
 -19907372.83647 -15270938.99348  21866224.4534                   21866215.6764
        45.0004         48.0004
  -9696752.71446  -7792517.95745  23459104.1094                   23459097.0314
        38.0004         35.5004
 -16053052.38848 -19021716.19249  21129523.5784                   21129513.8634
        52.0004         55.0004
 23  1  8  1 51  0.0000000  0 11G23G17G03G22G10G21G12G31G01G25G32
  -6918842.57845  -7204217.62442  25168029.6174                   25168022.4224
        35.0004         17.2504
   -140168.66015                  25834560.922
        30.000
  -6026012.13646  -4840124.03545  24512398.1254                   24512388.6454
        38.2504         34.7504
 -17620990.18448 -14008959.11547  20560444.9454                   20560433.5904
        48.7504         43.5004
 -19623641.70747 -15168423.57847  22128245.7664                   22128237.5164
        46.2504         47.7504
 -18982888.12747 -13828610.58946  22193341.2274                   22193329.0514
        47.7504         39.0004
  -6486211.39546  -5020128.38243  24435459.5864                   24435449.5204
        36.2504         20.5004
 -23719352.09448 -18430301.20749  20838873.7114                   20838862.2974
        49.5004         54.7504
 -19944197.46647 -15299633.52047  21859216.5944                   21859208.2274
        44.7504         47.7504
  -9738702.60746  -7825206.14946  23451122.5554                   23451114.1294
        38.2504         36.0004
 -16009247.63948 -18987582.63949  21137859.2034                   21137849.9574
        51.2504         55.0004
 23  1  8  1 51 30.0000000  0 11G23G17G03G22G10G21G12G31G01G25G32
  -6817527.76445  -7125271.23343  25187307.1484                   25187302.7704
        31.2504         18.5004
   -150887.81114                  25832519.906
        28.500
  -6126962.48146  -4918786.60745  24493187.2034                   24493178.1334
        38.0004         35.0004
 -17624706.12048 -14011854.65347  20559737.9774                   20559726.5044
        49.0004         43.2504
 -19548931.95647 -15110208.23547  22142462.4844                   22142454.2934
        45.7504         47.7504
 -18972551.64147 -13820556.20346  22195308.2114                   22195296.0354
        47.0004         38.7504
  -6492032.66245  -5024664.50843  24434350.0234                   24434341.4804
        34.7504         19.7504
 -23786145.23048 -18482347.79349  20826164.4384                   20826152.5554
        50.7504         54.7504
 -19980412.84347 -15327853.29447  21852325.0234                   21852316.7734
        44.0004         47.5004
  -9780150.73946  -7857503.39845  23443233.7424                   23443225.7854
        38.0004         35.5004
 -15965205.65848 -18953264.23749  21146239.9844                   21146230.7974
        50.2504         54.7504
 23  1  8  1 52  0.0000000  0 11G23G17G03G22G10G21G12G31G01G25G32
  -6716109.08846  -7046244.05043  25206611.4774                   25206603.0514
        37.5004         19.5004
   -161138.319 4                  25830569.789
        29.250
  -6227889.02746  -4997430.66145  24473981.2194                   24473972.0904
        38.5004         34.7504
 -17628136.20747 -14014527.45547  20559085.3284                   20559073.3874
        47.7504         43.2504
 -19473911.58247 -15051750.84747  22156738.5784                   22156729.9184
        46.2504         47.5004
 -18961731.99647 -13812125.31946  22197367.0554                   22197354.9964
        47.7504         39.0004
  -6497280.86445  -5028754.05043  24433351.9614                   24433342.5394
        35.0004         20.0004
 -23852407.40248 -18533980.66149  20813554.7974                   20813543.0314
        49.2504         54.7504
 -20016017.52047 -15355597.20747  21845549.5234                   21845541.3914
        44.5004         47.7504
  -9821094.72546  -7889407.78146  23435442.2034                   23435435.2424
        39.0004         36.0004
 -15920927.43248 -18918761.73949  21154666.3444                   21154656.6294
        51.5004         54.7504
 23  1  8  1 52 30.0000000  0 11G23G17G03G22G10G21G12G31G01G25G32
  -6614587.03145  -6967136.18842  25225927.0164                   25225921.3444
        34.5004         17.7504
   -170919.87115                  25828707.992
        31.000
  -6328789.79246  -5076054.60345  24454780.0634                   24454771.4024
        38.5004         35.5004
 -17631280.70548 -14016977.71547  20558486.9924                   20558474.9344
        48.2504         43.2504
 -19398580.81147 -14993051.58647  22171073.1024                   22171065.0274
        46.5004         47.5004
 -18950429.66248 -13803318.32346  22199518.1414                   22199505.7894
        48.0004         38.7504
  -6501954.66946  -5032395.94943  24432463.7034                   24432452.1134
        37.5004         20.5004
 -23918135.86648 -18585197.64149  20801046.2504                   20801035.2464
        49.2504         54.7504
 -20051009.60047 -15382863.76647  21838891.9454                   21838882.3484
        44.2504         47.7504
  -9861531.67046  -7920917.07945  23427747.3524                   23427740.0394
        38.7504         35.7504
 -15876413.20848 -18884075.34349  21163137.1174                   21163127.6374
        51.0004         55.0004
