     2.11           OBSERVATION DATA    G (GPS)             RINEX VERSION / TYPE
teqc  2019Feb25     Salamtina Y.M.      20230920 03:20:35UTCPGM / RUN BY / DATE
OBSERVATION MODE: Permanent                                 COMMENT
CHUM Chumysh (CHUM)                                         MARKER NAME
25601M001                                                   MARKER NUMBER
4549261325          TRIMBLE NETRS        1.3-2              REC # / TYPE / VERS
237                 AOAD/M_T        NONE                    ANT # / TYPE
        0.0900        0.0000        0.0000                  ANTENNA: DELTA H/E/N
  1228950.3055  4508080.0101  4327868.5379                  APPROX POSITION XYZ
  74.75110461  42.99850159  716.3322  LonLatAlt  S/W        COMMENT
ANT ADDED FROM RCV_ANT.txt                                  COMMENT
Linux 2.6.32-573.12.1.x86_64|x86_64|gcc|Linux 64|=+         COMMENT
BIT 2 OF LLI FLAGS DATA COLLECTED UNDER A/S CONDITION       COMMENT
Konovalov S.M.      RS_RAS                                  OBSERVER / AGENCY
     1     1                                                WAVELENGTH FACT L1/2
     7    L1    L2    C1    P1    P2    S1    S2            # / TYPES OF OBSERV
    30.0000                                                 INTERVAL
    18                                                      LEAP SECONDS
TIME: 2023.01.11                                            COMMENT
TOUR: cont                                                  COMMENT
RSET: RAS02                                                 COMMENT
ASET: DS24                                                  COMMENT
OPER: skon (Konovalov S.M.)                                 COMMENT
SOUR: chum202301110000d.dat                                 COMMENT
SUPP: chum202301110000d.eph                                 COMMENT
SUPP: chum202301110000d.ion                                 COMMENT
SUPP: chum202301110000d.mes                                 COMMENT
Forced Modulo Decimation to 30 seconds                      COMMENT
 SNR is mapped to RINEX snr flag value [0-9]                COMMENT
  L1 & L2: min(max(int(snr_dBHz/6), 0), 9)                  COMMENT
  2023     1    11     0     0    0.0000000     GPS         TIME OF FIRST OBS
  2023     1    11    23    59   30.0000000     GPS         TIME OF LAST OBS
                                                            END OF HEADER
 23  1 11  0  0  0.0000000  0 11G22G08G27G23G24G21G10G18G31G01G32
 -16762698.10847  -8091797.70545  21892075.1094                   21892064.9844
        45.7504         34.0004
  -8325992.44346  -6444163.26346  23764608.8754                   23764602.1484
        39.5004         36.5004
  -8091476.49446  -6035423.98745  24079491.1414                   24079482.3054
        36.5004         32.7504
 -11467362.48847 -13421841.92746  21966426.6334                   21966416.2734
        46.0004         36.5004
 -10967305.00546  -9054105.06244  22905705.9534                   22905699.0514
        38.0004         29.2504
 -11454457.85147  -8625486.59444  23500840.9844                   23500828.2814
        43.0004         28.5004
 -27203954.83148 -21063302.75949  20544793.7814                   20544785.0044
        52.5004         55.0004
   1730500.24946  -5168394.63944  24444305.5634                   24444296.6684
        39.2504         26.0004
  -3262438.49846  -2513971.82645  24687969.6334                   24687959.6254
        36.5004         32.7504
                                  24954375.5164                   24954366.6214
        31.5004         16.7504
 -23928942.82648 -20293023.02849  20613323.6174                   20613314.8404
        52.0004         54.7504
 23  1 11  0  0 30.0000000  0 11G22G08G27G23G24G21G10G18G31G01G32
 -16830463.72847  -8144602.07445  21879179.8754                   21879169.4574
        46.2504         34.0004
  -8276293.58346  -6405436.90246  23774067.1484                   23774059.4264
        40.7504         36.2504
  -8002612.66145  -5966179.45245  24096399.4064                   24096394.0274
        35.2504         32.0004
 -11402158.84847 -13371033.91246  21978834.1094                   21978823.8094
        45.2504         36.5004
 -10896331.46046  -8998801.02744  22919212.1644                   22919203.9734
        39.0004         29.0004
 -11526684.54147  -8681767.16944  23487095.9844                   23487084.5704
        42.2504         27.2504
 -27193549.72548 -21055194.89749  20546773.8364                   20546765.0004
        51.7504         55.0004
   1845139.10046  -5079065.68844  24466121.8524                   24466111.6094
        38.7504         25.2504
  -3381831.27846  -2607005.15545  24665251.2034                   24665240.0234
        37.7504         34.0004
                                  24933216.9144                   24933209.6024
        29.5004         16.7504
 -23950723.15148 -20309994.69649  20609179.0004                   20609170.2814
        51.7504         54.7504
 23  1 11  0  1  0.0000000  0 11G22G08G27G23G24G21G10G18G31G01G32
 -16897912.46147  -8197159.50745  21866344.7664                   21866334.2304
        46.5004         34.0004
  -8226178.67146  -6366386.32545  23783603.2114                   23783594.5514
        40.5004         35.5004
  -7913588.52646  -5896809.99845  24113341.7274                   24113333.7114
        37.2504         33.5004
 -11336721.54447 -13320043.81346  21991286.2114                   21991275.9694
        44.7504         36.0004
 -10824860.14846  -8943109.06444  22932813.9774                   22932803.5004
        39.0004         26.7504
 -11598637.39747  -8737834.31644  23473403.8284                   23473392.7664
        42.0004         28.0004
 -27182844.77448 -21046853.37749  20548811.2274                   20548802.5664
        50.7504         54.7504
   1959880.01846  -4989657.17644  24487955.6174                   24487946.1954
        38.7504         24.7504
  -3501243.19346  -2700053.42745  24642526.8914                   24642516.9414
        37.2504         34.2504
                                  24912081.8754                   24912075.8524
        31.5004         16.2504
 -23972092.74848 -20326646.32349  20605112.5634                   20605103.9614
        51.0004         54.7504
 23  1 11  0  1 30.0000000  0 11G22G08G27G23G24G21G10G18G31G01G32
 -16965042.73047  -8249468.78545  21853570.2664                   21853559.7894
        46.7504         34.2504
  -8175649.28046  -6327012.80245  23793216.7034                   23793210.2114
        38.0004         34.5004
  -7824406.27546  -5827317.34445  24130312.8754                   24130304.8014
        36.7504         33.0004
 -11271049.96047 -13268871.17146  22003783.0864                   22003772.9614
        45.0004         36.0004
 -10752892.61546  -8887030.48344  22946506.2344                   22946500.3284
        37.2504         27.5004
 -11670313.71547  -8793686.00344  23459764.6094                   23459752.2584
        42.5004         28.5004
 -27171838.34548 -21038276.94049  20550905.3914                   20550896.9064
        50.5004         54.7504
   2074721.75146  -4900170.13244  24509809.6884                   24509799.6804
        38.5004         25.0004
  -3620670.33246  -2793113.55145  24619801.4144                   24619790.5274
        38.5004         34.5004
                                  24890969.3754                   24890963.5864
        30.0004         16.2504
 -23993051.07348 -20342977.47749  20601124.1414                   20601115.4804
        50.7504         55.0004
 23  1 11  0  2  0.0000000  0 11G22G08G27G23G24G21G10G18G31G01G32
 -17031856.60447  -8301531.52545  21840856.1254                   21840845.5314
        47.0004         34.2504
  -8124710.01746  -6287319.90345  23802911.1254                   23802904.8094
        39.5004         35.5004
  -7735071.66746  -5757705.97445  24147312.8364                   24147304.9964
        37.2504         33.0004
 -11205146.97547 -13217518.20746  22016324.3984                   22016314.2734
        46.2504         36.7504
 -10680433.83046  -8830569.11244  22960296.6024                   22960288.2934
        38.2504         27.5004
 -11741714.18146  -8849322.73044  23446177.1174                   23446165.5864
        41.7504         29.0004
 -27160532.65248 -21029467.31349  20553056.4224                   20553048.0554
        50.2504         54.7504
   2189659.46646  -4810608.24743  24531681.7114                   24531672.1134
        38.5004         23.5004
  -3740112.46246  -2886185.34845  24597071.7344                   24597061.0824
        37.0004         34.0004
  -2484269.67355   -961807.03252  24869880.6564                   24869872.5824
        33.2504         16.7504
 -24013601.06048 -20358990.44249  20597213.9144                   20597204.9614
        50.7504         54.7504
 23  1 11  0  2 30.0000000  0 11G22G08G27G23G24G21G10G18G31G01G32
 -17098350.73347  -8353345.10445  21828202.5164                   21828192.0394
        47.0004         34.5004
  -8073360.93946  -6247307.66346  23812684.1884                   23812676.9344
        40.2504         36.0004
  -7645585.07046  -5687976.18845  24164340.4224                   24164333.1684
        37.2504         32.2504
 -11139010.21647 -13165983.08945  22028909.7664                   22028899.4064
        46.0004         35.7504
 -10607483.72446  -8773724.86544  22974178.2344                   22974170.1604
        37.5004         26.7504
 -11812834.55547  -8904741.19544  23432643.9924                   23432632.2854
        43.7504         29.2504
 -27148924.45048 -21020421.96649  20555265.6094                   20555257.6524
        51.0004         55.0004
   2304693.81546  -4720971.13444  24553571.5634                   24553561.9064
        38.0004         24.2504
  -3859564.11046  -2979264.56745  24574341.8674                   24574330.4534
        39.2504         35.0004
  -2594974.97455  -1048071.00352  24848812.5004                   24848806.1254
        31.0004         17.2504
 -24033740.46148 -20374683.46949  20593381.3674                   20593372.5904
        51.2504         55.0004
 23  1 11  0  3  0.0000000  0 11G22G08G27G23G24G21G10G18G31G01G32
 -17164525.00247  -8404909.45245  21815610.2584                   21815599.4884
        47.0004         35.0004
  -8021605.09446  -6206978.45245  23822531.2664                   23822524.8914
        38.5004         34.7504
  -7555949.98546  -5618130.67545  24181398.3834                   24181390.4844
        38.0004         33.2504
 -11072640.22547 -13114266.22846  22041539.1954                   22041529.2464
        45.2504         36.0004
 -10534045.00646  -8716499.91044  22988154.0394                   22988144.7344
        38.2504         26.5004
 -11883672.50647  -8959939.60044  23419163.7034                   23419151.6454
        43.0004         28.7504
 -27137013.49248 -21011140.70849  20557531.5314                   20557523.1644
        51.7504         55.0004
   2419822.17146  -4631260.69943  24575481.2194                   24575470.3914
        38.7504         22.5004
  -3979023.01446  -3072349.42545  24551609.7504                   24551598.2774
        38.7504         34.5004
  -2705554.21755  -1134236.61453  24827770.5394                   24827763.9884
        32.0004         18.5004
 -24053469.89148 -20390057.04549  20589627.0554                   20589618.1604
        51.5004         54.7504
 23  1 11  0  3 30.0000000  0 11G22G08G27G23G24G21G10G18G31G01G32
 -17230379.72747  -8456224.80745  21803078.2194                   21803067.8594
        46.2504         34.7504
  -7969445.49546  -6166334.66345  23832456.7424                   23832448.9614
        38.5004         34.0004
  -7466170.65046  -5548172.77445  24198483.5634                   24198474.9024
        38.5004         33.5004
 -11006038.52647 -13062368.81545  22054213.4844                   22054203.5944
        46.2504         35.5004
 -10460121.43346  -8658897.13044  23002221.0784                   23002212.2424
        38.0004         27.0004
 -11954227.74447  -9014917.70344  23405738.0314                   23405725.5044
        43.0004         28.5004
 -27124800.66648 -21001624.22349  20559856.0634                   20559847.7544
        52.0004         54.7504
   2535041.22746  -4541479.59643  24597404.6954                   24597395.3914
        37.0004         23.7504
  -4098487.28046  -3165438.52445  24528875.5634                   24528864.9694
        38.2504         35.0004
  -2816005.59245  -1220302.63042  24806751.9844                   24806744.9654
        31.5004         17.7504
 -24072791.00748 -20405112.44949  20585950.3054                   20585941.6454
        52.5004         54.7504
 23  1 11  0  4  0.0000000  0 11G22G08G27G23G24G21G10G18G31G01G32
 -17295913.50147  -8507290.06345  21790607.8284                   21790596.8834
        47.7504         35.5004
  -7916884.04346  -6125377.69445  23842460.1724                   23842452.0984
        40.0004         34.7504
  -7376249.12746  -5478104.07645  24215594.2734                   24215586.1414
        38.2504         32.5004
 -10939204.36547 -13010290.26645  22066931.8204                   22066921.4614
        46.0004         35.7504
 -10385714.37846  -8600917.61144  23016379.1804                   23016371.7504
        37.5004         25.5004
 -12024496.66647  -9069672.70944  23392365.9384                   23392353.8794
        43.7504         29.0004
 -27112284.34048 -20991871.24549  20562237.6644                   20562229.7074
        51.2504         54.7504
   2650349.92846  -4451628.68743  24619347.2894                   24619338.2774
        37.5004         22.7504
  -4217953.23746  -3258528.86845  24506142.6334                   24506131.4534
        38.7504         35.2504
  -2926325.65045  -1306266.29042  24785758.8134                   24785751.6174
        33.7504         17.2504
 -24091703.05348 -20419849.09949  20582351.1254                   20582342.8164
        52.2504         54.7504
 23  1 11  0  4 30.0000000  0 11G22G08G27G23G24G21G10G18G31G01G32
 -17361126.81847  -8558105.61845  21778197.7894                   21778187.4304
        47.0004         35.2504
  -7863924.03146  -6084110.16445  23852539.0944                   23852531.1374
        39.0004         34.7504
  -7286189.75046  -5407927.93745  24232733.4774                   24232725.1094
        40.0004         34.2504
 -10872139.10447 -12958031.64645  22079693.0864                   22079683.4884
        46.2504         35.7504
 -10310827.54046  -8542564.23044  23030630.8364                   23030621.5904
        38.0004         26.0004
 -12094479.05147  -9124204.43444  23379048.1644                   23379036.6914
        42.5004         29.0004
 -27099465.15648 -20981882.27149  20564677.3674                   20564668.7664
        50.0004         55.0004
   2765744.91246  -4361710.49843  24641305.9774                   24641297.3164
        38.0004         23.5004
  -4337419.18846  -3351619.25945  24483408.0704                   24483397.8284
        38.7504         35.0004
  -3036512.80045  -1392126.38943  24764792.0474                   24764783.5634
        33.7504         18.2504
 -24110207.63648 -20434268.24549  20578830.0084                   20578821.5234
        51.2504         54.7504
 23  1 11  0  5  0.0000000  0 11G22G08G27G23G24G21G10G18G31G01G32
 -17426017.54247  -8608669.78945  21765849.9694                   21765839.3754
        47.2504         35.7504
  -7810566.49346  -6042532.90245  23862689.3984                   23862684.4924
        36.0004         34.0004
  -7195993.88346  -5337645.46945  24249894.7424                   24249887.5474
        37.5004         32.2504
 -10804841.38547 -12905591.87445  22092499.7504                   22092489.7424
        46.5004         35.7504
 -10235461.79946  -8483837.68044  23044972.0314                   23044963.4304
        38.2504         26.7504
 -12164171.29347  -9178510.06445  23365786.4534                   23365774.6884
        43.5004         30.0004
 -27086340.93948 -20971655.61049  20567175.0084                   20567166.5234
        51.5004         54.7504
   2881225.72246  -4271725.48043  24663282.2274                   24663272.4534
        38.7504         22.2504
  -4456880.74646  -3444706.18046  24460676.3134                   24460665.2504
        38.7504         36.0004
  -3146562.91045  -1477879.66243  24743849.2894                   24743842.0944
        32.2504         18.2504
 -24128303.47948 -20448368.88749  20575387.4454                   20575379.3134
        52.2504         55.0004
 23  1 11  0  5 30.0000000  0 11G22G08G27G23G24G21G10G18G31G01G32
 -17490586.26747  -8658983.07646  21753563.1644                   21753552.0434
        47.2504         36.0004
  -7756815.14746  -6000648.79945  23872918.9144                   23872912.2464
        37.0004         33.5004
  -7105666.00446  -5267260.11345  24267084.8754                   24267076.0394
        39.0004         33.0004
 -10737312.88847 -12852972.28145  22105350.4384                   22105340.0204
        46.5004         35.5004
 -10159621.08046  -8424741.02544  23059403.8984                   23059396.1174
        37.5004         26.2504
 -12233572.48947  -9232588.92144  23352580.9144                   23352568.3284
        43.7504         29.2504
 -27072912.50448 -20961191.90149  20569730.2974                   20569721.8134
        51.5004         55.0004
   2996788.76746  -4181676.34544  24685271.9614                   24685263.7114
        37.0004         24.7504
  -4576336.44146  -3537788.57845  24437945.5314                   24437933.4144
        38.7504         35.7504
  -3256474.62445  -1563525.21643  24722934.3984                   24722926.4414
        34.0004         19.0004
 -24145992.47048 -20462152.51349  20572020.5314                   20572012.5744
        52.2504         55.0004
 23  1 11  0  6  0.0000000  0 11G22G08G27G23G24G21G10G18G31G01G32
 -17554832.03147  -8709044.67645  21741337.1174                   21741326.6414
        47.0004         35.0004
  -7702672.50546  -5958459.71645  23883224.7734                   23883215.5274
        39.5004         34.5004
  -7015209.13846  -5196774.28545  24284298.6024                   24284290.5274
        39.0004         33.7504
 -10669553.86447 -12800173.06245  22118244.6564                   22118233.8874
        46.2504         35.5004
 -10083307.77346  -8365276.13444  23073925.7344                   23073916.8404
        37.5004         25.7504
 -12302680.76747  -9286439.51644  23339428.5784                   23339417.1054
        42.5004         28.5004
 -27059179.30748 -20950490.71249  20572343.4774                   20572335.4614
        52.0004         55.0004
   3112432.01546  -4091564.73643  24707277.9774                   24707269.8444
        37.5004         22.7504
  -4695783.14046  -3630863.96145  24415214.0554                   24415203.6954
        38.7504         35.5004
  -3366245.32445  -1649060.79442  24702044.0704                   24702037.4614
        31.7504         17.2504
 -24163274.85348 -20475619.29149  20568731.7584                   20568722.8634
        52.2504         54.7504
 23  1 11  0  6 30.0000000  0 11G22G08G27G23G24G21G10G18G31G01G32
 -17618754.86047  -8758854.65045  21729173.2894                   21729162.4024
        47.7504         35.5004
  -7648141.04946  -5915967.66845  23893599.8204                   23893592.7424
        37.7504         34.0004
  -6924626.50446  -5126190.42545  24301534.2814                   24301527.1454
        39.5004         33.2504
 -10601564.67147 -12747194.48745  22131182.3834                   22131172.0824
        46.5004         35.5004
 -10006524.67146  -8305445.12644  23088537.1564                   23088528.7894
        37.7504         27.0004
 -12371494.55947  -9340060.64144  23326334.2894                   23326322.2894
        43.2504         28.2504
 -27045140.98048 -20939551.75649  20575015.2194                   20575005.9734
        51.5004         55.0004
   3228153.20546  -4001392.40743  24729301.1174                   24729290.2304
        39.2504         22.0004
  -4815218.06146  -3723930.16345  24392485.7734                   24392476.1174
        38.0004         35.5004
  -3475872.39746  -1734484.51143  24681185.7504                   24681176.2114
        36.0004         18.2504
 -24180151.24248 -20488769.70949  20565520.2974                   20565511.4614
        53.0004         54.7504
 23  1 11  0  7  0.0000000  0 11G22G08G27G23G24G21G10G18G31G01G32
 -17682352.99347  -8808411.61845  21717070.6804                   21717059.7934
        46.5004         35.7504
  -7593222.35045  -5873173.95345  23904048.1724                   23904043.7344
        35.0004         33.0004
  -6833920.17846  -5055510.14445  24318794.8914                   24318787.9304
        38.5004         33.7504
 -10533344.59947 -12694036.01645  22144164.3674                   22144154.1254
        46.5004         35.5004
  -9929273.27246  -8245249.22944  23103236.8524                   23103229.4224
        37.5004         27.0004
 -12440010.32847  -9393449.57744  23313296.0554                   23313284.8754
        42.7504         28.5004
 -27030795.72748 -20928373.64649  20577744.8054                   20577735.9694
        51.5004         54.7504
   3343951.09246  -3911160.28343  24751336.3834                   24751326.1994
        38.2504         23.0004
  -4934637.50446  -3816984.29345  24369761.4454                   24369750.7344
        37.5004         34.7504
  -3585352.26645  -1819793.51142  24660349.9064                   24660343.1214
        31.7504         17.7504
 -24196621.07248 -20501603.33649  20562386.1484                   20562377.7234
        52.0004         55.0004
 23  1 11  0  7 30.0000000  0 11G22G08G27G23G24G21G10G18G31G01G32
 -17745627.08147  -8857716.08545  21705029.7424                   21705019.3244
        46.5004         35.7504
  -7537919.58946  -5830080.95245  23914575.5314                   23914566.8714
        38.5004         32.5004
  -6743094.18546  -4984736.69045  24336079.8674                   24336072.0864
        39.0004         34.0004
 -10464894.94147 -12640698.63745  22157190.1254                   22157179.8834
        46.5004         35.2504
  -9851557.07746  -8184691.19044  23118027.9224                   23118018.0314
        39.5004         26.2504
 -12508227.44547  -9446605.73844  23300314.3524                   23300302.8204
        42.5004         28.5004
 -27016144.29548 -20916956.94449  20580533.0314                   20580524.4884
        52.0004         54.7504
   3459822.65346  -3820870.75243  24773384.8754                   24773375.6884
        37.0004         21.5004
  -5054039.48346  -3910024.83245  24347039.8364                   24347029.5944
        38.0004         35.0004
  -3694683.19545  -1904986.44743  24639546.6484                   24639538.0474
        35.7504         19.7504
 -24212685.74348 -20514121.26249  20559328.9614                   20559320.5944
        52.2504         55.0004
 23  1 11  0  8  0.0000000  0 11G22G08G27G23G24G21G10G18G31G01G32
 -17808576.75347  -8906767.75445  21693050.6174                   21693040.5514
        46.5004         35.2504
  -7482236.53946  -5786691.53945  23925171.2894                   23925162.5704
        38.7504         33.0004
  -6652152.12046  -4913872.73545  24353384.7114                   24353377.2234
        38.7504         33.7504
 -10396216.51047 -12587183.01545  22170258.6174                   22170248.5514
        46.0004         35.7504
  -9773379.31546  -8123773.42844  23132902.7424                   23132894.6684
        37.5004         25.2504
 -12576144.78847  -9499528.34344  23287390.2504                   23287378.2504
        43.0004         28.0004
 -27001186.60948 -20905301.60549  20583379.3364                   20583370.8524
        51.7504         55.0004
   3575765.16546  -3730525.97043  24795449.5864                   24795439.1684
        38.7504         23.0004
  -5173421.69646  -4003049.95545  24324323.6254                   24324312.1524
        38.5004         35.5004
  -3803863.02245  -1990061.59743  24618767.4844                   24618762.2814
        33.5004         19.0004
 -24228346.25348 -20526324.24249  20556349.0944                   20556340.3164
        52.7504         54.7504
 23  1 11  0  8 30.0000000  0 11G22G08G27G23G24G21G10G18G31G01G32
 -17871200.56247  -8955565.49846  21681134.1254                   21681123.7664
        46.5004         36.0004
  -7426173.93345  -5743006.39345  23935837.2344                   23935831.4454
        33.7504         31.7504
  -6561095.81346  -4842919.77745  24370712.3984                   24370705.2034
        37.7504         33.7504
 -10327308.19847 -12533488.22945  22183371.9144                   22183361.1454
        46.5004         35.5004
  -9694741.11846  -8062496.93544  23147868.9224                   23147859.8524
        39.5004         27.2504
 -12643758.75547  -9552214.54644  23274523.9384                   23274512.1134
        42.7504         29.2504
 -26985920.88248 -20893406.23949  20586284.1804                   20586275.6374
        51.7504         55.0004
   3691777.81545  -3640126.49243  24817524.6484                   24817515.2854
        35.5004         22.0004
  -5292779.86946  -4096056.39945  24301609.0474                   24301598.8634
        37.0004         35.5004
  -3912887.75746  -2075015.91643  24598023.9774                   24598015.3164
        36.0004         19.7504
 -24243601.74248 -20538211.62949  20553445.8834                   20553437.3404
        52.0004         55.0004
 23  1 11  0  9  0.0000000  0 11G22G08G27G23G24G21G10G18G31G01G32
 -17933498.35147  -9004109.21445  21669279.1804                   21669268.3524
        45.7504         35.5004
  -7369734.79645  -5699027.96145  23946578.1094                   23946572.4384
        34.5004         31.7504
  -6469928.93146  -4771880.64245  24388061.1884                   24388053.1724
        37.5004         33.2504
 -10258171.04647 -12479615.12645  22196528.3284                   22196517.6764
        46.0004         35.0004
  -9615645.88646  -8000864.29444  23162918.9224                   23162910.2624
        39.2504         25.7504
 -12711067.54247  -9604662.94444  23261715.5004                   23261703.9694
        43.0004         29.5004
 -26970347.07348 -20881270.80649  20589247.7344                   20589239.6604
        51.5004         54.7504
   3807857.81246  -3549674.53043  24839615.2034                   24839604.4924
        37.5004         22.0004
  -5412111.91246  -4189042.42845  24278901.5234                   24278890.9884
        36.5004         35.0004
  -4021755.31345  -2159847.82043  24577305.1644                   24577297.3834
        34.7504         19.2504
 -24258453.37248 -20549784.31649  20550619.7894                   20550610.9534
        52.0004         54.7504
 23  1 11  0  9 30.0000000  0 11G22G08G27G23G24G21G10G18G31G01G32
 -17995469.60547  -9052398.48146  21657486.3834                   21657475.7894
        46.2504         36.0004
  -7312922.22546  -5654758.41645  23957391.0864                   23957382.7774
        37.2504         32.5004
  -6378654.42046  -4700757.64445  24405431.2814                   24405422.2704
        38.0004         33.7504
 -10188805.19947 -12425563.83645  22209727.5554                   22209717.8984
        45.5004         35.2504
  -9536096.00246  -7938877.36844  23178057.2664                   23178048.4884
        39.0004         26.5004
 -12778070.26747  -9656872.84744  23248965.3054                   23248953.0124
        42.7504         29.2504
 -26954464.79248 -20868895.00649  20592270.3834                   20592261.7234
        51.7504         55.2504
   3924003.13346  -3459171.71643  24861716.2114                   24861705.9694
        36.7504         22.0004
  -5531414.67946  -4282005.63045  24256198.4844                   24256188.0084
        36.2504         35.2504
  -4130462.95946  -2244555.02143  24556619.9534                   24556611.5864
        36.5004         19.7504
 -24272901.46848 -20561042.56649  20547870.4774                   20547861.6414
        52.5004         54.7504
 23  1 11  0 10  0.0000000  0 11G22G08G27G23G24G21G10G18G31G01G32
 -18057114.59747  -9100433.52445  21645756.2974                   21645745.0594
        46.2504         35.7504
  -7255738.71045  -5610199.81645  23968271.3444                   23968263.4454
        35.2504         31.7504
  -6287276.12046  -4629553.77045  24422818.8984                   24422811.5274
        37.7504         33.5004
 -10119211.74447 -12371335.19746  22222971.1254                   22222960.7664
        46.0004         36.0004
  -9456094.94646  -7876538.91444  23193280.3594                   23193272.1684
        39.5004         26.5004
 -12844765.08747  -9708842.84244  23236273.5164                   23236261.8094
        43.2504         29.5004
 -26938274.13248 -20856278.91749  20595351.2034                   20595342.4844
        52.0004         54.7504
   4040210.74845  -3368620.31143  24883827.7894                   24883820.2424
        34.5004         21.7504
  -5650686.18046  -4374944.51045  24233502.8674                   24233492.0394
        37.5004         34.5004
  -4239008.71145  -2329136.10143  24535962.2274                   24535956.4384
        34.7504         18.2504
 -24286947.30948 -20571987.36649  20545197.6954                   20545189.0354
        52.5004         54.7504
 23  1 11  0 10 30.0000000  0 11G22G08G27G23G24G21G10G18G31G01G32
 -18118431.79847  -9148213.14945  21634087.2424                   21634076.6484
        46.0004         35.5004
  -7198185.82545  -5565353.47345  23979222.3524                   23979216.0354
        33.5004         31.0004
  -6195795.59946  -4558270.26745  24440228.2344                   24440219.1644
        38.5004         33.5004
 -10049389.46547 -12316928.23445  22236258.2114                   22236247.6174
        46.2504         35.0004
  -9375643.77546  -7813849.68544  23208590.0634                   23208581.2274
        39.5004         26.0004
 -12911148.06447  -9760569.82645  23223641.7344                   23223629.9694
        44.0004         30.5004
 -26921773.31448 -20843421.13549  20598491.1254                   20598482.5824
        52.2504         55.0004
   4156480.15045  -3278020.79743  24905954.3524                   24905945.5744
        35.5004         21.5004
  -5769921.86246  -4467855.42145  24210811.6254                   24210801.6764
        36.7504         34.5004
  -4347388.44946  -2413587.81243  24515340.8364                   24515332.3524
        36.7504         20.5004
 -24300589.94648 -20582617.98149  20542601.5784                   20542593.0354
        53.2504         55.0004
 23  1 11  0 11  0.0000000  0 11G22G08G27G23G24G21G10G18G31G01G32
 -18179422.02147  -9195737.98146  21622481.1094                   21622470.6334
        46.2504         36.2504
  -7140268.11745  -5520222.84545  23990246.1024                   23990238.3794
        35.5004         32.7504
  -6104217.62346  -4486910.79045  24457653.5864                   24457645.4534
        36.7504         32.7504
  -9979340.42747 -12262344.58345  22249588.1414                   22249577.4304
        45.5004         34.7504
  -9294746.95446  -7750813.21944  23223984.5314                   23223975.8714
        40.0004         27.5004
 -12977219.65647  -9812054.18845  23211068.5944                   23211056.3014
        45.0004         30.7504
 -26904963.22548 -20830322.36549  20601690.3524                   20601681.5164
        52.7504         54.7504
   4272807.32746  -3187376.20443  24928091.8834                   24928081.2304
        36.0004         21.0004
  -5889120.61746  -4560737.59045  24188129.9064                   24188119.0204
        36.7504         34.7504
  -4455601.02845  -2497909.30143  24494746.4384                   24494739.6524
        35.0004         19.7504
 -24313831.54948 -20592936.10549  20540081.7194                   20540073.0594
        52.7504         55.0004
 23  1 11  0 11 30.0000000  0 11G22G08G27G23G24G21G10G18G31G01G32
 -18240083.30147  -9243006.48846  21610937.7814                   21610927.4804
        46.5004         36.0004
  -7081987.13945  -5474809.11045  24001335.6094                   24001328.6484
        35.0004         33.2504
  -6012544.20846  -4415476.94945  24475099.2814                   24475091.5004
        38.2504         33.2504
  -9909063.84847 -12207583.63845  22262960.8284                   22262950.8204
        45.5004         35.0004
  -9213405.94846  -7687430.64144  23239462.9924                   23239455.2704
        39.7504         26.0004
 -13042977.38847  -9863293.97045  23198555.3444                   23198543.3444
        44.0004         30.0004
 -26887842.57148 -20816981.60249  20604947.9694                   20604939.2504
        52.2504         55.2504
   4389191.37346  -3096687.35943  24950239.0394                   24950228.7384
        37.5004         21.7504
  -6008278.34646  -4653587.81245  24165454.2034                   24165444.0784
        36.5004         34.7504
  -4563642.79046  -2582097.62443  24474188.4694                   24474179.8674
        38.7504         20.0004
 -24326671.61948 -20602941.34849  20537638.2504                   20537629.7074
        52.5004         55.0004
 23  1 11  0 12  0.0000000  0 11G22G08G27G23G24G21G10G18G31G01G32
 -18300416.68947  -9290019.49546  21599456.2664                   21599446.1414
        46.2504         36.0004
  -7023345.89445  -5429114.67645  24012493.2194                   24012487.0204
        33.5004         31.0004
  -5920779.42446  -4343971.94945  24492560.3134                   24492552.7074
        36.7504         32.2504
  -9838561.07347 -12152646.42745  22276377.3594                   22276367.1764
        46.0004         35.2504
  -9131624.55046  -7623704.86944  23255026.0394                   23255016.7344
        40.5004         25.2504
 -13108419.05647  -9914287.49645  23186102.5944                   23186090.7114
        44.5004         30.5004
 -26870411.89348 -20803399.26149  20608265.3674                   20608256.2974
        52.2504         55.2504
   4505628.88645  -3005956.80543  24972394.7974                   24972386.2544
        33.5004         21.5004
  -6127393.45046  -4746404.75745  24142786.9694                   24142776.9614
        37.7504         34.5004
  -4671511.90246  -2666151.46843  24453660.3674                   24453653.6414
        36.7504         20.2504
 -24339111.71648 -20612634.92449  20535270.9844                   20535262.5594
        53.5004         55.0004
 23  1 11  0 12 30.0000000  0 11G22G08G27G23G24G21G10G18G31G01G32
 -18360420.15647  -9336775.43146  21588038.5084                   21588027.6804
        46.5004         36.5004
  -6964345.78545  -5383140.65145  24023720.9144                   24023714.0704
        34.5004         30.0004
  -5828924.62046  -4272396.75145  24510040.0084                   24510032.6954
        36.7504         34.0004
  -9767830.77047 -12097531.92345  22289837.1334                   22289826.8914
        45.7504         34.7504
  -9049403.72146  -7559636.69044  23270670.7504                   23270663.3204
        39.0004         25.5004
 -13173541.80247  -9965032.44645  23173709.3914                   23173697.5664
        43.2504         30.5004
 -26852668.96448 -20789573.60249  20611641.4534                   20611632.9104
        52.5004         55.0004
   4622119.59846  -2915184.84643  24994563.7194                   24994553.2424
        36.5004         20.5004
  -6246461.20546  -4839184.87745  24120129.5004                   24120119.2584
        37.5004         35.5004
  -4779204.12346  -2750067.41643  24433168.5004                   24433160.0164
        39.0004         20.5004
 -24351150.70748 -20622015.95349  20532979.9534                   20532971.2934
        52.7504         55.0004
 23  1 11  0 13  0.0000000  0 11G22G08G27G23G24G21G10G18G31G01G32
 -18420095.03047  -9383275.31146  21576682.4064                   21576672.3984
        47.5004         36.0004
  -6904991.51146  -5336890.53145  24035018.1804                   24035009.4614
        36.5004         32.0004
  -5736984.95946  -4200755.48645  24527535.7504                   24527528.4384
        37.0004         32.5004
  -9696875.24247 -12042241.91745  22303338.7894                   22303328.7814
        45.2504         34.7504
  -8966748.20846  -7495229.82644  23286400.6954                   23286391.9774
        40.2504         26.0004
 -13238345.83547 -10015529.12245  23161378.5554                   23161365.9104
        45.0004         31.5004
 -26834615.31548 -20775505.82549  20615077.0704                   20615068.1764
        52.0004         55.2504
   4738659.17945  -2824374.78543  25016739.9454                   25016730.1724
        35.5004         21.5004
  -6365480.53745  -4931927.22245  24097480.3284                   24097471.3754
        35.5004         34.7504
  -4886718.67146  -2833844.97643  24412708.5554                   24412699.6604
        36.7504         19.2504
 -24362791.15048 -20631086.41349  20530764.8364                   20530756.2344
        52.5004         55.0004
 23  1 11  0 13 30.0000000  0 11G22G08G27G23G24G21G10G18G31G01G32
 -18479439.96847  -9429518.10646  21565390.2344                   21565378.9384
        47.7504         36.5004
  -6845284.20645  -5290365.41745  24046378.4534                   24046371.3754
        34.0004         30.2504
  -5644962.11546  -4129049.35545  24545046.5784                   24545038.7974
        36.2504         31.5004
  -9625693.67347 -11986775.78445  22316885.4844                   22316874.7734
        46.0004         35.5004
  -8883659.42646  -7430485.33044  23302212.0474                   23302202.9774
        39.5004         26.0004
 -13302827.78347 -10065774.80345  23149106.6094                   23149095.7814
        43.5004         30.7504
 -26816249.43748 -20761194.75349  20618571.7974                   20618563.0784
        52.0004         55.0004
   4855246.73645  -2733527.28743  25038925.1414                   25038916.0124
        33.5004         21.7504
  -6484447.33046  -5024628.61946  24074843.2344                   24074832.2304
        38.5004         36.7504
  -4994051.61846  -2917480.98243  24392283.8134                   24392275.6804
        39.2504         20.5004
 -24374032.47348 -20639845.88349  20528625.8284                   20528617.1094
        52.7504         54.7504
 23  1 11  0 14  0.0000000  0 11G22G08G27G23G24G21G10G18G31G01G32
 -18538454.53547  -9475503.47246  21554159.3364                   21554148.9184
        47.0004         37.0004
  -6785226.60145  -5243567.36545  24057807.7034                   24057799.4534
        34.7504         30.7504
  -5552859.56846  -4057281.11945  24562574.2504                   24562566.3524
        37.5004         32.0004
  -9554286.65447 -11931133.95245  22330473.5474                   22330462.0744
        45.5004         34.5004
  -8800140.39846  -7365405.53944  23318104.4924                   23318096.4184
        38.7504         26.0004
 -13366986.18547 -10115768.33645  23136898.3834                   23136886.3834
        44.5004         31.0004
 -26797570.82848 -20746639.99049  20622126.4144                   20622117.3444
        52.0004         55.2504
   4971879.94246  -2642644.30943  25061120.0474                   25061111.1524
        36.0004         20.7504
  -6603359.01446  -5117287.09946  24052213.9694                   24052203.9614
        37.5004         36.0004
  -5101200.42446  -3000973.53243  24371893.0004                   24371885.6884
        36.7504         19.5004
 -24384875.42848 -20648294.92749  20526562.3984                   20526553.7384
        52.5004         55.0004
 23  1 11  0 14 30.0000000  0 11G22G08G27G23G24G21G10G18G31G01G32
 -18597138.17947  -9521230.96646  21542992.4144                   21542981.7034
        47.2504         36.2504
  -6724822.19145  -5196498.98545  24069304.1024                   24069294.3874
        35.7504         32.0004
  -5460680.26446  -3985453.13545  24580114.6804                   24580107.0164
        37.0004         31.0004
  -9482654.51447 -11875316.72345  22344104.7584                   22344094.0474
        45.5004         34.5004
  -8716193.86746  -7299992.71244  23334079.3134                   23334071.0634
        39.0004         26.2504
 -13430819.13947 -10165508.30645  23124751.9844                   23124739.3984
        44.0004         31.5004
 -26778578.97248 -20731841.13849  20625740.3914                   20625731.7304
        52.5004         55.2504
   5088556.33046  -2551727.72443  25083325.7034                   25083314.2304
        39.7504         20.5004
  -6722212.86646  -5209900.49546  24029597.0164                   24029586.7734
        38.2504         36.5004
  -5208162.53546  -3084320.61043  24351541.1644                   24351530.8054
        40.2504         20.5004
 -24395320.74548 -20656434.12749  20524574.6804                   20524566.2544
        52.5004         54.7504
 23  1 11  0 15  0.0000000  0 11G22G08G27G23G24G21G10G18G31G01G32
 -18655491.13547  -9566700.79246  21531888.5314                   21531877.3524
        46.7504         36.7504
  -6664072.84945  -5149161.87345  24080860.3594                   24080854.8054
        32.5004         30.7504
  -5368427.42746  -3913567.75545  24597669.2504                   24597661.5864
        36.0004         30.7504
  -9410797.64547 -11819324.36245  22357777.5004                   22357767.6684
        46.5004         34.7504
  -8631822.69746  -7234248.91644  23350134.8524                   23350126.6604
        39.7504         24.7504
 -13494324.91847 -10214993.31145  23112666.1334                   23112654.6604
        43.5004         32.0004
 -26759273.67948 -20716798.05349  20629414.0234                   20629405.3634
        51.5004         54.7504
   5205273.81345  -2460778.90943  25105532.7274                   25105525.4734
        33.0004         18.5004
  -6841005.69446  -5302466.36046  24006992.4384                   24006981.6684
        39.0004         37.0004
  -5314935.07546  -3167519.98343  24331221.5944                   24331214.0474
        37.2504         20.7504
 -24405368.98248 -20664263.91149  20522662.4454                   20522653.8444
        53.0004         54.7504
 23  1 11  0 15 30.0000000  0 11G22G08G27G23G24G21G10G18G31G01G32
 -18713512.31947  -9611912.08846  21520847.0164                   21520836.3634
        47.0004         36.5004
 -11329241.66955  -8784358.43555  24092489.5234                   24092480.1024
        34.2504         31.5004
  -5276103.36045  -3841626.95145  24615237.8674                   24615231.3754
        35.0004         31.0004
  -9338715.88447 -11763156.75545  22371496.6884                   22371483.9264
        46.0004         34.5004
  -8547028.88146  -7168175.82944  23366270.7664                   23366261.9304
        39.7504         26.2504
 -13557501.26947 -10264221.64045  23100645.5394                   23100633.5984
        45.5004         31.7504
 -26739653.98048 -20701509.98649  20633147.5314                   20633138.6374
        52.0004         54.7504
   5322031.13046  -2369799.21643  25127751.4694                   25127743.9224
        36.0004         21.5004
  -6959734.18046  -5394982.06546  23984398.1484                   23984387.9064
        37.5004         36.7504
  -5421514.89846  -3250569.13443  24310941.0554                   24310931.9844
        39.2504         19.7504
 -24415020.21248 -20671784.34449  20520826.1564                   20520817.2034
        53.0004         55.0004
 23  1 11  0 16  0.0000000  0 11G22G08G27G23G24G21G10G18G31G01G32
 -18771202.60547  -9656865.54046  21509869.4774                   21509858.4734
        46.7504         37.2504
 -11267812.37245  -8736491.51245  24104177.6804                   24104169.7814
        35.2504         31.7504
  -5183712.62246  -3769634.17145  24632821.2194                   24632812.9694
        37.7504         30.5004
  -9266410.87747 -11706815.20745  22385254.0314                   22385243.3794
        46.0004         34.5004
  -8461816.63246  -7101776.64444  23382485.1484                   23382477.1914
        38.5004         24.0004
 -13620347.22647 -10313192.52945  23088685.2584                   23088673.2584
        43.2504         30.7504
 -26719720.44348 -20685977.35249  20636940.6484                   20636932.1644
        51.0004         55.0004
   5438824.34246  -2278791.63643  25149977.9534                   25149968.8244
        36.2504         19.0004
  -7078396.66246  -5487446.36446  23961817.3754                   23961807.4264
        39.0004         37.5004
  -5527900.33446  -3333466.91943  24290694.4304                   24290687.6454
        37.5004         21.5004
 -24424276.37748 -20678996.93449  20519064.6024                   20519056.2934
        52.2504         54.7504
 23  1 11  0 16 30.0000000  0 11G22G08G27G23G24G21G10G18G31G01G32
 -18828560.72247  -9701560.15546  21498954.2344                   21498943.3484
        47.0004         38.0004
 -11206046.26945  -8688362.08945  24115928.6254                   24115923.7194
        33.0004         30.2504
  -5091257.42245  -3697591.12045  24650411.8204                   24650404.9774
        34.2504         30.0004
  -9193882.37147 -11650299.50945  22399056.0314                   22399045.9064
        46.2504         34.0004
  -8376187.95546  -7035053.01344  23398779.4774                   23398771.9884
        38.0004         24.5004
 -13682860.31047 -10361903.99945  23076789.0864                   23076777.2624
        43.7504         31.0004
 -26699472.07248 -20670199.40149  20640793.8134                   20640784.9774
        51.0004         55.0004
   5555652.16846  -2187756.92243  25172212.0164                   25172199.9574
        39.0004         20.5004
  -7196989.68546  -5579856.54546  23939250.3834                   23939239.9064
        38.2504         38.2504
  -5634088.18246  -3416210.64743  24270490.2344                   24270480.9304
        39.0004         21.2504
 -24433137.47748 -20685901.67649  20517378.6254                   20517369.9064
        52.0004         55.0004
 23  1 11  0 17  0.0000000  0 11G22G08G27G23G24G21G10G18G31G01G32
 -18885585.94147  -9745995.38946  21488102.6954                   21488091.8094
        47.0004         38.0004
 -11143946.19455  -8639972.51755  24127748.7344                   24127740.6024
        34.5004         31.0004
  -4998740.17245  -3625499.76545  24668019.1024                   24668012.3164
        35.7504         30.7504
  -9121129.99747 -11593609.36345  22412900.2584                   22412889.4884
        45.5004         34.5004
  -8290144.91846  -6968006.51344  23415153.2814                   23415145.3834
        38.0004         25.5004
 -13745037.91947 -10410354.09545  23064958.3594                   23064946.5354
        44.5004         32.5004
 -26678908.13248 -20654175.54849  20644707.0084                   20644698.2894
        51.2504         55.0004
   5672513.11945  -2096696.38543  25194446.4304                   25194438.1214
        34.5004         19.5004
  -7315509.29946  -5672209.48446  23916697.7584                   23916686.6954
        39.0004         38.5004
  -5740074.86846  -3498797.70843  24250320.0784                   24250311.7114
        36.5004         21.0004
 -24441603.38448 -20692498.48449  20515767.7504                   20515759.0904
        52.5004         55.0004
 23  1 11  0 17 30.0000000  0 11G22G08G27G23G24G21G10G18G31G01G32
 -18942279.09747  -9790171.85146  21477314.0394                   21477303.3874
        46.5004         37.2504
 -11081515.95945  -8591325.62845  24139629.0864                   24139620.4264
        33.0004         30.5004
  -4906165.02646  -3553363.30344  24685635.5864                   24685626.8094
        36.0004         28.0004
  -9048155.31247 -11536745.98945  22426786.5394                   22426776.1214
        45.0004         33.5004
  -8203691.66746  -6900640.33044  23431605.6094                   23431597.2424
        39.0004         25.5004
 -13806879.68647 -10458542.48545  23053188.6414                   23053177.5204
        43.5004         31.5004
 -26658028.82348 -20637905.95249  20648680.1334                   20648671.7074
        51.2504         55.2504
   5789403.77046  -2005612.83443  25216693.1484                   25216680.7384
        38.2504         19.5004
  -7433954.07246  -5764504.11646  23894159.2114                   23894147.3874
        39.7504         39.0004
  -5845858.86546  -3581226.77943  24230191.2194                   24230182.1484
        39.5004         21.5004
 -24449676.01748 -20698788.84249  20514231.4384                   20514222.3674
        52.2504         55.2504
 23  1 11  0 18  0.0000000  0 11G22G08G27G23G24G21G10G18G31G01G32
 -18998638.53347  -9834088.29246  21466589.8204                   21466578.6994
        47.0004         37.0004
 -11018757.23045  -8542422.73745  24151569.7274                   24151563.0594
        32.2504         30.7504
  -4813533.96946  -3481183.24944  24703263.2114                   24703254.7274
        37.0004         28.7504
  -8974957.56047 -11479708.77745  22440715.9924                   22440705.1054
        45.5004         34.2504
  -8116829.58746  -6832955.61344  23448134.7344                   23448126.7774
        38.2504         24.2504
 -13868382.54747 -10506466.77345  23041485.7504                   23041473.5164
        43.5004         31.5004
 -26636832.60348 -20621389.42049  20652713.6334                   20652704.9144
        51.0004         55.2504
   5906323.04344  -1928681.83353  25238936.7424                   25238929.9574
        29.5004         21.7504
  -7552319.81346  -5856737.18546  23871633.9614                   23871622.7814
        39.5004         38.7504
  -5951436.23245  -3663494.87643  24210097.1884                   24210091.6334
        35.7504         22.0004
 -24457354.90548 -20704772.38649  20512770.1724                   20512761.3954
        52.2504         55.0004
 23  1 11  0 18 30.0000000  0 11G22G08G27G23G24G21G10G18G31G01G32
 -19054664.90847  -9877745.19446  21455927.4774                   21455917.4104
        46.7504         37.0004
 -10955673.06045  -8493266.30745  24163576.5944                   24163568.0514
        34.7504         31.5004
  -4720850.81145  -3408962.62144  24720900.8754                   24720891.8054
        35.7504         29.5004
  -8901537.98947 -11422498.73345  22454686.9304                   22454676.9224
        45.2504         34.0004
  -8029562.51246  -6764955.29844  23464741.1644                   23464732.7974
        38.2504         26.0004
 -13929545.79547 -10554126.46745  23029847.2814                   23029835.2814
        44.0004         32.0004
 -26615319.98648 -20604626.34549  20656807.2194                   20656798.6764
        50.0004         55.2504
                                  25261197.3524                   25261185.2934
        37.2504         20.0004
  -7670604.00746  -5948906.69446  23849125.7584                   23849114.3444
        40.5004         40.0004
  -6056805.06046  -3745600.44243  24190049.5394                   24190039.7664
        39.5004         20.2504
 -24464641.47948 -20710450.22649  20511383.2424                   20511374.8164
        51.7504         55.0004
 23  1 11  0 19  0.0000000  0 11G22G08G27G23G24G21G10G18G31G01G32
 -19110358.45847  -9921142.74746  21445330.0004                   21445319.1724
        47.2504         37.5004
 -10892266.77445  -8443858.85645  24175642.4384                   24175634.5984
        33.7504         31.0004
  -4628118.94245  -3336704.00044  24738545.4614                   24738537.4454
        33.5004         27.2504
  -8827897.28447 -11365116.39545  22468700.7194                   22468690.2424
        45.2504         33.5004
  -7941893.42246  -6696641.71044  23481424.1884                   23481415.2344
        38.5004         24.5004
 -13990367.43047 -10601519.92945  23018271.7344                   23018261.1414
        42.5004         30.7504
 -26593491.06848 -20587616.80049  20660961.1724                   20660952.6884
        49.5004         55.0004
  -4887703.27145 -10353246.56253  25283449.3054                   25283443.7504
        31.7504         19.7504
  -7788804.38546  -6041010.88246  23826632.3284                   23826621.7344
        40.0004         39.5004
  -6161962.86645  -3827541.59543  24170036.4304                   24170029.5274
        35.5004         22.0004
 -24471536.80248 -20715823.19849  20510071.3284                   20510062.7274
        51.2504         55.0004
 23  1 11  0 19 30.0000000  0 11G22G08G27G23G24G21G10G18G31G01G32
 -19165717.23947  -9964279.44446  21434795.4304                   21434784.7194
        47.0004         37.5004
 -10828539.84345  -8394201.54645  24187766.9304                   24187760.4964
        31.7504         30.5004
  -4535339.90245  -3264408.64044  24756202.3204                   24756192.1954
        35.7504         28.5004
  -8754034.48347 -11307560.97945  22482756.3754                   22482745.7234
        45.0004         33.5004
  -7853823.80946  -6628016.02944  23498182.8914                   23498174.8164
        38.0004         24.5004
 -14050844.17847 -10648644.66445  23006765.5084                   23006751.9844
        44.7504         32.2504
 -26571343.95148 -20570359.31049  20665175.5084                   20665167.1414
        50.7504         55.5004
  -4770712.41045 -10262084.81643  25305716.8364                   25305705.3054
        35.5004         19.5004
  -7906916.63146  -6133046.42546  23804155.7734                   23804145.5904
        40.5004         40.5004
  -6266905.54646  -3909315.08943  24150068.6414                   24150059.9224
        38.5004         22.2504
 -24478040.17448 -20720890.74849  20508833.6484                   20508824.8714
        52.0004         55.0004
 23  1 11  0 20  0.0000000  0 11G22G08G27G23G24G21G10G18G31G01G32
 -19220742.13747 -10007155.97246  21424324.9384                   21424313.8164
        47.5004         37.5004
 -10764496.42345  -8344297.67345  24199957.0704                   24199947.7664
        33.0004         30.5004
  -4442517.94645  -3192079.85344  24773865.5944                   24773857.8134
        35.7504         28.7504
  -8679951.02447 -11249833.61645  22496854.0554                   22496843.2854
        45.0004         33.7504
  -7765357.59846  -6559081.33544  23515018.0634                   23515008.6994
        39.0004         26.0004
 -14110975.66847 -10695500.39045  22995321.8524                   22995309.9104
        43.5004         32.0004
 -26548879.16948 -20552854.28449  20669450.6644                   20669441.8874
        50.7504         55.0004
  -4653702.16755 -10170908.11653  25327978.2894                   25327971.8554
        30.5004         18.5004
  -8024938.82446  -6225011.75346  23781697.3364                   23781686.9184
        40.5004         40.2504
  -6371631.31246  -3990919.61743  24130139.1954                   24130131.2974
        37.0004         22.0004
 -24484153.40348 -20725654.30949  20507670.5164                   20507661.5044
        52.2504         55.0004
 23  1 11  0 20 30.0000000  0 11G22G08G27G23G24G21G10G18G31G01G32
 -19275432.33247 -10049771.69846  21413917.0554                   21413906.7544
        47.0004         37.7504
 -10700138.73945  -8294148.87145  24212204.5554                   24212195.3094
        35.0004         32.0004
  -4349655.37445  -3119719.37744  24791536.2034                   24791526.8404
        33.7504         28.0004
  -8605646.76947 -11191934.21645  22510993.1484                   22510983.3754
        45.0004         33.0004
  -7676496.98446  -6489839.31244  23531927.5554                   23531919.0124
        38.5004         26.0004
 -14170759.48347 -10742085.15045  22983944.8754                   22983933.4024
        43.5004         32.0004
 -26526095.52948 -20535100.80249  20673786.1724                   20673777.2194
        51.0004         55.0004
  -4536674.36345 -10079717.45843  25350249.7734                   25350241.6414
        33.0004         18.2504
  -8142867.41346  -6316904.17946  23759256.6954                   23759245.2234
        41.2504         41.0004
  -6476136.94146  -4072352.52943  24110251.7424                   24110244.2544
        38.0004         21.5004
 -24489876.58248 -20730113.92349  20506581.4614                   20506572.5664
        52.0004         54.7504
 23  1 11  0 21  0.0000000  0 11G22G08G27G23G24G21G10G18G31G01G32
 -19329788.08947 -10092126.81746  21403573.4614                   21403563.2194
        46.7504         37.5004
 -10635470.04245  -8243757.67445  24224507.3524                   24224501.9144
        31.5004         30.0004
  -4256755.81345  -3047330.07444  24809214.1094                   24809205.4494
        33.7504         28.0004
  -8531122.75947 -11133863.56845  22525174.6954                   22525164.6884
        44.5004         34.0004
  -7587245.44146  -6420292.63844  23548911.0784                   23548902.1844
        38.5004         25.0004
 -14230194.27047 -10788397.97145  22972636.1804                   22972623.1844
        44.7504         32.2504
 -26502993.55548 -20517099.26849  20678182.1644                   20678173.7384
        50.0004         55.0004
  -4419631.54345 -10004891.42653  25372524.6564                   25372512.5394
        34.7504         20.2504
  -8260700.22347  -6408721.94446  23736834.1564                   23736822.8014
        42.5004         41.2504
  -6580420.10546  -4153612.14743  24090407.2274                   24090399.9144
        36.7504         20.5004
 -24495211.05448 -20734270.64849  20505566.3444                   20505557.6844
        51.5004         55.2504
 23  1 11  0 21 30.0000000  0 11G22G08G27G23G24G21G10G18G31G01G32
 -19383808.05447 -10134220.28746  21393294.1484                   21393283.1454
        46.7504         37.5004
 -10570491.66655  -8193125.30055  24236874.3204                   24236866.0124
        32.7504         30.0004
  -4163821.23346  -2974913.56544  24826901.5944                   24826891.0594
        36.7504         28.5004
  -8456378.20347 -11075621.06945  22539398.2194                   22539388.4454
        44.0004         34.2504
  -7497604.57446  -6350442.61644  23565969.1414                   23565960.1294
        38.0004         24.5004
 -14289277.64747 -10834436.97145  22961391.7034                   22961379.9964
        43.5004         32.5004
 -26479571.58748 -20498848.39549  20682638.8754                   20682630.6844
        51.0004         55.0004
  -4302574.70855  -9913678.20253  25394797.3914                   25394789.0234
        32.5004         19.0004
  -8378432.82046  -6500461.62346  23714430.0164                   23714418.5434
        41.5004         41.0004
  -6684476.97246  -4234695.38643  24070606.6564                   24070598.5234
        36.7504         22.2504
 -24500156.40248 -20738124.16349  20504625.3754                   20504616.7154
        52.2504         54.7504
 23  1 11  0 22  0.0000000  0 11G22G08G27G23G24G21G10G18G31G01G32
 -19437494.29847 -10176053.70946  21383077.8674                   21383067.4494
        47.0004         37.0004
 -10505209.07845  -8142255.79345  24249298.0864                   24249288.4884
        34.5004         30.5004
  -4070856.65545  -2902473.56544  24844589.0864                   24844581.1294
        33.2504         27.7504
  -8381415.69347 -11017208.75945  22553662.6484                   22553652.7584
        44.5004         34.2504
  -7407579.50346  -6280293.23044  23583100.6254                   23583091.6134
        38.2504         24.2504
 -14348009.85147 -10880202.31745  22950215.3984                   22950204.0434
        44.5004         32.5004
 -26455831.45648 -20480349.59349  20687157.0704                   20687148.1764
        50.0004         55.0004
                                  25417074.711
        35.000
  -8496064.61346  -6592122.77346  23692045.0864                   23692034.4924
        41.7504         41.0004
  -6788306.83046  -4315601.78343  24050848.0944                   24050840.3134
        36.2504         21.2504
 -24504715.49448 -20741676.69949  20503757.8674                   20503748.7974
        51.7504         55.0004
 23  1 11  0 22 30.0000000  0 11G22G08G27G23G24G21G10G18G31G01G32
 -19490844.26247 -10217625.09546  21372925.4064                   21372915.0474
        47.0004         37.5004
 -10439621.97945  -8091148.95045  24261777.5234                   24261770.6804
        31.7504         30.0004
  -3977862.64545  -2830010.73444  24862286.4774                   24862277.6414
        34.0004         27.7504
  -8306233.19947 -10958625.01345  22567970.3364                   22567960.0354
        45.7504         33.7504
  -7317170.52346  -6209844.67644  23600305.0164                   23600296.5314
        37.2504         24.7504
 -14406386.00147 -10925690.22245  22939107.7034                   22939095.5864
        44.5004         33.7504
 -26431770.31548 -20461600.65249  20691735.6174                   20691726.8984
        50.7504         54.7504
  -4068384.71055  -9793995.36253  25439353.7344                   25439344.1954
        31.7504         19.0004
  -8613590.24047  -6683701.17646  23669681.3444                   23669669.6954
        42.0004         40.7504
  -6891904.54946  -4396327.25543  24031134.1804                   24031126.3404
        36.5004         21.2504
 -24508886.64248 -20744926.93549  20502963.9774                   20502954.9064
        52.7504         55.0004
 23  1 11  0 23  0.0000000  0 11G22G08G27G23G24G21G10G31G01G25G32
 -19543858.71847 -10258935.05546  21362837.2894                   21362826.4614
        47.2504         37.2504
 -10373735.07055  -8039808.60954  24274314.7034                   24274308.1524
        32.0004         29.5004
  -3884843.43846  -2757528.22244  24879988.5004                   24879979.0784
        36.0004         28.5004
  -8230832.32147 -10899871.10145  22582318.4924                   22582308.2504
        45.0004         33.5004
  -7226381.69046  -6139100.12543  23617580.6334                   23617571.6804
        37.2504         22.7504
 -14464405.88547 -10970900.51045  22928065.5704                   22928054.3324
        43.2504         32.5004
 -26407388.83448 -20442602.09649  20696375.2974                   20696366.9304
        49.5004         54.7504
  -8731007.75646  -6775195.35346  23647336.4614                   23647326.1024
        41.7504         40.5004
  -6995268.36446  -4476870.45643  24011464.8054                   24011456.3204
        36.2504         19.2504
                                  25434231.9224                   25434224.1994
        26.2504         22.0004
 -24512671.76548 -20747876.37749  20502243.9384                   20502234.8674
        51.5004         54.7504
 23  1 11  0 23 30.0000000  0 11G22G08G27G23G24G21G10G31G01G25G32
 -19596538.17147 -10299983.96846  21352812.3524                   21352801.9344
        47.2504         37.7504
                                  24286910.3914                   24286902.1994
        31.7504         29.2504
  -3791802.69445  -2685028.88144  24897691.7664                   24897682.8134
        33.2504         26.7504
  -8155214.24247 -10840947.95845  22596708.2274                   22596697.3984
        45.5004         33.0004
  -7135216.65246  -6068062.47944  23634930.1644                   23634920.7424
        38.2504         25.0004
 -14522068.82547 -11015832.67945  22917093.5704                   22917081.2774
        44.5004         33.0004
 -26382687.52248 -20423354.33349  20701075.7344                   20701067.4264
        49.5004         55.0004
  -8848314.94246  -6866603.53246  23625014.2114                   23625003.0904
        41.5004         40.7504
  -7098396.27146  -4557229.87943  23991840.5634                   23991831.3754
        36.0004         20.0004
   -725698.02515                  25418197.266
        35.500
 -24516072.37148 -20750526.19749  20501596.5704                   20501587.5594
        51.2504         55.0004
 23  1 11  0 24  0.0000000  0 10G22G08G27G23G24G21G10G31G01G32
 -19648879.59347 -10340769.46946  21342852.6414                   21342841.8134
        47.7504         37.2504
 -10241072.01955  -7936434.87154  24299559.6954                   24299552.6174
        30.5004         29.7504
  -3698740.76245  -2612513.08144  24915402.3984                   24915393.2704
        35.5004         29.0004
  -8079376.72547 -10781853.80945  22611139.7814                   22611129.3054
        45.5004         33.5004
  -7043675.56746  -5996731.71943  23652349.2894                   23652340.1604
        38.5004         23.2504
 -14579370.25747 -11060483.13545  22906189.6564                   22906178.0084
        44.7504         33.7504
 -26357663.15148 -20403854.82949  20705837.5634                   20705829.3134
        50.0004         55.2504
  -8965506.24946  -6957921.43646  23602713.3524                   23602702.2894
        41.5004         41.0004
  -7201282.91245  -4637401.25743  23972260.8444                   23972253.0634
        34.2504         19.2504
 -24519086.54348 -20752874.89549  20501022.9304                   20501013.9184
        52.7504         55.0004
 23  1 11  0 24 30.0000000  0 11G22G08G27G23G24G21G10G31G01G25G32
 -19700885.50147 -10381293.55346  21332956.1094                   21332945.2814
        46.7504         37.2504
 -10174301.96945  -7884406.32344  24312264.2194                   24312259.0164
        31.0004         29.2504
  -3605663.20645  -2539985.11944  24933112.6414                   24933105.1524
        34.2504         27.0004
  -8003322.80047 -10722591.02145  22625612.3284                   22625601.4414
        45.2504         33.5004
  -6951763.83946  -5925112.19043  23669838.7114                   23669830.6954
        37.7504         23.2504
 -14636310.78847 -11104852.36645  22895353.4774                   22895341.9454
        44.0004         33.2504
 -26332318.06348 -20384105.41749  20710660.7034                   20710652.1024
        50.7504         55.0004
  -9082580.92046  -7049148.45446  23580434.9224                   23580424.3284
        41.7504         41.2504
  -7303927.86245  -4717384.31245  23952727.9224                   23952720.1414
        35.0004         31.2504
   -600885.84655   -539274.07753  25386152.5554                   25386146.2974
        32.5004         22.7504
 -24521717.70148 -20754925.14449  20500522.3364                   20500513.5594
        52.5004         54.7504
 23  1 11  0 25  0.0000000  0 10G22G08G27G23G24G21G10G31G01G32
 -19752555.28747 -10421555.70146  21323123.3984                   21323112.9224
        46.2504         37.0004
 -10107243.25455  -7832152.87854  24325026.2424                   24325020.2194
        30.5004         28.2504
  -3512572.33345  -2467446.70544  24950827.8134                   24950819.0944
        34.5004         28.0004
  -7927052.24447 -10663159.44245  22640125.4534                   22640115.5634
        45.5004         33.5004
  -6859483.76646  -5853205.68043  23687400.7424                   23687391.1454
        38.2504         23.5004
 -14692888.15047 -11148938.62745  22884588.2194                   22884575.3404
        45.2504         34.0004
 -26306651.35348 -20364105.39449  20715545.6254                   20715536.4964
        50.5004         54.7504
  -9199535.79347  -7140282.12346  23558179.3284                   23558168.5594
        42.0004         41.5004
  -7406327.76945  -4797176.48345  23933242.1724                   23933234.0394
        34.0004         30.2504
 -24523965.90148 -20756676.99049  20500094.3364                   20500085.7344
        52.0004         54.7504
 23  1 11  0 25 30.0000000  0 11G22G08G27G23G24G21G10G31G01G25G32
 -19803888.20647 -10461555.37246  21313355.3444                   21313344.3984
        46.2504         37.2504
 -10039897.96655  -7779676.08555  24337842.5554                   24337835.3594
        31.0004         30.0004
  -3419470.61745  -2394899.93144  24968543.4694                   24968536.9774
        33.5004         28.2504
  -7850565.00647 -10603559.02245  22654680.1644                   22654670.5084
        45.2504         33.0004
  -6766837.74946  -5781013.92643  23705029.6024                   23705020.5314
        37.0004         22.7504
 -14749100.12747 -11192740.16445  22873891.3674                   22873879.1914
        45.0004         33.5004
 -26280661.67548 -20343853.70149  20720490.9144                   20720481.9024
        50.0004         55.0004
  -9316367.17147  -7231319.56146  23535947.1094                   23535935.8134
        42.0004         41.5004
  -7508479.39945  -4876775.11445  23913802.9534                   23913796.4614
        35.0004         31.5004
   -611689.76055   -628918.11253  25354149.8524                   25354142.3634
        34.0004         22.7504
 -24525831.49348 -20758130.69449  20499739.5704                   20499730.7344
        51.5004         55.0004
 23  1 11  0 26  0.0000000  0 12G22G08G27G23G24G21G10G12G31G01G25G32
 -19854885.65747 -10501293.63046  21303650.5394                   21303640.0044
        46.0004         37.7504
                                  24350708.4304                   24350704.4024
        28.2504         29.0004
  -3326362.62445  -2322348.20144  24986262.3834                   24986253.2544
        33.5004         27.5004
  -7773863.11647 -10543791.33745  22669276.5634                   22669266.5554
        45.5004         32.5004
  -6673830.06946  -5708540.45843  23722728.4064                   23722719.6294
        37.5004         22.7504
 -14804946.47147 -11236256.78445  22863263.3834                   22863252.2624
        44.2504         34.0004
 -26254350.57648 -20323351.54549  20725497.6254                   20725489.0824
        50.0004         55.0004
   -540037.46356   -400004.03553  25598474.5634                   25598464.6134
        36.0004         20.5004
  -9433073.72147  -7322259.73746  23513737.9534                   23513727.7114
        42.0004         41.7504
  -7610381.36645  -4956179.24145  23894412.1954                   23894403.5354
        35.5004         31.0004
                                  25338167.219
        36.000
 -24527316.79248 -20759288.07449  20499456.9694                   20499447.8404
        51.7504         54.7504
 23  1 11  0 26 30.0000000  0 11G22G08G27G23G24G21G10G12G31G01G32
 -19905543.90347 -10540767.57546  21294011.1334                   21294000.4804
        46.7504         38.0004
  -9904361.54055  -7674063.39055  24363635.1564                   24363627.1994
        31.2504         30.2504
  -3233247.66745  -2249791.09144  25003981.2194                   25003973.9654
        33.0004         28.7504
  -7696943.49647 -10483854.00045  22683914.4384                   22683903.9024
        45.7504         33.0004
  -6580460.34646  -5635784.84943  23740495.8984                   23740487.0634
        36.7504         22.2504
 -14860421.96147 -11279484.44745  22852707.4924                   22852695.2584
        46.0004         33.5004
 -26227713.94648 -20302595.74349  20730566.6254                   20730557.7304
        50.5004         54.7504
   -609694.42745   -454282.13342  25585216.9064                   25585208.9494
        34.5004         16.7504
  -9549648.73347  -7413097.39347  23491554.4614                   23491543.7504
        42.2504         42.2504
  -7712027.41945  -5035383.95045  23875069.9774                   23875062.3134
        35.5004         31.5004
 -24528419.10848 -20760147.00949  20499247.1174                   20499238.1054
        53.5004         55.0004
 23  1 11  0 27  0.0000000  0 11G22G08G27G23G24G21G10G12G31G01G32
 -19955867.35747 -10579980.63746  21284434.2894                   21284423.9304
        46.0004         37.0004
  -9836176.99345  -7620932.60044  24376610.8984                   24376602.4734
        32.0004         29.2504
  -3140133.30645  -2177234.43344  25021700.2584                   25021692.7704
        32.7504         28.5004
  -7619811.01947 -10423750.77545  22698591.7974                   22698581.7894
        45.0004         32.5004
  -6486735.66546  -5562752.61143  23758331.4534                   23758322.1484
        37.7504         22.0004
 -14915529.12847 -11322425.10145  22842220.3444                   22842208.5784
        45.0004         34.0004
 -26200756.10448 -20281589.64049  20735696.4304                   20735687.7704
        50.0004         55.0004
   -679102.96745   -508366.62642  25572009.5164                   25572000.3874
        35.0004         15.5004
  -9666093.88446  -7503833.88147  23469396.5554                   23469385.6684
        41.5004         42.2504
  -7813419.07246  -5114390.44845  23855775.5634                   23855767.6644
        36.5004         32.2504
 -24529143.64948 -20760711.59249  20499109.2034                   20499100.2504
        52.0004         55.0004
 23  1 11  0 27 30.0000000  0 11G22G08G27G23G24G21G10G12G31G01G32
 -20005853.40847 -10618930.79346  21274923.1484                   21274912.0274
        46.5004         38.0004
                                  24389634.9304                   24389629.6684
        26.7504         27.7504
  -3047019.76845  -2104678.35944  25039418.6954                   25039410.6804
        31.0004         26.0004
  -7542463.62047 -10363480.10245  22713309.8134                   22713300.3914
        44.0004         32.5004
  -6392656.48346  -5489444.17843  23776234.0944                   23776225.3754
        37.0004         22.7504
 -14970264.29947 -11365075.87345  22831804.2344                   22831792.9964
        44.5004         34.0004
 -26173474.10048 -20260330.94549  20740887.8984                   20740879.1804
        51.0004         55.0004
   -748257.17945   -562253.01342  25558847.8984                   25558840.9964
        33.2504         16.7504
  -9782403.56147  -7594464.79947  23447263.0314                   23447252.3794
        42.0004         43.0004
  -7914551.12346  -5193194.61045  23836529.6174                   23836523.0084
        36.0004         32.2504
 -24529488.74749 -20760980.49649  20499043.6724                   20499034.4844
        54.0004         55.0004
 23  1 11  0 28  0.0000000  0 12G22G08G27G23G24G21G10G12G31G01G25G32
 -20055500.51847 -10657616.84146  21265474.7274                   21265464.6024
        46.7504         37.0004
  -9698985.59555  -7514030.36055  24402716.7584                   24402708.6254
        31.7504         30.2504
  -2953908.87045  -2032124.41444  25057137.2974                   25057131.3914
        31.7504         28.7504
  -7464900.59947 -10303041.40245  22728071.4224                   22728060.1254
        45.5004         32.5004
  -6298224.45045  -5415860.74243  23794202.8054                   23794194.9654
        35.7504         21.7504
 -15024624.24447 -11407434.27145  22821460.5784                   22821448.4614
        44.7504         34.2504
 -26145866.22648 -20238818.32849  20746141.6174                   20746132.8984
        50.0004         54.7504
   -817153.35946   -615938.40142  25545740.9304                   25545729.3404
        38.0004         16.7504
  -9898573.80146  -7684987.06247  23425156.3054                   23425145.5354
        41.0004         43.0004
  -8015419.40146  -5271793.27345  23817337.4614                   23817328.4494
        38.0004         33.7504
   -518216.04754   -695847.97253  25274355.5554                   25274343.6134
        28.5004         23.0004
 -24529454.00348 -20760953.41649  20499050.1644                   20499041.4454
        52.7504         54.7504
 23  1 11  0 28 30.0000000  0 12G22G08G27G23G24G21G10G12G31G01G25G32
 -20104811.67647 -10696041.09346  21256091.2194                   21256080.6254
        46.5004         37.2504
  -9629986.11944  -7460264.52644  24415846.5474                   24415839.5864
        29.0004         29.0004
  -2860806.53645  -1959577.16544  25074853.1334                   25074845.9384
        31.7504         26.0004
  -7387125.37647 -10242437.35645  22742870.3914                   22742860.3834
        45.2504         33.0004
  -6203445.54246  -5342007.12043  23812239.9694                   23812231.0744
        37.0004         22.5004
 -15078610.37747 -11449501.40045  22811187.3524                   22811175.0594
        45.0004         33.7504
 -26117935.16948 -20217053.87749  20751457.0164                   20751448.1214
        50.5004         55.0004
   -885791.57945   -669422.61542  25532677.4304                   25532668.5944
        35.5004         17.7504
 -10014604.22147  -7775400.36847  23403076.6334                   23403066.0394
        42.0004         43.2504
  -8116024.12845  -5350186.56645  23798190.5634                   23798183.4844
        35.5004         32.7504
                                  25258434.1414                   25258424.0164
        36.5004         27.2504
 -24529043.17748 -20760633.28749  20499128.5634                   20499119.3754
        52.2504         54.7504
 23  1 11  0 29  0.0000000  0 12G22G08G27G23G24G21G10G12G31G01G25G32
 -20153784.17347 -10734201.47346  21246772.5004                   21246761.2034
        47.0004         37.0004
  -9560719.96854  -7406291.00054  24429024.5164                   24429020.1374
        29.2504         29.0004
  -9069393.08155  -6797436.75254  25092568.1254                   25092561.3404
        31.7504         28.0004
  -7309135.86847 -10181666.34045  22757711.8984                   22757701.3634
        45.0004         32.2504
  -6108319.83446  -5267883.18943  23830341.3054                   23830333.6414
        36.7504         22.5004
 -15132218.55647 -11491273.99845  22800984.5234                   22800973.8714
        43.5004         33.2504
 -26089678.26448 -20195035.51049  20756833.9534                   20756825.0594
        50.2504         55.7504
   -954165.64246   -722701.21043  25519668.8054                   25519658.2114
        38.2504         19.0004
 -10130489.16047  -7865700.31147  23381024.9454                   23381013.7664
        42.2504         43.2504
  -8216359.94946  -5428370.28445  23779100.0784                   23779090.5394
        38.7504         33.5004
                                  25242532.430
        38.250
 -24528254.64348 -20760018.85249  20499278.5554                   20499269.2504
        52.2504         54.7504
 23  1 11  0 29 30.0000000  0 12G22G08G27G23G24G21G10G12G31G01G25G32
 -20202419.94647 -10772099.45946  21237516.6094                   21237506.7774
        47.0004         37.2504
  -9491191.92345  -7352113.34745  24442258.3984                   24442250.7934
        30.5004         30.7504
  -8976313.43945  -6724907.14844  25110282.3834                   25110274.3674
        32.2504         27.0004
  -7230934.42347 -10120730.17745  22772592.7424                   22772582.4414
        44.5004         32.0004
  -6012852.41446  -5193492.99543  23848508.5394                   23848499.1174
        38.5004         22.2504
 -15185448.95647 -11532752.22645  22790856.1564                   22790844.6844
        44.2504         34.0004
 -26061096.82648 -20172764.25849  20762273.0554                   20762264.0434
        50.5004         55.0004
  -1022274.74245   -775773.11243  25506705.5234                   25506697.2734
        34.0004         18.2504
 -10246227.66746  -7955886.15747  23358999.3054                   23358989.5904
        41.5004         43.5004
  -8316425.79146  -5506343.70345  23760056.2034                   23760048.7734
        36.7504         34.7504
                                  25226639.9614                   25226632.0634
        34.5004         27.2504
 -24527091.08848 -20759112.18949  20499500.0084                   20499490.9964
        52.2504         54.7504
 23  1 11  0 30  0.0000000  0 12G22G08G27G23G24G21G10G12G31G01G25G32
 -20250717.07947 -10809733.56946  21228326.2734                   21228315.2704
        46.2504         37.0004
  -9421402.77045  -7297732.23444  24455537.0164                   24455531.1094
        30.2504         29.0004
  -8883250.07245  -6652390.69444  25127992.6024                   25127983.2384
        33.5004         25.7504
  -7152519.78147 -10059627.86345  22787514.7894                   22787504.4884
        44.7504         31.5004
  -5917044.38646  -5118837.41643  23866739.8524                   23866731.6024
        37.0004         21.5004
 -15238298.01347 -11573933.31145  22780799.1644                   22780787.5164
        44.5004         33.7504
 -26032188.53348 -20150238.31749  20767773.8444                   20767764.9494
        50.2504         54.7504
  -1090113.99645   -828634.82442  25493796.6174                   25493787.9574
        35.7504         17.2504
 -10361815.10946  -8045954.29447  23337003.6024                   23336993.8284
        41.2504         43.7504
  -8416217.20546  -5584103.18645  23741068.1174                   23741059.2234
        39.0004         34.5004
   -739661.25855   -852471.94254  25210764.5234                   25210760.2624
        32.5004         24.7504
 -24525551.53448 -20757912.53149  20499792.6724                   20499783.7774
        52.0004         54.7504
 23  1 11  0 30 30.0000000  0 12G22G08G27G23G24G21G10G12G31G01G25G32
 -20298676.92547 -10847104.86246  21219200.7194                   21219190.1844
        46.7504         37.2504
  -9351357.13155  -7243151.28654  24468866.3444                   24468860.9654
        30.2504         29.5004
  -8790203.68755  -6579886.76754  25145697.3054                   25145689.5824
        32.2504         26.0004
  -7073893.58647  -9998360.71345  22802476.1804                   22802466.3484
        44.0004         31.2504
  -5820899.72246  -5043919.51543  23885035.4304                   23885028.0004
        36.5004         22.2504
 -15290765.40447 -11614816.99045  22770814.6724                   22770803.3754
        44.2504         33.5004
 -26002954.65748 -20127458.68449  20773336.9924                   20773328.1564
        50.5004         55.0004
  -1157681.71645   -881284.96542  25480936.8984                   25480929.6454
        33.0004         17.2504
 -10477249.65847  -8135903.27447  23315038.7974                   23315027.9104
        42.5004         43.7504
  -8515732.39846  -5661647.52045  23722129.3524                   23722121.9224
        37.0004         34.2504
   -822983.92545   -917398.76944  25194908.2424                   25194903.5124
        30.5004         26.0004
 -24523638.08048 -20756421.52949  20500157.0704                   20500147.8244
        53.2504         54.7504
 23  1 11  0 31  0.0000000  0 12G22G08G27G23G24G21G10G12G31G01G25G32
 -20346298.56147 -10884212.61246  21210137.3444                   21210128.2734
        46.5004         37.0004
  -9281057.36445  -7188372.31645  24482246.1024                   24482239.0234
        32.2504         30.5004
  -8697180.25655  -6507401.19154  25163399.0864                   25163391.9494
        31.2504         27.5004
  -6995056.04447  -9936928.88345  22817478.8524                   22817469.0204
        44.0004         31.7504
  -5724421.03945  -4968741.30443  23903393.9924                   23903386.8554
        35.5004         21.5004
 -15342849.00447 -11655401.61345  22760904.2424                   22760892.1844
        45.2504         33.5004
 -25973394.68748 -20104424.94549  20778961.9694                   20778952.8404
        51.2504         55.0004
  -1224974.33646   -933720.75442  25468133.6484                   25468123.9344
        36.7504         17.7504
 -10592527.84947  -8225730.42547  23293101.6804                   23293090.6174
        42.2504         43.5004
  -8614968.27146  -5738974.16245  23703245.7274                   23703237.8874
        37.5004         34.5004
   -906215.54745   -982254.49744  25179072.2894                   25179065.7384
        34.0004         27.7504
 -24521351.26748 -20754639.59649  20500592.2194                   20500582.9734
        53.0004         54.7504
 23  1 11  0 31 30.0000000  0 12G22G08G27G23G24G21G10G12G31G01G25G32
 -20393582.86847 -10921057.51246  21201139.9304                   21201129.1604
        46.2504         37.5004
  -9210507.28045  -7133398.22145  24495671.1804                   24495663.2814
        30.2504         30.0004
  -8604181.06255  -6434934.23954  25181097.2424                   25181089.2274
        32.7504         25.5004
  -6916008.28647  -9875333.23945  22832521.9614                   22832511.0164
        45.0004         32.0004
  -5627611.92146  -4893305.62843  23921817.3364                   23921809.6724
        37.0004         23.5004
 -15394547.98147 -11695686.54045  22751066.7114                   22751054.5354
        45.2504         33.0004
 -25943508.28048 -20081136.83749  20784649.1484                   20784640.5474
        50.5004         55.0004
  -1291989.55346   -985940.35442  25455382.2114                   25455370.5634
        38.0004         17.2504
 -10707647.26647  -8315433.86147  23271195.2194                   23271184.1564
        42.2504         43.5004
  -8713922.64046  -5816081.44345  23684415.9224                   23684407.5554
        37.7504         34.2504
   -989353.59745  -1047037.45544  25163253.6564                   25163244.5864
        33.5004         29.2504
 -24518692.58348 -20752567.88949  20501098.0944                   20501088.8484
        52.5004         54.7504
 23  1 11  0 32  0.0000000  0 12G22G08G27G23G24G21G10G12G31G01G25G32
 -20440526.81947 -10957637.19946  21192206.6724                   21192195.9614
        46.0004         37.7504
  -9139706.51155  -7078228.86955  24509144.1564                   24509136.6094
        31.5004         31.2504
                                  25198787.8134                   25198780.1484
        32.0004         27.0004
  -6836747.79447  -9813571.84145  22847603.8984                   22847593.6564
        43.5004         31.5004
  -5530472.27246  -4817612.42943  23940303.2114                   23940294.2584
        37.0004         21.5004
 -15445857.83347 -11735668.24145  22741301.9064                   22741290.3754
        44.7504         33.5004
 -25913292.45748 -20057592.04749  20790399.0864                   20790390.1914
        50.5004         54.7504
  -1358721.28146  -1037939.16243  25442683.1804                   25442672.9384
        37.0004         19.0004
 -10822602.24047  -8405009.16047  23249319.7034                   23249308.6414
        42.2504         44.0004
  -8812589.73146  -5892964.90145  23665639.3204                   23665631.7734
        36.2504         34.7504
  -1072391.95545  -1111742.58544  25147449.9064                   25147442.7704
        33.5004         27.0004
 -24515659.93348 -20750204.78149  20501675.0704                   20501665.9414
        53.7504         54.7504
 23  1 11  0 32 30.0000000  0 12G22G08G27G23G24G21G10G12G31G01G25G32
 -20487135.12047 -10993955.34646  21183337.3284                   21183326.9104
        46.0004         37.5004
  -9068662.70145  -7022870.08745  24522662.9144                   24522656.1884
        32.5004         32.0004
                                  25216475.4774                   25216469.0434
        32.2504         27.2504
  -6757279.79147  -9751648.74545  22862725.7664                   22862716.2274
        43.5004         31.5004
  -5433009.74646  -4741667.55043  23958849.3754                   23958840.3054
        36.2504         22.0004
 -15496781.24547 -11775348.81345  22731611.9064                   22731599.9064
        45.0004         34.0004
 -25882751.72648 -20033794.08149  20796211.1024                   20796201.8554
        51.0004         55.0004
  -1425171.34246  -1089718.38443  25430038.1644                   25430028.5084
        36.5004         18.2504
 -10937394.07547  -8494457.33447  23227475.9774                   23227464.6214
        42.5004         43.7504
  -8910971.23746  -5969625.80545  23646918.5394                   23646910.8754
        36.7504         34.2504
  -1155332.12345  -1176371.23944  25131665.9144                   25131659.7734
        33.5004         26.2504
 -24512258.87848 -20747554.61049  20502322.3754                   20502313.4804
        53.0004         54.7504
 23  1 11  0 33  0.0000000  0 12G22G08G27G23G24G21G10G12G31G01G25G32
 -20533407.79347 -11030011.95746  21174531.7344                   21174521.4924
        46.0004         37.7504
                                  24536226.9694                   24536221.2384
        31.7504         30.0004
  -8325358.45745  -6217669.82644  25234155.4844                   25234145.8284
        32.5004         24.2504
  -6677604.77847  -9689564.34245  22877887.6094                   22877877.8954
        43.7504         30.7504
  -5335227.21745  -4665473.41143  23977455.8444                   23977448.0044
        35.2504         21.7504
 -15547316.78547 -11814727.16445  22721995.2504                   22721983.6604
        45.2504         34.0004
 -25851885.54048 -20009742.51149  20802084.4924                   20802075.6564
        50.5004         54.7504
  -1491336.77746  -1141275.86242  25417446.2664                   25417437.7814
        36.2504         17.7504
 -11052019.79947  -8583776.06547  23205663.2344                   23205652.6414
        42.0004         43.7504
  -9009064.51946  -6046062.11245  23628252.0554                   23628244.0394
        37.2504         35.2504
  -1238170.90245  -1240920.96044  25115902.7584                   25115895.3284
        33.2504         25.7504
 -24508490.33848 -20744618.08149  20503039.4534                   20503030.4414
        53.7504         55.0004
 23  1 11  0 33 30.0000000  0 12G22G08G27G23G24G21G10G12G31G01G25G32
 -20579336.11747 -11065800.24546  21165792.2734                   21165781.8554
        45.5004         37.2504
  -8925848.96245  -6911586.80645  24549841.5314                   24549832.2274
        34.0004         31.5004
                                  25251830.2814                   25251820.5084
        32.0004         26.0004
  -6597714.47047  -9627312.19145  22893091.0164                   22893080.2464
        43.5004         30.2504
  -5237118.77745  -4589025.31043  23996124.3674                   23996116.4104
        34.0004         20.7504
 -15597454.31047 -11853795.36245  22712453.9224                   22712442.6844
        44.5004         34.5004
 -25820684.94648 -19985430.36549  20808021.6254                   20808013.0234
        50.5004         55.0004
  -1557205.13146  -1192601.81843  25404912.8594                   25404902.9694
        37.2504         19.0004
 -11166467.71647  -8672956.26247  23183883.8674                   23183873.6254
        42.0004         43.7504
  -9106857.80746  -6122264.68745  23609641.9614                   23609634.6484
        36.7504         34.5004
  -1320896.17145  -1305382.23544  25100162.1564                   25100154.4924
        33.5004         28.2504
 -24504346.37348 -20741389.02449  20503828.0554                   20503819.0434
        53.2504         55.0004
 23  1 11  0 34  0.0000000  0 12G22G08G27G23G24G21G10G12G31G01G25G32
 -20624931.66347 -11101329.24746  21157115.7504                   21157104.8634
        46.2504         37.2504
  -8854088.51545  -6855669.58645  24563494.1884                   24563487.7544
        33.2504         31.5004
  -8139644.98055  -6083054.12954  25269494.2814                   25269487.2624
        31.7504         26.2504
  -6517621.33447  -9564901.96045  22908331.1094                   22908321.0434
        43.7504         30.2504
  -5138699.35545  -4512334.82543  24014853.6414                   24014845.0984
        35.7504         21.5004
 -15647204.23747 -11892561.54245  22702987.5314                   22702975.5904
        44.5004         34.2504
 -25789161.44948 -19960866.61749  20814020.2974                   20814011.4614
        51.0004         54.7504
  -1622786.25445  -1243703.96143  25392431.4844                   25392423.1764
        34.7504         19.2504
 -11280746.80147  -8762004.88147  23162138.1884                   23162127.0084
        42.7504         43.7504
  -9204360.24646  -6198240.58145  23591088.9144                   23591080.6054
        38.7504         34.7504
  -1403516.94845  -1369761.99644  25084438.5634                   25084432.3054
        32.5004         28.2504
 -24499839.84649 -20737877.44249  20504685.5234                   20504676.5704
        54.7504         54.7504
 23  1 11  0 34 30.0000000  0 12G22G08G27G23G24G21G10G12G31G01G25G32
 -20670187.03347 -11136593.14546  21148503.4534                   21148493.2114
        45.2504         37.5004
  -8782092.56445  -6799568.91445  24577195.7344                   24577188.4224
        33.0004         31.0004
  -8046851.72345  -6010747.67744  25287151.2974                   25287143.5744
        32.0004         25.5004
  -6437318.25747  -9502328.13045  22923612.2344                   22923602.5204
        42.2504         30.2504
  -5039964.17645  -4435398.36143  24033641.7424                   24033634.4884
        33.7504         21.2504
 -15696557.24747 -11931018.43545  22693595.8594                   22693584.0354
        46.0004         35.0004
 -25757307.42948 -19936045.30749  20820082.2734                   20820073.5554
        50.7504         54.7504
  -1688069.24946  -1294573.75043  25380010.3594                   25380000.2934
        37.5004         18.5004
 -11394846.28047  -8850913.56347  23140424.7734                   23140414.6484
        42.2504         44.0004
  -9301561.31546  -6273981.68145  23572591.4224                   23572583.2894
        38.0004         35.0004
  -1486022.20145  -1434051.77944  25068738.8594                   25068731.3714
        33.0004         27.7504
 -24494963.97848 -20734078.07249  20505613.1174                   20505604.3404
        52.7504         54.7504
 23  1 11  0 35  0.0000000  0 12G22G08G27G23G24G21G10G12G31G01G25G32
 -20715103.98447 -11171593.35046  21139956.3834                   21139945.6134
        46.2504         37.7504
  -8709865.01445  -6743287.79545  24590941.3754                   24590932.5394
        35.2504         32.2504
  -7954102.71655  -5938475.60654  25304801.7344                   25304793.1334
        31.2504         26.7504
  -6356807.42047  -9439592.45045  22938934.3134                   22938923.9534
        44.5004         30.7504
  -4940917.83245  -4358219.39143  24052490.6484                   24052482.2234
        34.7504         22.0004
 -15745513.20947 -11969165.93645  22684280.0164                   22684267.5474
        45.5004         35.0004
 -25725123.99748 -19910967.32149  20826206.3204                   20826197.4264
        50.5004         55.0004
  -1753052.79746  -1345210.25642  25367644.2194                   25367633.5664
        37.5004         16.7504
 -11508764.97647  -8939681.35747  23118747.2114                   23118736.5004
        42.7504         44.0004
  -9398459.89446  -6349487.05245  23554152.4534                   23554144.4964
        38.0004         35.0004
  -1568410.47645  -1498250.40044  25053062.1414                   25053054.0084
        33.2504         28.0004
 -24489721.37648 -20729992.92449  20506610.9224                   20506602.5554
        52.7504         54.7504
 23  1 11  0 35 30.0000000  0 12G22G08G27G23G24G21G10G12G31G01G25G32
 -20759683.80847 -11206330.85546  21131472.8134                   21131462.6884
        46.0004         37.7504
  -8637411.14145  -6686830.27345  24604728.1564                   24604720.1994
        33.5004         30.7504
  -7861408.98655  -5887236.35554  25322445.6724                   25322434.9024
        35.5004         27.5004
  -6276090.85747  -9376696.45745  22954293.8754                   22954283.8674
        44.2504         30.7504
  -4841564.81645  -4280801.45243  24071397.3364                   24071389.1454
        34.5004         20.2504
 -15794072.41747 -12007004.27245  22675038.8364                   22675027.2464
        44.5004         34.7504
 -25692612.46948 -19885633.67749  20832393.3524                   20832384.3404
        51.2504         54.7504
  -1817735.22145  -1395612.20342  25355333.7504                   25355325.6764
        35.0004         17.7504
 -11622501.09647  -9028306.89247  23097103.6174                   23097093.0824
        42.5004         44.5004
  -9495054.60246  -6424755.65646  23535771.5084                   23535763.1414
        38.5004         36.0004
  -1650680.10745  -1562356.59044  25037404.6564                   25037398.0474
        32.2504         27.0004
 -24484114.48949 -20725623.92349  20507677.5084                   20507668.7894
        54.2504         54.7504
 23  1 11  0 36  0.0000000  0 12G22G08G27G23G24G21G10G12G31G01G25G32
 -20803921.87847 -11240802.07446  21123054.9924                   21123044.1054
        46.7504         37.5004
  -8564728.85955  -6630194.85455  24618557.1954                   24618551.2304
        33.0004         30.7504
                                  25340070.0634                   25340064.2154
        28.7504         21.7504
  -6195164.39847  -9313636.88445  22969693.2034                   22969683.0784
        43.2504         30.0004
  -4741903.28745  -4203143.11743  24090361.7034                   24090353.4534
        34.5004         20.5004
 -15842228.24847 -12044528.30645  22665876.4064                   22665864.1134
        46.0004         34.5004
 -25659768.04748 -19860040.62949  20838643.2974                   20838634.2274
        51.2504         55.0004
  -1882108.81846  -1445773.44142  25343085.6094                   25343075.9534
        37.0004         17.7504
 -11736047.16147  -9116784.33247  23075496.3054                   23075486.1804
        43.0004         44.5004
  -9591337.95346  -6499781.63446  23517448.1094                   23517440.9144
        38.0004         36.5004
  -1732823.10755  -1626364.07954  25021773.4064                   25021766.8554
        32.7504         26.5004
 -24478139.47449 -20720968.06949  20508814.7894                   20508806.2464
        54.2504         55.0004
 23  1 11  0 36 30.0000000  0 12G22G08G27G23G24G21G10G12G31G01G25G32
 -20847826.84047 -11275013.72046  21114700.1724                   21114689.5204
        46.0004         38.0004
  -8491830.04645  -6573390.64145  24632430.3754                   24632424.0004
        34.2504         31.7504
  -7676160.26355  -5742887.08954  25357695.5634                   25357686.7854
        32.2504         25.7504
  -6114037.01747  -9250420.75844  22985132.3054                   22985121.3594
        44.2504         29.7504
  -4641944.67245  -4125253.32243  24109382.2344                   24109375.6844
        33.5004         21.5004
 -15889987.93147 -12081743.64245  22656786.6024                   22656775.0704
        45.2504         34.7504
 -25626598.50548 -19834194.24749  20844955.0164                   20844946.4144
        50.7504         54.7504
  -1946179.33346  -1495698.40343  25330892.6484                   25330883.4614
        36.2504         18.5004
 -11849408.53247  -9205117.85147  23053924.8364                   23053914.5944
        42.7504         45.0004
  -9687315.44946  -6574569.30546  23499185.4224                   23499177.1724
        39.0004         36.7504
                                  25006164.8444                   25006158.6454
        29.2504         27.2504
 -24471805.72648 -20716032.67849  20510020.0864                   20510011.3094
        53.5004         55.0004
 23  1 11  0 37  0.0000000  0 12G22G08G27G23G24G21G10G12G31G01G25G32
 -20891391.71847 -11308960.36346  21106410.0314                   21106399.3204
        46.0004         38.0004
  -8418710.39145  -6516414.34345  24646345.8364                   24646337.3524
        35.0004         31.5004
  -7583612.42055  -5682506.74554  25375304.1724                   25375296.2154
        32.5004         24.7504
  -6032702.34947  -9187043.13045  23000608.9454                   23000599.6414
        44.0004         31.2504
  -4541684.87945  -4047128.82643  24128461.2504                   24128453.8794
        33.5004         20.5004
 -15937343.27647 -12118643.89845  22647775.3134                   22647763.7234
        45.0004         34.7504
 -25593096.98048 -19808089.16849  20851330.2664                   20851321.3134
        51.0004         55.0004
  -2009936.77646  -1545379.58243  25318759.2584                   25318750.7154
        36.0004         18.5004
 -11962575.24147  -9293299.67447  23032389.7424                   23032379.0314
        42.5004         45.0004
  -9782977.42346  -6649111.07546  23480980.3984                   23480972.7934
        38.5004         36.5004
  -1896735.02745  -1754087.62144  24990582.6484                   24990575.0434
        33.2504         28.0004
 -24465107.26849 -20710813.10149  20511295.0164                   20511286.0634
        54.2504         54.7504
 23  1 11  0 37 30.0000000  0 12G22G08G27G23G24G21G10G12G31G01G25G32
 -20934615.16947 -11342640.96546  21098184.7974                   21098174.3204
        46.2504         38.0004
  -8345371.88445  -6459267.52745  24660301.9384                   24660293.4534
        35.7504         31.5004
                                  25392903.1414                   25392895.8284
        29.2504         23.5004
  -5951159.67647  -9123503.38945  23016125.5704                   23016115.8554
        43.2504         30.7504
  -4441125.50345  -3968770.82443  24147596.7584                   24147589.0354
        32.7504         19.7504
 -15984290.89847 -12155226.47245  22638841.9694                   22638830.2624
        45.7504         34.7504
 -25559261.74448 -19781724.05849  20857768.8364                   20857760.2934
        51.0004         54.7504
  -2073376.79746  -1594813.28143  25306689.9534                   25306679.2424
        37.7504         20.2504
 -12075542.91047  -9381326.41547  23010893.0704                   23010882.1254
        43.0004         45.0004
  -9878319.73246  -6723403.78046  23462838.4694                   23462830.4534
        40.0004         37.0004
  -1978489.22045  -1817792.16544  24975024.2344                   24975018.0944
        31.7504         27.2504
 -24458043.72848 -20705309.04449  20512638.9774                   20512630.4924
        53.7504         54.7504
 23  1 11  0 38  0.0000000  0 12G22G08G27G23G24G21G10G12G31G01G25G32
 -20977506.18347 -11376062.52046  21090022.5394                   21090012.2384
        46.5004         38.2504
  -8271825.82345  -6401958.92945  24674296.3914                   24674289.5474
        34.7504         32.5004
  -7398703.79355  -5538422.03654  25410492.2504                   25410483.5904
        32.7504         27.0004
  -5869418.09747  -9059808.68045  23031680.9144                   23031670.8484
        43.5004         30.2504
  -4340278.17845  -3890188.50843  24166788.0004                   24166779.3984
        33.7504         18.2504
 -16030837.98947 -12191496.93145  22629983.8594                   22629972.6214
        45.0004         35.0004
 -25525101.05548 -19755105.34649  20864269.3284                   20864260.3754
        51.0004         55.0004
  -2136505.43946  -1644004.36743  25294675.0864                   25294665.7814
        37.0004         19.7504
 -12188317.04447  -9469202.34647  22989432.4144                   22989421.9384
        43.5004         45.2504
  -9973348.03846  -6797451.78546  23444754.3834                   23444746.8954
        39.2504         37.2504
  -2060112.82355  -1881394.97154  24959490.7034                   24959484.9144
        31.0004         26.0004
 -24450624.60248 -20699527.90549  20514050.5784                   20514042.1524
        53.7504         54.7504
 23  1 11  0 38 30.0000000  0 12G22G08G27G23G24G21G10G12G31G01G25G32
 -21020056.30447 -11409218.45246  21081925.4224                   21081914.7704
        46.5004         38.2504
  -8198066.33345  -6344484.02945  24688331.6724                   24688325.9414
        33.7504         30.7504
  -7306343.85245  -5466453.23444  25428067.8834                   25428058.6374
        32.2504         26.2504
  -5787469.89847  -8995952.97745  23047275.9924                   23047264.4614
        44.0004         30.0004
  -4239137.52745  -3811377.58643  24186034.8054                   24186025.7934
        34.2504         19.2504
 -16076975.39447 -12227448.15645  22621204.0554                   22621192.8164
        45.5004         34.7504
 -25490606.49548 -19728226.48149  20870833.6804                   20870825.0204
        51.5004         55.0004
  -2199310.91046  -1692943.73742  25282724.2114                   25282713.4414
        36.2504         16.7504
 -12300886.49547  -9556918.78147  22968011.4144                   22968000.5864
        43.5004         45.5004
 -10068051.28646  -6871246.52446  23426732.8284                   23426724.8714
        39.7504         37.0004
  -2141594.31055  -1944887.01754  24943985.7274                   24943980.8204
        32.2504         26.2504
 -24442842.60349 -20693464.01149  20515531.3984                   20515522.9734
        54.2504         55.0004
 23  1 11  0 39  0.0000000  0 12G22G08G27G23G24G21G10G12G31G01G25G32
 -21062269.95847 -11442112.19446  21073892.9774                   21073881.9144
        47.0004         38.7504
  -8124101.37645  -6286849.00145  24702406.5474                   24702399.9384
        35.0004         31.7504
  -7214051.94844  -5394537.42244  25445629.3834                   25445620.8404
        29.5004         26.0004
  -5705319.81447  -8931939.95145  23062907.9774                   23062897.9104
        43.2504         30.0004
  -4137710.54245  -3732343.64943  24205336.5864                   24205327.9264
        34.5004         21.2504
 -16122704.83647 -12263081.48345  22612502.6484                   22612490.8244
        46.2504         35.5004
 -25455782.12648 -19701090.61049  20877460.3284                   20877451.7854
        51.0004         55.0004
  -2261794.31345  -1741632.03843  25270831.9774                   25270822.8484
        33.2504         18.5004
 -12413252.51547  -9644476.69447  22946628.8524                   22946617.9064
        43.7504         45.7504
 -10162430.80246  -6944789.00246  23408773.4614                   23408765.8554
        39.5004         37.2504
                                  24928507.0474                   24928501.4344
        31.5004         26.5004
 -24434702.84448 -20687121.33449  20517080.3674                   20517071.9414
        53.0004         54.7504
 23  1 11  0 39 30.0000000  0 12G22G08G27G23G24G21G10G12G31G01G25G32
 -21104141.40647 -11474739.29146  21065924.9384                   21065913.9344
        47.2504         38.7504
  -8049928.37745  -6229051.88345  24716520.1484                   24716515.3594
        32.2504         31.5004
                                  25463180.3134                   25463170.9494
        32.0004         24.7504
  -5622962.80647  -8867765.67044  23078579.7974                   23078570.1994
        43.5004         29.7504
  -4035994.68645  -3653084.54843  24224692.6094                   24224683.0124
        34.2504         19.2504
 -16168019.72147 -12298391.78245  22603879.5704                   22603867.5124
        46.0004         34.7504
 -25420622.31348 -19673693.36249  20884151.2734                   20884142.3204
        51.0004         54.7504
  -2323947.77246  -1790063.32642  25259006.7194                   25258995.2464
        36.2504         17.2504
 -12525406.39647  -9731869.31347  22925286.8444                   22925276.0744
        43.5004         45.7504
 -10256478.15246  -7018072.62446  23390876.8914                   23390868.9924
        39.2504         37.2504
  -2304125.09055  -2071534.34654  24913059.9144                   24913051.5474
        32.7504         28.5004
 -24426200.67248 -20680496.26949  20518698.2424                   20518689.5234
        52.7504         55.0004
 23  1 11  0 40  0.0000000  0 12G22G08G27G23G24G21G10G12G31G01G25G32
 -21145681.46447 -11507108.14546  21058019.8364                   21058009.2424
        45.5004         38.7504
  -7975560.67546  -6171103.04145  24730674.3204                   24730666.8324
        36.7504         31.7504
  -7029675.09054  -5250866.64754  25480713.2974                   25480707.2154
        28.2504         26.0004
  -5540410.16847  -8803438.98344  23094289.3364                   23094278.9184
        43.5004         29.5004
  -3934003.49145  -3573610.87243  24244099.0084                   24244092.2234
        33.7504         21.5004
 -16212929.44147 -12333386.37745  22595333.1484                   22595321.7344
        44.0004         35.5004
 -25385136.72148 -19646042.26749  20890903.8524                   20890895.0164
        51.2504         55.0004
  -2385779.20745  -1838243.62642  25247240.3754                   25247229.9574
        35.7504         17.2504
 -12637355.81547  -9819102.60247  22903983.6484                   22903972.7624
        44.2504         45.7504
 -10350201.19646  -7091103.56546  23373042.0634                   23373033.8134
        38.7504         36.2504
                                  24897634.1804                   24897628.1564
        33.0004         27.0004
 -24417347.78549 -20673597.91449  20520383.1174                   20520374.6334
        54.0004         55.0004
 23  1 11  0 40 30.0000000  0 12G22G08G27G23G24G21G10G12G31G01G25G32
 -21186880.92247 -11539211.61446  21050180.5394                   21050169.4184
        46.7504         39.2504
  -7900991.98445  -6112997.55745  24744863.3914                   24744856.8404
        34.7504         31.7504
  -6937598.93955  -5179119.00254  25498239.0004                   25498228.6994
        34.5004         29.2504
  -5457652.91247  -8738952.83244  23110037.1804                   23110027.2304
        43.2504         29.2504
  -3831730.33745  -3493917.54543  24263561.5084                   24263554.3134
        33.5004         20.0004
 -16257422.89147 -12368056.59645  22586865.7974                   22586854.9694
        43.7504         35.0004
 -25349316.20748 -19618130.18849  20897720.4304                   20897711.5944
        51.7504         54.7504
  -2447275.74646  -1886162.98943  25235537.3054                   25235527.7664
        36.0004         19.0004
 -12749088.03347  -9906166.64047  22882721.2974                   22882710.4104
        43.5004         45.7504
 -10443587.48246  -7163872.09746  23355271.4844                   23355263.7034
        38.7504         36.7504
                                  24882241.617
        32.500
 -24408135.51448 -20666419.51849  20522136.1644                   20522127.4454
        53.2504         54.7504
 23  1 11  0 41  0.0000000  0 12G22G08G27G23G24G21G10G12G31G01G25G32
 -21227740.76247 -11571050.44346  21042404.4614                   21042393.8674
        46.5004         38.7504
  -7826226.12645  -6054738.45545  24759089.6884                   24759084.6644
        33.5004         31.7504
  -6845598.56054  -5107430.33954  25515741.6484                   25515734.2774
        29.5004         25.7504
  -5374692.75247  -8674308.56844  23125824.3524                   23125813.2894
        43.5004         29.2504
  -3729179.31145  -3414007.62443  24283077.8524                   24283067.7854
        34.0004         19.5004
 -16301499.81147 -12402402.23645  22578478.5634                   22578467.5004
        44.7504         35.2504
 -25313161.57448 -19589957.75949  20904600.5474                   20904591.4774
        51.0004         54.7504
  -2508435.46446  -1933819.88843  25223899.0554                   25223889.8094
        36.2504         18.5004
 -12860601.43747  -9993060.17447  22861501.2114                   22861490.2074
        43.5004         46.0004
 -10536635.43746  -7236376.96846  23337564.3054                   23337556.5234
        38.0004         36.0004
  -2546803.00355  -2247635.41854  24866879.1484                   24866872.0704
        33.5004         28.2504
 -24398565.99948 -20658962.75849  20523957.2504                   20523948.5904
        53.0004         55.0004
 23  1 11  0 41 30.0000000  0 12G22G08G27G23G24G21G10G12G31G01G25G32
 -21268264.48547 -11602627.35646  21034693.4924                   21034682.9574
        47.7504         39.0004
  -7751270.01145  -5996331.09845  24773354.7894                   24773348.0634
        35.2504         32.7504
  -6753680.18455  -5035805.67354  25533234.1484                   25533226.7774
        31.2504         26.5004
  -5291533.53447  -8609509.21244  23141648.8754                   23141638.9844
        43.2504         28.7504
  -3626356.56245  -3333886.03443  24302643.2034                   24302635.9494
        33.5004         19.5004
 -16345162.61947 -12436425.21045  22570170.1254                   22570158.3014
        45.7504         35.0004
 -25276675.92948 -19561527.39349  20911543.3834                   20911534.2544
        52.0004         55.0004
  -2569259.12746  -1981214.90643  25212324.2894                   25212314.8674
        36.0004         18.5004
 -12971896.29947 -10079783.42547  22840322.4924                   22840311.4304
        43.5004         45.5004
 -10629345.44746  -7308618.54246  23319923.0704                   23319914.4694
        39.2504         36.0004
  -2627381.01745  -2310423.46744  24851544.5944                   24851538.6294
        32.5004         28.0004
 -24388643.54748 -20651230.97449  20525845.1804                   20525836.5784
        53.5004         55.0004
 23  1 11  0 42  0.0000000  0 12G22G08G27G23G24G21G10G12G31G01G25G32
 -21308450.68447 -11633941.27046  21027046.1644                   21027035.1024
        47.2504         39.5004
  -7676124.18545  -5937775.89945  24787655.1094                   24787647.6804
        35.5004         32.5004
                                  25550706.4614                   25550702.7854
        27.5004         25.0004
  -5208174.39347  -8544554.05744  23157511.3754                   23157501.6604
        42.5004         29.7504
  -3523263.55845  -3253553.87543  24322261.6884                   24322253.4964
        33.7504         20.2504
 -16388407.15347 -12470122.26545  22561941.0704                   22561929.4224
        46.2504         35.2504
 -25239857.36248 -19532837.61649  20918549.7584                   20918541.0394
        52.5004         54.7504
  -2629742.16445  -2028344.54042  25200812.6254                   25200805.2544
        33.2504         16.7504
 -13082967.85647 -10166332.66647  22819185.8444                   22819175.3094
        43.5004         45.7504
 -10721713.13346  -7380593.35745  23302344.7974                   23302337.7774
        37.2504         35.5004
  -2707796.99255  -2373085.23454  24836242.0314                   24836236.3014
        33.0004         28.2504
 -24378367.58248 -20643223.72349  20527800.8914                   20527791.8794
        53.2504         55.0004
 23  1 11  0 42 30.0000000  0 12G22G08G27G23G24G21G10G12G31G01G25G32
 -21348299.89148 -11664992.59446  21019462.8914                   21019452.4734
        48.2504         39.2504
  -7600792.15245  -5879075.62845  24801990.6644                   24801983.6454
        35.5004         32.7504
  -6570095.48755  -4892752.53854  25568169.9304                   25568161.0354
        32.0004         26.5004
  -5124615.92547  -8479443.58144  23173412.5704                   23173401.8594
        43.2504         28.5004
  -3419903.23945  -3173013.30143  24341930.0084                   24341921.7584
        32.7504         20.5004
 -16431232.75047 -12503492.86145  22553791.1954                   22553779.7814
        46.0004         35.0004
 -25202705.73048 -19503888.30249  20925619.2114                   20925610.6684
        52.0004         54.7504
  -2689881.62446  -2075206.46842  25189371.0234                   25189360.1374
        36.5004         17.7504
 -13193813.32747 -10252705.72947  22798092.7814                   22798082.1884
        43.7504         46.0004
 -10813735.81546  -7452299.33046  23284834.7504                   23284825.9144
        38.5004         36.0004
  -2788047.66655  -2435618.24954  24820971.2814                   24820963.6764
        33.0004         28.5004
 -24367739.14648 -20634941.82949  20529823.2584                   20529814.5984
        53.0004         55.0004
 23  1 11  0 43  0.0000000  0 12G22G08G27G23G24G21G10G12G31G01G25G32
 -21387811.67947 -11695780.99346  21011944.2814                   21011933.9224
        46.0004         39.2504
  -7525276.75445  -5820232.47545  24816360.1954                   24816352.8244
        35.7504         32.7504
  -6478434.38755  -4821328.30754  25585613.9614                   25585604.4224
        33.5004         27.5004
  -5040858.51047  -8414178.09844  23189350.5554                   23189340.5474
        43.0004         29.2504
  -3316278.16145  -3092266.54443  24361648.8284                   24361641.4574
        33.5004         20.0004
 -16473637.61547 -12536535.61945  22545721.6484                   22545710.4104
        43.7504         35.5004
 -25165220.49048 -19474679.03649  20932752.6564                   20932743.9964
        52.0004         55.0004
  -2749674.40345  -2121798.24242  25177991.5474                   25177982.1254
        34.5004         17.2504
 -13304429.35947 -10338900.02147  22777043.4384                   22777032.6684
        43.7504         46.0004
 -10905410.28246  -7523733.98845  23267388.3284                   23267380.8984
        38.2504         35.7504
  -2868129.68645  -2498019.79344  24805731.6564                   24805725.3984
        32.0004         29.0004
 -24356758.93948 -20626385.82049  20531912.4844                   20531903.8834
        53.0004         55.2504
 23  1 11  0 43 30.0000000  0 12G22G08G27G23G24G21G10G12G31G01G25G32
 -21426986.58747 -11726306.88946  21004489.3984                   21004478.9224
        47.0004         39.5004
  -7449581.37945  -5761249.05145  24830763.0234                   24830757.6454
        34.5004         33.5004
  -6386862.69255  -4761152.23454  25603034.9614                   25603027.9414
        30.5004         27.7504
  -4956903.10947  -8348758.31944  23205327.3914                   23205317.0314
        42.7504         28.0004
  -3212391.87045  -3011316.16842  24381418.1804                   24381409.7544
        34.0004         17.7504
 -16515621.23347 -12569250.12445  22537732.8914                   22537721.5354
        46.0004         35.2504
 -25127402.06248 -19445210.13949  20939949.2814                   20939940.6804
        51.2504         54.7504
  -2809118.24345  -2168118.09642  25166680.3834                   25166670.8444
        35.5004         17.7504
 -13414813.28447 -10424913.43947  22756038.3364                   22756027.4494
        44.2504         46.2504
 -10996734.25546  -7594895.50746  23250009.9774                   23250002.8984
        38.2504         36.2504
  -2948040.17445  -2560287.70144  24790525.0314                   24790519.5354
        32.2504         29.2504
 -24345428.42248 -20617556.84049  20534068.6564                   20534060.2894
        52.0004         55.2504
 23  1 11  0 44  0.0000000  0 12G22G08G27G23G24G21G10G12G31G01G25G32
 -21465825.16848 -11756570.70746  20997098.9924                   20997088.1644
        48.0004         38.7504
  -7373709.40345  -5702128.02445  24845201.6094                   24845195.8204
        34.5004         32.5004
  -6295387.64645  -4689872.96044  25620446.0004                   25620436.5784
        33.0004         27.0004
  -4872750.76846  -8283185.11844  23221340.6094                   23221331.0124
        41.7504         29.7504
  -3108247.47245  -2930164.71743  24401236.7114                   24401228.4024
        34.0004         19.5004
 -16557182.57947 -12601635.58145  22529824.2974                   22529812.4144
        46.2504         34.7504
 -25089250.42048 -19415481.58949  20947209.4304                   20947200.5354
        51.0004         55.0004
  -2868210.60146  -2214164.05843  25155436.8284                   25155426.0594
        37.0004         19.0004
 -13524962.64847 -10510744.08347  22735077.3834                   22735066.6134
        44.2504         45.5004
 -11087705.22546  -7665781.97146  23232699.0554                   23232691.2734
        38.5004         36.2504
  -3027776.23445  -2622419.64444  24775352.8984                   24775346.0554
        33.5004         28.5004
 -24333748.85948 -20608455.87449  20536291.5784                   20536282.2734
        51.5004         55.0004
 23  1 11  0 44 30.0000000  0 12G22G08G27G23G24G21G10G12G31G01G25G32
 -21504326.44147 -11786571.69146  20989772.2424                   20989761.6484
        47.7504         39.5004
  -7297662.52146  -5642870.72245  24859674.0084                   24859667.4574
        36.0004         34.0004
  -6204008.54254  -4618668.44754  25637832.0784                   25637825.4694
        29.0004         25.7504
  -4788400.82647  -8217457.93244  23237392.4224                   23237382.0044
        42.5004         29.5004
  -3003846.63345  -2848813.48343  24421103.1414                   24421095.5944
        33.0004         19.5004
 -16598318.28147 -12633689.39345  22521996.2974                   22521984.6484
        46.5004         35.5004
 -25050764.66548 -19385492.70249  20954532.8594                   20954523.6724
        51.0004         54.7504
  -2926947.38845  -2259932.93743  25144257.4614                   25144248.6844
        35.0004         19.0004
 -13634872.86547 -10596388.39347  22714161.4064                   22714151.1054
        43.7504         46.2504
 -11178319.09146  -7736390.16046  23215456.5864                   23215447.8674
        39.5004         37.5004
  -3107333.37945  -2684412.23445  24760214.1414                   24760206.4184
        33.5004         30.2504
 -24321720.09048 -20599082.80249  20538580.5234                   20538571.6294
        51.7504         54.7504
 23  1 11  0 45  0.0000000  0 12G22G08G27G23G24G21G10G12G31G01G25G32
 -21542491.46047 -11816310.65546  20982509.2664                   20982498.8484
        47.5004         39.7504
  -7221444.41645  -5583479.95145  24874177.7194                   24874170.1134
        34.7504         32.2504
  -6112728.92255  -4547541.46454  25655202.6024                   25655194.8204
        31.7504         25.2504
  -4703854.69947  -8151577.86944  23253480.2814                   23253470.2734
        43.0004         29.5004
  -2899193.21045  -2767265.33443  24441018.2114                   24441010.2544
        33.0004         20.2504
 -16639028.27147 -12665411.46645  22514249.0634                   22514237.7664
        46.2504         35.5004
 -25011945.08248 -19355243.68949  20961919.9384                   20961910.9264
        51.0004         54.7504
  -2985326.75345  -2305423.33042  25133148.7664                   25133138.7584
        35.0004         17.7504
 -13744542.11647 -10681844.92147  22693292.4144                   22693281.6454
        44.0004         46.7504
 -11268573.94846  -7806718.61846  23198281.2344                   23198273.2194
        39.2504         38.0004
  -3186709.35345  -2746263.65945  24745108.8364                   24745101.1134
        33.5004         30.2504
 -24309343.96548 -20589439.06949  20540935.6024                   20540927.0594
        51.2504         55.0004
 23  1 11  0 45 30.0000000  0 12G22G08G27G23G24G21G10G12G31G01G25G32
 -21580319.95148 -11845787.39546  20975311.6174                   20975300.4384
        48.7504         40.0004
  -7145057.94145  -5523958.04945  24888713.1094                   24888707.0274
        35.5004         33.2504
  -6021551.15345  -4476493.83644  25672554.5944                   25672546.1684
        33.5004         27.0004
  -4619112.55446  -8085545.05544  23269606.3914                   23269596.3244
        41.7504         29.2504
  -2794289.52345  -2685522.17343  24460981.1254                   24460972.6414
        34.0004         21.0004
 -16679310.73547 -12696800.39345  22506583.5634                   22506572.6174
        46.7504         35.7504
 -24972791.01148 -19324734.02249  20969370.6024                   20969361.7074
        51.0004         54.7504
  -3043345.03745  -2350632.35642  25122108.5084                   25122099.0274
        35.0004         16.2504
 -13853966.85547 -10767110.94147  22672470.2424                   22672458.6524
        44.2504         47.0004
 -11358466.47346  -7876764.73146  23181175.4064                   23181167.3324
        39.7504         39.0004
  -3265900.31545  -2807970.85245  24730039.4454                   24730031.8984
        34.0004         30.0004
 -24296620.93948 -20579525.01849  20543356.7114                   20543348.1094
        51.7504         55.0004
 23  1 11  0 46  0.0000000  0 12G22G08G27G23G24G21G10G12G31G01G25G32
 -21617812.42547 -11875002.30546  20968176.4384                   20968165.9024
        46.0004         40.2504
  -7068506.86546  -5464307.88345  24903281.0554                   24903274.5044
        37.0004         34.7504
  -5930478.17955  -4405527.79354  25689881.9844                   25689875.9024
        30.2504         25.0004
  -4534175.53547  -8019360.41444  23285769.2034                   23285759.6054
        42.5004         29.5004
  -2689139.00945  -2603586.73943  24480990.6484                   24480981.4614
        34.5004         19.5004
 -16719164.99747 -12727855.66945  22498999.7894                   22498988.0234
        45.0004         35.7504
 -24933302.89148 -19293964.07149  20976884.9454                   20976876.1684
        52.0004         54.7504
  -3101000.46346  -2395558.67543  25111137.3834                   25111127.4344
        36.0004         19.0004
 -13963144.60047 -10852184.48447  22651693.8284                   22651683.1764
        44.7504         47.0004
 -11447994.34046  -7946526.70046  23164137.9924                   23164130.9144
        40.5004         39.0004
  -3344903.59145  -2869531.83945  24715005.4924                   24714998.2974
        34.0004         30.2504
 -24283552.58548 -20569341.88649  20545843.2584                   20545834.4804
        52.0004         55.7504
 23  1 11  0 46 30.0000000  0 12G22G08G27G23G24G21G10G12G31G01G25G32
 -21654966.62048 -11903953.61146  20961106.1174                   20961095.2304
        48.0004         40.0004
  -6991791.19445  -5404529.46945  24917879.1174                   24917872.2154
        35.5004         32.5004
  -5839510.31645  -4334643.76944  25707195.4224                   25707186.5274
        33.5004         27.7504
  -4449041.70947  -7953022.40044  23301970.9224                   23301960.5634
        42.0004         28.5004
  -2583742.06445  -2521459.25643  24501046.4774                   24501038.4024
        34.0004         19.7504
 -16758587.69147 -12758574.66245  22491497.8754                   22491486.2854
        47.2504         35.7504
 -24893478.08948 -19262931.76749  20984463.2034                   20984454.8364
        50.7504         54.7504
  -3158287.24646  -2440197.70443  25100236.9534                   25100226.0084
        37.5004         19.2504
 -14072069.67147 -10937061.13247  22630966.3054                   22630955.5354
        44.5004         47.2504
 -11537152.25646  -8016000.39446  23147173.3284                   23147164.3754
        41.2504         39.7504
  -3423713.24845  -2930941.97745  24700007.7814                   24700000.9964
        32.7504         31.0004
 -24270137.34748 -20558888.44149  20548395.9384                   20548387.0434
        50.5004         55.2504
 23  1 11  0 47  0.0000000  0 12G22G08G27G23G24G21G10G12G31G01G25G32
 -21691787.07947 -11932644.87246  20954099.7424                   20954088.9144
        47.7504         40.2504
  -6914918.08845  -5344628.38245  24932507.3674                   24932500.5234
        34.7504         34.0004
  -5748654.33155  -4263846.84854  25724482.6564                   25724476.0474
        32.0004         26.0004
  -4363715.91446  -7886534.80644  23318206.4694                   23318197.1054
        41.0004         28.7504
  -2478105.71945  -2439145.21743  24521149.4614                   24521139.8634
        35.5004         20.0004
 -16797580.65347 -12788958.78646  22484078.0004                   22484066.2344
        47.0004         36.5004
 -24853320.36048 -19231640.04349  20992105.2584                   20992096.6564
        52.0004         55.0004
  -3215206.96646  -2484550.70343  25089405.4144                   25089394.7034
        37.2504         18.5004
 -14180743.25347 -11021741.83247  22610286.7274                   22610275.4304
        45.5004         47.0004
 -11625941.56246  -8085186.85246  23130276.0864                   23130268.7154
        40.0004         40.0004
  -3502330.48645  -2992202.13245  24685047.5784                   24685040.7344
        33.2504         30.0004
 -24256380.47148 -20548168.78649  20551014.0084                   20551005.2304
        52.5004         55.0004
 23  1 11  0 47 30.0000000  0 12G22G08G27G23G24G21G10G12G31G01G25G32
 -21728272.06348 -11961074.73646  20947157.0394                   20947146.1524
        48.2504         40.0004
  -6837889.11245  -5284605.75245  24947164.8204                   24947159.7974
        33.2504         34.0004
  -5657911.00355  -4193137.83154  25741752.6484                   25741744.6914
        32.7504         27.7504
  -4278197.06647  -7819896.78044  23334481.0634                   23334470.8794
        42.2504         29.5004
  -2372231.14146  -2356645.54243  24541296.8984                   24541287.5944
        36.0004         21.2504
 -16836141.31347 -12819006.05646  22476739.3134                   22476728.5434
        46.5004         36.2504
 -24812827.94248 -19200087.52449  20999810.7344                   20999802.4264
        51.5004         55.0004
  -3271755.03146  -2528614.09843  25078645.0084                   25078633.7114
        36.5004         20.0004
 -14289160.51647 -11106222.78447  22589655.7504                   22589644.3364
        45.2504         47.2504
 -11714357.68246  -8154082.53546  23113451.5164                   23113443.5594
        41.2504         40.2504
  -3580750.11245  -3053308.30444  24670122.5234                   24670118.3794
        33.0004         29.5004
 -24242281.10948 -20537182.26949  20553697.2734                   20553688.4384
        51.2504         54.7504
 23  1 11  0 48  0.0000000  0 12G22G08G27G23G24G21G10G12G31G01G25G32
 -21764419.51748 -11989241.57146  20940277.9774                   20940267.2074
        48.7504         40.0004
  -6760704.20845  -5224461.75445  24961852.9924                   24961846.2664
        35.7504         33.5004
                                  25758995.0394                   25758992.3594
        26.2504         26.2504
  -4192483.16346  -7753106.77244  23350791.6804                   23350781.3794
        41.0004         29.0004
  -2266118.57645  -2273960.48043  24561488.3054                   24561480.3484
        33.2504         20.5004
 -16874266.02847 -12848713.62646  22469485.1484                   22469473.8524
        47.2504         36.5004
 -24771998.32248 -19168272.26949  21007580.1254                   21007571.6414
        51.0004         54.7504
  -3327926.17946  -2572383.87143  25067955.5314                   25067944.8204
        36.7504         19.5004
 -14397316.07447 -11190499.82447  22569073.3054                   22569062.9454
        44.5004         47.2504
 -11802395.28346  -8222683.26646  23096698.6254                   23096690.5514
        41.0004         40.7504
  -3658966.42245  -3114256.08145  24655240.7664                   24655234.7424
        33.5004         30.5004
 -24227837.80648 -20525927.74349  20556445.2114                   20556436.4344
        50.7504         54.7504
 23  1 11  0 48 30.0000000  0 12G22G08G27G23G24G21G10G12G31G01G25G32
 -21800235.21648 -12017149.90246  20933462.5864                   20933452.0514
        48.0004         40.5004
  -6683372.70846  -5164203.41245  24976569.6484                   24976561.9844
        36.0004         33.2504
  -5476775.32155  -4069985.91054  25776222.1254                   25776213.3484
        33.0004         28.0004
  -4106580.74446  -7686169.84944  23367138.8134                   23367128.2194
        41.2504         28.5004
  -2159776.82645  -2191096.75243  24581724.5394                   24581716.4654
        34.0004         20.7504
 -16911959.06347 -12878084.83145  22462312.7504                   22462300.9844
        47.0004         35.7504
 -24730836.93848 -19136198.47049  21015412.9454                   21015404.5204
        52.0004         54.7504
  -3383723.81046  -2615862.48743  25057337.3674                   25057326.8914
        36.2504         19.2504
 -14505212.86447 -11274575.21947  22548541.3054                   22548530.7704
        45.0004         47.2504
 -11890057.41046  -8290991.41146  23080016.5164                   23080009.0274
        40.5004         40.2504
  -3736981.95845  -3175047.38444  24640394.2894                   24640387.5044
        35.0004         29.7504
 -24213057.42048 -20514410.55349  20559258.1804                   20559249.6374
        50.7504         55.0004
 23  1 11  0 49  0.0000000  0 12G22G08G27G23G24G21G10G12G31G01G25G32
 -21835714.08647 -12044795.76946  20926711.3284                   20926700.5004
        46.5004         40.5004
  -6605891.55146  -5103828.52745  24991313.8364                   24991306.9344
        36.0004         33.0004
  -5386384.53855  -3999551.48854  25793422.0864                   25793414.3054
        34.5004         28.0004
  -4020485.02346  -7619082.31744  23383521.7974                   23383511.9064
        41.5004         28.2504
  -2053203.39145  -2108052.54143  24602004.3524                   24601997.0394
        34.0004         20.0004
 -16949214.11547 -12907114.74845  22455223.3594                   22455211.3594
        45.2504         35.5004
 -24689338.17548 -19103861.77849  21023310.1724                   21023301.9804
        51.5004         54.7504
  -3439139.20246  -2659043.29643  25046791.7194                   25046781.4774
        38.0004         18.5004
 -14612842.26247 -11358442.26747  22528059.9064                   22528049.4884
        44.5004         47.2504
 -11977335.86146  -8359000.59246  23063408.3054                   23063400.5234
        40.5004         40.5004
  -3814788.16145  -3235675.56745  24625588.9534                   24625581.9344
        35.0004         30.2504
 -24197935.52848 -20502627.25449  20562135.5314                   20562126.7544
        50.5004         55.0004
 23  1 11  0 49 30.0000000  0 11G22G08G23G24G21G10G12G31G01G25G32
 -21870856.48948 -12072179.44946  20920023.9304                   20920012.9264
        48.2504         40.5004
  -6528264.51846  -5043339.93545  25006085.7274                   25006079.1174
        36.2504         34.5004
  -3934196.92647  -7551844.87644  23399942.1804                   23399931.4694
        42.0004         28.7504
  -1946401.21345  -2024830.07743  24622328.7894                   24622320.0704
        35.2504         19.7504
 -16986030.05447 -12935802.48646  22448216.5164                   22448205.5704
        46.7504         36.2504
 -24647502.44548 -19071262.53549  21031270.8674                   21031262.5004
        51.0004         54.7504
  -3494169.73046  -2701924.21042  25036320.6414                   25036309.8134
        36.0004         17.7504
 -14720201.50047 -11442098.79247  22507630.6804                   22507619.7344
        44.7504         47.2504
 -12064228.09146  -8426708.82046  23046873.2814                   23046865.7344
        40.2504         40.7504
  -3892381.93745  -3296138.23045  24610823.3594                   24610816.3404
        34.2504         32.2504
 -24182473.39448 -20490578.84249  20565078.2894                   20565069.4534
        50.5004         55.2504
 23  1 11  0 50  0.0000000  0 11G22G08G23G24G21G10G12G31G01G25G32
 -21905666.95948 -12099304.48246  20913399.3914                   20913388.9144
        48.2504         40.5004
  -6450498.77746  -4982743.28345  25020884.1564                   25020876.3754
        36.5004         33.0004
  -3847721.00746  -7484461.06644  23416397.6724                   23416387.7234
        40.7504         28.7504
  -1839377.30745  -1941434.83643  24642694.5234                   24642686.5084
        34.2504         20.7504
 -17022409.63347 -12964150.21546  22441294.3284                   22441282.9734
        46.5004         36.7504
 -24605333.45448 -19038403.60349  21039295.5314                   21039287.5744
        52.5004         54.7504
  -3548817.20346  -2744506.61843  25025919.3054                   25025910.9384
        36.0004         19.2504
 -14827291.63847 -11525545.62347  22487251.8204                   22487240.8164
        45.0004         47.2504
 -12150735.25146  -8494116.98846  23030411.6954                   23030403.1524
        41.5004         40.7504
                                  24596098.9304                   24596091.9104
        34.2504         31.2504
 -24166676.00148 -20478269.17849  20568084.0314                   20568075.1374
        50.5004         55.0004
 23  1 11  0 50 30.0000000  0 11G22G08G23G24G21G10G12G31G01G25G32
 -21940140.50948 -12126166.97546  20906839.6094                   20906828.6644
        48.7504         40.5004
  -6372592.27345  -4922036.88445  25035707.8914                   25035701.9264
        34.0004         32.5004
  -3761053.04846  -7416927.62944  23432890.3284                   23432880.0864
        41.5004         28.5004
  -1732129.46345  -1857865.12743  24663103.7584                   24663095.3914
        35.2504         21.2504
 -17058347.04647 -12992153.39146  22434455.6954                   22434444.1644
        47.7504         37.0004
 -24562826.23448 -19005281.11149  21047384.4064                   21047375.9804
        51.7504         55.0004
  -3603074.04946  -2786784.64743  25015596.9224                   25015586.2114
        37.7504         19.0004
 -14934104.76847 -11608776.62247  22466925.9384                   22466915.5204
        44.5004         47.2504
 -12236849.61646  -8561219.10046  23014024.3834                   23014016.7194
        41.0004         40.7504
  -4046926.28645  -3416562.38545  24581413.8914                   24581407.2814
        34.7504         30.0004
 -24150539.49048 -20465695.25949  20571155.0234                   20571146.1884
        51.5004         55.0004
 23  1 11  0 51  0.0000000  0 11G22G08G23G24G21G10G12G31G01G25G32
 -21974281.74048 -12152770.52846  20900342.7894                   20900331.9614
        48.2504         40.5004
  -6294551.55145  -4861225.95145  25050559.5394                   25050553.2234
        35.7504         33.7504
  -3674197.83246  -7349248.27244  23449417.5394                   23449408.0594
        40.0004         28.2504
  -1624664.87345  -1774126.48843  24683552.8834                   24683545.1024
        35.0004         19.7504
 -17093844.61247 -13019813.84646  22427700.8444                   22427689.3134
        46.5004         36.2504
 -24519984.79248 -18971898.18349  21055536.9774                   21055528.7274
        52.0004         54.7504
  -3656941.35746  -2828759.18843  25005345.3914                   25005335.2074
        37.0004         18.5004
 -15040642.11347 -11691792.70847  22446652.2664                   22446641.6724
        44.5004         47.0004
 -12322572.63146  -8628016.24946  22997711.7894                   22997704.7704
        41.0004         40.7504
  -4123869.59645  -3476518.16745  24566771.6804                   24566765.8324
        35.0004         30.5004
 -24134069.01448 -20452861.12249  20574288.8834                   20574280.2814
        51.5004         55.0004
 23  1 11  0 51 30.0000000  0 11G22G08G23G24G21G10G12G31G01G25G32
 -22008089.16147 -12179113.97146  20893909.2504                   20893898.5394
        46.5004         40.5004
  -6216378.52746  -4800311.87345  25065436.2424                   25065428.1684
        37.0004         33.5004
  -3587154.32746  -7281422.23144  23465981.9454                   23465972.0554
        41.2504         29.2504
  -1516984.43945  -1690219.67443  24704045.0234                   24704035.9534
        35.7504         20.2504
 -17128899.50647 -13047129.35646  22421029.7034                   22421018.2894
        44.7504         36.7504
 -24476807.25248 -18938253.37249  21063753.3054                   21063745.0554
        51.7504         54.7504
  -3710414.67646  -2870426.69843  24995171.1174                   24995159.3524
        37.7504         19.2504
 -15146898.71647 -11774590.03947  22426432.4454                   22426421.7344
        44.7504         47.2504
 -12407899.70847  -8694504.87846  22981474.9924                   22981466.6844
        42.2504         41.0004
  -4200589.04645  -3536299.53645  24552173.1334                   24552166.6994
        35.5004         31.0004
 -24117263.84748 -20439766.17749  20577486.9774                   20577478.0824
        50.5004         55.0004
 23  1 11  0 52  0.0000000  0 11G22G08G23G24G21G10G12G31G01G25G32
 -22041562.99148 -12205197.46846  20887539.5784                   20887528.6334
        48.2504         40.5004
  -6138075.82645  -4739296.79745  25080334.8834                   25080328.8014
        35.2504         33.2504
  -3499923.18646  -7213449.91944  23482581.6094                   23482571.3094
        41.2504         27.5004
  -1409091.21445  -1606147.02643  24724573.8284                   24724567.6294
        33.5004         21.5004
 -17163510.63747 -13074099.07246  22414443.5004                   22414431.8524
        46.5004         37.0004
 -24433293.33248 -18904346.44249  21072033.8284                   21072024.9924
        51.2504         55.0004
  -3763491.43846  -2911785.22643  24985070.1884                   24985059.7114
        36.7504         20.2504
 -15252871.84847 -11857166.47947  22406266.3914                   22406255.8554
        45.2504         47.2504
 -12492828.07646  -8760682.83746  22965314.0704                   22965305.8794
        40.7504         41.5004
  -4277081.18545  -3595903.82545  24537616.8594                   24537610.4844
        35.0004         30.7504
 -24100125.04548 -20426411.26649  20580748.2584                   20580739.7154
        50.5004         55.0004
 23  1 11  0 52 30.0000000  0 11G22G08G23G24G21G10G12G31G01G25G32
 -22074703.23947 -12231021.03246  20881233.3134                   20881222.3674
        47.5004         40.7504
  -6059646.38245  -4678182.99545  25095259.9304                   25095254.4344
        34.7504         33.5004
  -3412504.75346  -7145331.71644  23499216.5554                   23499206.2544
        41.2504         27.0004
  -1300987.50145  -1521910.35143  24745147.7194                   24745138.7664
        34.7504         20.2504
 -17197676.90147 -13100722.14046  22407941.7034                   22407930.5824
        46.5004         37.0004
 -24389443.23648 -18870177.54849  21080378.0084                   21080369.4064
        50.5004         54.7504
  -3816168.66246  -2952832.37643  24975046.6804                   24975035.7344
        37.7504         19.5004
 -15358558.01547 -11939519.32647  22386155.0394                   22386144.4454
        45.2504         47.5004
 -12577354.73047  -8826547.75146  22949228.7034                   22949220.4534
        42.0004         41.5004
  -4353342.75445  -3655328.42345  24523105.2814                   24523097.8524
        34.5004         30.0004
 -24082653.31748 -20412796.92949  20584073.0084                   20584064.2894
        49.7504         55.0004
 23  1 11  0 53  0.0000000  0 11G22G08G23G24G21G10G12G31G01G25G32
 -22107510.61548 -12256585.20746  20874989.5004                   20874979.1414
        48.0004         40.7504
  -5981093.80946  -4616973.19645  25110207.6334                   25110201.7274
        36.0004         32.7504
  -3324900.37446  -7077068.58744  23515887.9774                   23515877.3244
        41.0004         27.7504
  -1192676.99045  -1437512.55443  24765757.0474                   24765749.3244
        33.5004         20.5004
 -17231397.22647 -13126997.71746  22401525.6254                   22401513.5084
        47.5004         36.5004
 -24345256.92448 -18835746.67249  21088786.7974                   21088777.7274
        51.0004         54.7504
  -3868444.28845  -2993566.67342  24965097.5164                   24965087.1564
        35.5004         17.7504
 -15463954.99847 -12021646.81947  22366098.5944                   22366088.3524
        45.2504         47.7504
 -12661477.49247  -8892097.95546  22933220.8674                   22933212.2074
        42.2504         41.5004
  -4429371.01845  -3714571.20745  24508637.5784                   24508630.4414
        35.0004         31.2504
 -24064850.35448 -20398924.48949  20587460.9774                   20587452.3164
        51.2504         54.7504
 23  1 11  0 53 30.0000000  0 11G22G08G23G24G21G10G12G31G01G25G32
 -22139984.60547 -12281889.60346  20868810.1884                   20868799.3594
        46.7504         40.5004
  -5902419.69045  -4555668.65245  25125179.6094                   25125172.5904
        35.0004         32.0004
  -3237109.50646  -7008660.17744  23532593.1334                   23532583.4774
        40.7504         26.5004
  -1084161.20645  -1352954.85943  24786408.1094                   24786399.6254
        33.2504         20.2504
 -17264669.50947 -13152924.18746  22395193.9844                   22395182.3364
        46.5004         37.0004
 -24300733.39148 -18801053.02049  21097259.1644                   21097250.7384
        51.7504         54.7504
  -3920314.39845  -3033984.90142  24955225.0554                   24955216.0434
        34.5004         17.7504
 -15569058.60747 -12103545.71647  22346097.5164                   22346087.7424
        45.0004         47.7504
 -12745192.42247  -8957330.36547  22917290.7194                   22917282.5274
        42.2504         42.0004
  -4505161.50145  -3773628.71945  24494215.9694                   24494208.1294
        35.2504         31.0004
 -24046715.97848 -20384793.80549  20590911.7814                   20590903.0044
        51.5004         55.0004
 23  1 11  0 54  0.0000000  0 11G22G08G23G24G21G10G12G31G01G25G32
 -22172126.37347 -12306935.13446  20862693.8284                   20862683.3524
        47.0004         40.7504
  -5823628.42145  -4494272.89545  25140171.2274                   25140167.0824
        33.7504         32.7504
  -3149133.90946  -6940107.77044  23549334.6024                   23549323.9494
        40.5004         27.7504
   -975443.96145  -1268240.08143  24807094.8284                   24807087.6334
        34.0004         19.7504
 -17297494.00447 -13178501.73046  22388947.5084                   22388936.0944
        44.7504         36.7504
 -24255873.65848 -18766097.40949  21105795.7584                   21105787.2734
        51.0004         54.7504
  -3971777.58745  -3074085.99842  24945433.6174                   24945423.4924
        35.7504         17.7504
 -15673866.72747 -12185214.34648  22326153.9384                   22326143.0514
        46.5004         48.0004
 -12828497.86847  -9022243.68647  22901437.3754                   22901429.7704
        42.0004         42.0004
  -4580712.10545  -3832499.32745  24479838.3364                   24479831.9024
        35.0004         31.5004
 -24028252.28248 -20370406.49849  20594425.3444                   20594416.5084
        51.0004         55.5004
 23  1 11  0 54 30.0000000  0 11G22G08G23G24G21G10G12G31G01G25G32
 -22203935.61047 -12331721.54246  20856641.1564                   20856630.0354
        47.0004         40.5004
  -5744721.99046  -4432787.44145  25155189.6724                   25155181.6564
        36.0004         31.5004
  -3060973.76546  -6871411.63144  23566110.5784                   23566101.2154
        41.0004         27.7504
   -866527.76145  -1183370.34143  24827820.3914                   24827813.1954
        31.5004         19.0004
 -17329868.68747 -13203728.75246  22382786.6024                   22382775.4804
        45.0004         36.5004
 -24210676.95748 -18730879.21249  21114396.1334                   21114387.9414
        49.5004         54.7504
  -4022830.98445  -3113867.89543  24935717.8284                   24935708.0554
        35.5004         18.5004
 -15778376.11047 -12266650.20948  22306265.7584                   22306255.5164
        45.0004         48.0004
 -12911390.53547  -9086835.38247  22885664.0784                   22885656.1214
        42.0004         42.0004
  -4656019.04645  -3891180.05945  24465507.8594                   24465501.4844
        34.7504         31.0004
 -24009459.86048 -20355763.05349  20598001.4064                   20597992.8054
        50.5004         55.0004
 23  1 11  0 55  0.0000000  0 11G22G08G23G24G21G10G12G31G01G25G32
 -22235413.46447 -12356249.72446  20850651.1094                   20850639.8134
        47.2504         40.7504
  -5665704.48845  -4371215.35145  25170224.5944                   25170218.2194
        35.5004         31.0004
  -2972630.57546  -6802572.82044  23582922.5084                   23582911.7974
        40.5004         27.0004
   -757416.06745  -1098348.22143  24848584.6334                   24848576.6174
        34.0004         18.5004
 -17361793.32247 -13228605.09846  22376711.9304                   22376700.1644
        46.0004         36.2504
 -24165143.90148 -18695398.93649  21123060.8594                   21123052.1994
        50.5004         54.7504
  -4073472.15046  -3153328.54643  24926080.8134                   24926071.2154
        36.0004         19.7504
 -15882584.66947 -12347851.65448  22286435.8674                   22286425.3914
        45.7504         48.5004
 -12993868.47847  -9151103.90247  22869968.1414                   22869961.1804
        42.0004         42.5004
  -4731079.86946  -3949668.99045  24451225.0634                   24451217.3984
        36.5004         30.5004
 -23990340.45348 -20340864.80749  20601639.6024                   20601630.7664
        51.0004         55.0004
 23  1 11  0 55 30.0000000  0 11G22G08G23G24G21G10G12G31G01G25G32
 -22266557.06448 -12380517.45546  20844724.4384                   20844713.7274
        48.0004         41.0004
  -5586575.55245  -4309556.45045  25185283.6564                   25185276.5204
        35.0004         32.0004
  -2884101.76646  -6733589.37544  23599768.0704                   23599758.8834
        39.7504         26.0004
                                  24869384.3834                   24869377.1294
        31.5004         17.2504
 -17393263.79347 -13253127.56446  22370722.9924                   22370711.6954
        46.5004         37.0004
 -24119271.53948 -18659654.25249  21131790.1414                   21131781.7154
        51.0004         55.0004
  -4123695.43646  -3192463.55143  24916525.0554                   24916514.1094
        36.0004         18.5004
 -15986486.07847 -12428813.76148  22266664.3524                   22266653.8164
        45.7504         48.5004
 -13075925.75346  -9215044.61147  22854353.3754                   22854345.7704
        41.7504         42.0004
  -4805888.05545  -4007961.06445  24436987.5164                   24436982.0784
        34.2504         30.7504
 -23970891.93248 -20325710.11849  20605340.9924                   20605331.8634
        52.0004         54.7504
 23  1 11  0 56  0.0000000  0 11G22G08G23G24G21G10G12G31G01G25G32
 -22297373.68647 -12404530.41046  20838860.0704                   20838849.3594
        47.5004         41.0004
  -5507344.97845  -4247818.38745  25200359.7194                   25200352.8754
        34.2504         31.5004
  -2795394.88646  -6664467.20044  23616649.4924                   23616639.2504
        40.5004         26.7504
  -6840295.73645  -5838254.69943  24890220.8834                   24890213.9224
        32.2504         19.5004
 -17424285.76347 -13277300.53146  22364819.2034                   22364808.0234
        46.0004         36.5004
 -24073066.62648 -18623650.44149  21140582.9384                   21140574.2774
        51.5004         54.7504
  -4173505.15246  -3231276.34343  24907046.8524                   24907035.4964
        36.7504         19.2504
 -16090083.98747 -12509539.39048  22246949.7664                   22246939.3484
        46.2504         48.5004
 -13157566.44947  -9278660.74847  22838818.1484                   22838810.1334
        42.5004         42.5004
  -4880447.39745  -4066059.22545  24422800.1174                   24422793.1564
        35.0004         31.5004
 -23951122.13748 -20310305.08749  20609102.9224                   20609094.0864
        53.0004         55.0004
 23  1 11  0 56 30.0000000  0 11G22G08G23G24G21G10G12G31G01G25G32
 -22327859.13148 -12428285.29646  20833058.8914                   20833048.2974
        48.0004         40.5004
  -5427927.38355  -4200361.96555  25215456.0704                   25215448.9924
        33.2504         33.0004
  -2706506.27446  -6595203.37444  23633564.0314                   23633553.8484
        39.7504         26.2504
                                  24911091.8134                   24911084.7934
        31.0004         18.2504
 -17454853.67447 -13301119.67946  22359002.8914                   22358991.3014
        46.5004         37.0004
 -24026524.65648 -18587383.98649  21149439.3524                   21149430.9844
        51.2504         54.7504
  -4222894.40146  -3269761.43343  24897648.2034                   24897637.6094
        37.7504         18.5004
 -16193371.23147 -12590022.92248  22227295.2344                   22227284.6994
        46.0004         48.5004
 -13238783.43647  -9341946.69947  22823362.2034                   22823355.0664
        42.2504         43.0004
  -4954750.12845  -4123957.44645  24408661.8284                   24408654.2234
        34.0004         31.7504
 -23931027.70848 -20294647.08849  20612926.6954                   20612917.8594
        52.7504         55.0004
 23  1 11  0 57  0.0000000  0 11G22G08G23G24G21G10G12G31G01G25G32
 -22358012.94347 -12451781.76046  20827321.1644                   20827310.1024
        47.7504         41.0004
  -5348492.64745  -4138464.83645  25230570.2424                   25230565.8054
        31.7504         30.7504
  -2617435.52146  -6525797.63444  23650513.7584                   23650503.9264
        40.5004         27.0004
  -6620746.27355  -5667177.24652  24931999.0234                   24931993.0004
        30.7504         17.7504
 -17484965.81147 -13324583.69046  22353273.0864                   22353261.2034
        46.0004         37.5004
 -23979644.42148 -18550853.94549  21158360.2034                   21158351.7774
        51.2504         54.7504
  -4271859.69346  -3307916.24143  24888329.5084                   24888319.7934
        37.5004         20.0004
 -16296343.91947 -12670261.35148  22207699.9224                   22207689.3284
        47.0004         48.7504
 -13319572.95147  -9404899.57147  22807989.5314                   22807981.0474
        43.0004         42.5004
  -5028791.96845  -4181652.38945  24394571.9534                   24394564.9924
        35.0004         32.2504
 -23910608.64249 -20278736.13249  20616812.3594                   20616803.4064
        54.0004         55.0004
 23  1 11  0 57 30.0000000  0 11G22G08G23G24G21G10G12G31G01G25G32
 -22387835.81747 -12475020.35246  20821645.6644                   20821634.9534
        47.2504         40.7504
  -5268960.80445  -4076492.07345  25245708.0944                   25245700.2544
        34.5004         31.5004
  -2528184.22446  -6456251.23744  23667497.6804                   23667488.0234
        39.0004         25.5004
  -6510696.10655  -5581423.88153  24952940.5394                   24952935.3984
        32.7504         19.0004
 -17514621.56847 -13347692.08346  22347630.1414                   22347618.0234
        46.2504         36.7504
 -23932426.52948 -18514060.80649  21167345.5634                   21167337.1954
        50.0004         55.0004
  -4320399.09446  -3345739.11543  24879093.5704                   24879083.6804
        37.5004         18.5004
 -16398999.95847 -12750253.05548  22188165.6334                   22188154.7464
        46.0004         48.7504
 -13399933.09047  -9467517.86547  22792697.2114                   22792689.3714
        42.0004         43.0004
  -5102570.47045  -4239142.12945  24380531.8834                   24380525.0984
        35.0004         32.0004
 -23889866.80948 -20262573.66049  20620759.5314                   20620750.6374
        52.5004         55.0004
 23  1 11  0 58  0.0000000  0 11G22G08G23G24G21G10G12G31G01G25G32
 -22417329.37447 -12498002.33846  20816033.6564                   20816022.8874
        47.5004         41.0004
  -5189335.53245  -4014446.38945  25260859.3284                   25260852.7774
        34.5004         31.5004
  -2438754.07646  -6386565.46044  23684515.6254                   23684506.2624
        39.2504         27.0004
  -6400467.03755  -5495531.10553  24973916.8524                   24973910.3594
        31.5004         18.2504
 -17543821.33347 -13370445.15646  22342072.9064                   22342061.1994
        45.2504         36.2504
 -23884872.24248 -18477005.53149  21176395.0784                   21176386.7704
        49.2504         54.7504
  -4368511.45645  -3383229.25043  24869936.8134                   24869928.0354
        35.5004         20.2504
 -16501337.20047 -12829996.33648  22168691.2894                   22168680.4024
        46.0004         49.0004
 -13479862.19447  -9529800.27647  22777487.5234                   22777479.0394
        42.5004         42.7504
  -5176083.55645  -4296425.02445  24366542.2734                   24366535.7814
        34.2504         30.7504
 -23868804.27048 -20246161.29749  20624767.3204                   20624758.7194
        51.5004         55.0004
 23  1 11  0 58 30.0000000  0 11G22G08G23G24G21G10G12G31G01G25G32
 -22446493.26547 -12520727.43746  20810484.0784                   20810472.9574
        47.0004         41.0004
  -5109619.02345  -3952329.64045  25276029.1724                   25276021.0984
        35.7504         31.7504
  -2349145.11746  -6316740.33544  23701568.5234                   23701558.0474
        41.0004         26.7504
  -6290061.54055  -5409500.86752  24994927.0864                   24994920.0664
        31.7504         17.7504
 -17572562.64747 -13392840.99046  22336603.3054                   22336592.0664
        45.0004         36.7504
 -23836980.93748 -18439687.64849  21185508.1254                   21185499.8164
        49.5004         54.7504
  -4416192.88646  -3420383.58443  24860864.6724                   24860854.2544
        36.7504         19.0004
 -16603352.00347 -12909488.37448  22149277.9144                   22149267.6134
        45.7504         49.0004
 -13559356.85047  -9591744.16647  22762359.2274                   22762351.6214
        42.0004         42.7504
  -5249327.31045  -4353498.05245  24352605.0864                   24352598.0664
        34.5004         30.2504
 -23847421.37748 -20229499.30749  20628836.4144                   20628828.1054
        53.5004         55.0004
 23  1 11  0 59  0.0000000  0 11G22G08G23G24G21G10G12G31G01G25G32
 -22475325.00647 -12543193.73146  20804997.1644                   20804986.5704
        46.0004         41.0004
  -5029811.39055  -3890141.89955  25291213.7664                   25291208.6254
        32.2504         30.0004
  -2259355.53046  -6246774.48344  23718653.3284                   23718644.6094
        38.7504         26.5004
                                  25015970.5234                   25015963.3284
        30.7504         18.2504
 -17600842.40447 -13414877.16446  22331221.7504                   22331210.6884
        44.5004         37.0004
 -23788750.06048 -18402105.18049  21194686.1024                   21194677.6764
        50.7504         54.7504
  -4463438.81846  -3457198.57843  24851873.3054                   24851864.1764
        36.0004         20.2504
 -16705039.08947 -12988725.02448  22129928.2274                   22129917.2814
        45.7504         49.2504
 -13638411.89247  -9653345.50147  22747316.6644                   22747308.8244
        42.7504         43.0004
  -5322295.92245  -4410356.68545  24338719.2344                   24338712.9774
        34.2504         31.2504
 -23825716.67248 -20212586.56449  20632966.7664                   20632958.2234
        53.0004         54.7504
 23  1 11  0 59 30.0000000  0 11G22G08G23G24G21G10G12G31G01G25G32
 -22503832.78747 -12565407.57146  20799572.1484                   20799561.6724
        46.5004         41.2504
  -4949924.20145  -3827892.18845  25306416.7894                   25306410.2974
        34.0004         30.5004
  -2169393.75846  -6176674.46644  23735773.3364                   23735763.3284
        39.2504         24.0004
  -6068731.39155  -5237035.85352  25037045.2344                   25037037.7464
        32.0004         17.7504
 -17628667.84647 -13436559.33646  22325926.8054                   22325915.8594
        45.2504         37.0004
 -23740186.95448 -18364263.80349  21203927.5784                   21203918.9184
        49.5004         54.7504
  -4510254.20846  -3493678.07943  24842965.3984                   24842955.2154
        36.7504         20.7504
 -16806402.94947 -13067709.83848  22110638.9694                   22110628.4924
        46.5004         49.0004
 -13717032.29046  -9714608.13647  22732354.6094                   22732347.6484
        41.5004         42.5004
  -5394993.88845  -4467004.44145  24324885.0474                   24324878.9654
        33.7504         31.7504
 -23803698.88448 -20195429.84749  20637156.5084                   20637147.5554
        53.2504         54.7504
 23  1 11  1  0  0.0000000  0 11G22G08G23G24G21G10G12G31G01G25G32
 -22532009.99247 -12587363.83446  20794210.4224                   20794199.6524
        47.7504         41.0004
  -4869952.51345  -3765576.58045  25321634.6954                   25321629.1994
        33.5004         31.0004
  -2079253.15246  -6106435.08344  23752926.5784                   23752916.9804
        39.2504         24.7504
  -5957812.96245  -5150605.87642  25058152.1334                   25058144.2934
        31.5004         17.7504
 -17656029.79147 -13457880.34246  22320720.8134                   22320708.9304
        46.0004         36.7504
 -23691284.89048 -18326158.31249  21213233.2734                   21213224.8484
        50.2504         54.7504
  -4556629.39446  -3529814.56943  24834140.7194                   24834130.0084
        36.7504         20.0004
 -16907433.44547 -13146434.88448  22091414.0004                   22091402.9964
        45.7504         49.2504
 -13795208.02347  -9775524.28947  22717478.4844                   22717470.7624
        42.5004         42.5004
  -5467410.55845  -4523433.01645  24311104.9064                   24311098.0044
        33.2504         31.7504
 -23781361.65749 -20178024.21749  20641407.0784                   20641398.2424
        54.0004         54.7504
 23  1 11  1  0 30.0000000  0 11G22G08G23G24G21G10G12G31G01G25G32
 -22559856.62047 -12609062.50446  20788911.0704                   20788900.5354
        47.2504         41.5004
  -4789899.22545  -3703197.41444  25336868.6174                   25336862.5944
        32.7504         29.7504
  -1988934.35946  -6036056.84644  23770114.0004                   23770104.3444
        39.0004         27.0004
                                  25079290.8674                   25079284.0234
        30.0004         17.7504
 -17682927.61547 -13478839.69246  22315602.1884                   22315590.5394
        46.7504         37.0004
 -23642043.11948 -18287788.11849  21222603.4384                   21222594.9534
        50.2504         54.7504
  -4602561.95646  -3565606.16243  24825399.8834                   24825389.2304
        37.0004         19.7504
 -17008127.61447 -13224897.84848  22072251.6024                   22072241.3594
        46.0004         49.2504
 -13872936.26847  -9836091.75547  22702686.9844                   22702679.7894
        42.0004         42.5004
  -5539542.81245  -4579639.98245  24297378.1254                   24297371.6914
        34.5004         30.7504
 -23758705.91449 -20160370.39749  20645718.3284                   20645709.7274
        54.5004         54.7504
 23  1 11  1  1  0.0000000  0 11G22G08G23G24G21G10G12G31G01G25G32
 -22587377.81647 -12630507.57546  20783674.4774                   20783663.4734
        47.5004         41.2504
  -4709772.14545  -3640760.76345  25352116.5704                   25352111.0744
        33.2504         31.0004
  -1898442.77446  -5965543.97844  23787333.7274                   23787324.4804
        38.2504         26.0004
                                  25100461.2274                   25100453.5044
        30.7504         18.5004
 -17709365.49247 -13499440.65146  22310570.7274                   22310559.1954
        46.5004         37.0004
 -23592466.69048 -18249157.15349  21232037.8204                   21232029.4534
        50.5004         54.5004
  -4648053.82046  -3601054.35143  24816742.8204                   24816732.5784
        37.5004         20.7504
 -17108487.22647 -13303100.12048  22053154.4384                   22053143.1994
        46.0004         49.5004
 -13950219.11747  -9896312.15247  22687981.4924                   22687973.3594
        42.2504         42.2504
  -5611391.96945  -4635626.33745  24283705.9694                   24283698.9494
        33.7504         31.2504
 -23735737.47049 -20142472.91949  20650089.3054                   20650080.4104
        54.0004         55.0004
 23  1 11  1  1 30.0000000  0 11G22G08G23G24G21G10G12G31G01G25G32
 -22614573.84147 -12651699.27346  20778499.1174                   20778488.4064
        47.0004         41.5004
  -4629573.98045  -3578268.67245  25367377.9774                   25367371.7774
        33.5004         31.0004
  -1807779.02646  -5894896.96844  23804586.2814                   23804576.8594
        39.0004         26.5004
  -5624074.57045  -4890550.07342  25121660.4844                   25121652.9964
        31.2504         17.7504
 -17735341.68247 -13519681.84346  22305627.6254                   22305616.2114
        44.5004         37.5004
 -23542555.45648 -18210265.30449  21241535.8914                   21241527.2304
        49.2504         54.5004
  -4693102.65746  -3636157.33643  24808169.3674                   24808160.4144
        37.0004         20.2504
 -17208509.18147 -13381039.29348  22034120.8834                   22034109.9964
        45.7504         49.2504
 -14027053.75947  -9956183.30747  22673360.1804                   22673351.7544
        42.0004         42.5004
  -5682954.78345  -4691389.57045  24270087.4924                   24270081.7034
        33.7504         32.7504
 -23712457.17548 -20124332.43249  20654519.2584                   20654510.5394
        53.0004         55.0004
 23  1 11  1  2  0.0000000  0 11G22G08G23G24G21G10G12G31G01G25G32
 -22641438.48647 -12672632.74946  20773386.8674                   20773376.0394
        47.2504         41.7504
  -4549300.83745  -3515718.20345  25382655.4304                   25382648.4104
        35.5004         32.2504
  -1716937.15246  -5824111.15344  23821873.8914                   23821864.0594
        39.7504         25.7504
                                  25142890.0554                   25142884.6174
        29.5004         16.2504
 -17760849.09047 -13539557.74646  22300773.6254                   22300762.1524
        46.0004         37.5004
 -23492302.74948 -18171107.35849  21251098.2814                   21251089.8554
        49.7504         54.5004
  -4737699.17846  -3670907.84943  24799684.0784                   24799673.8954
        37.5004         21.5004
 -17308183.62147 -13458707.67048  22015153.4304                   22015142.6024
        45.7504         49.5004
 -14103430.83746 -10015697.90747  22658825.2344                   22658818.3324
        41.2504         42.5004
  -5754221.31945  -4746921.94345  24256526.6484                   24256520.0984
        34.5004         33.0004
 -23688859.38348 -20105944.54749  20659009.8054                   20659001.2034
        53.5004         55.0004
 23  1 11  1  2 30.0000000  0 10G22G08G23G21G10G12G31G01G25G32
 -22667974.42647 -12693310.10346  20768337.1414                   20768326.4884
        47.2504         41.7504
                                  25397940.3524                   25397936.2074
        31.5004         31.0004
  -1625920.53846  -5753189.17744  23839193.4694                   23839183.6954
        39.2504         25.2504
 -17785889.04747 -13559069.40546  22296009.1174                   22295997.5274
        46.5004         37.7504
 -23441711.15348 -18131685.35549  21260725.5164                   21260717.2664
        49.0004         54.2504
  -4781843.75146  -3705306.20743  24791282.5704                   24791273.5594
        36.5004         20.7504
 -17407510.58647 -13536105.28748  21996252.1334                   21996241.0704
        45.7504         49.5004
 -14179350.30647 -10074855.93647  22644378.6024                   22644370.9384
        42.0004         42.7504
  -5825190.91645  -4802222.94545  24243023.0164                   24243014.5904
        35.2504         33.0004
 -23664947.76549 -20087312.12149  20663560.2274                   20663551.2734
        54.0004         54.7504
 23  1 11  1  3  0.0000000  0 10G22G08G23G21G10G12G31G01G25G32
 -22694192.02347 -12713739.39046  20763347.6884                   20763337.5634
        47.2504         41.7504
  -4388558.93555  -3390464.81855  25413240.4924                   25413234.9964
        33.7504         30.0004
  -1534740.17546  -5682139.61044  23856543.7894                   23856534.0744
        38.2504         25.2504
 -17810470.98247 -13578224.17346  22291331.1174                   22291319.8204
        47.0004         37.7504
 -23390790.98148 -18092007.32849  21270415.5704                   21270407.3204
        49.2504         54.2504
  -4825544.09946  -3739358.42143  24782967.0554                   24782956.6954
        37.5004         19.5004
 -17506497.56147 -13613237.97348  21977415.6024                   21977404.5984
        46.0004         49.5004
 -14254819.91547 -10133663.42047  22630017.4144                   22630009.3404
        42.0004         42.7504
  -5895870.88145  -4857298.21545  24229571.4534                   24229565.4304
        34.7504         33.0004
 -23640733.68048 -20068444.00749  20668167.8754                   20668158.9804
        53.5004         54.7504
 23  1 11  1  3 30.0000000  0 10G22G08G23G21G10G12G31G01G25G32
 -22720080.02747 -12733911.85246  20758421.7974                   20758411.2034
        47.5004         41.7504
  -4308094.51845  -3327765.24145  25428553.2274                   25428549.0824
        34.0004         32.5004
  -1443384.84346  -5610953.68844  23873929.0394                   23873919.0314
        39.2504         26.7504
 -17834582.09347 -13597012.06746  22286743.3364                   22286731.5124
        47.0004         37.2504
 -23339530.35148 -18052064.00949  21280170.6334                   21280161.7974
        49.7504         54.0004
  -4868785.51046  -3773053.04943  24774738.2194                   24774728.6214
        36.7504         20.2504
 -17605129.40247 -13690093.94548  21958646.9534                   21958635.7734
        46.2504         49.5004
 -14329824.92847 -10192108.86647  22615744.6484                   22615736.6334
        43.0004         42.5004
  -5966245.76945  -4912135.79745  24216180.4694                   24216173.7424
        34.5004         33.0004
 -23616206.03248 -20049331.56149  20672835.1884                   20672826.2934
        53.0004         54.7504
 23  1 11  1  4  0.0000000  0 10G22G08G23G21G10G12G31G01G25G32
 -22745643.07147 -12753831.10746  20753557.3204                   20753546.4924
        46.5004         41.7504
  -4227571.47656  -3265020.14354  25443881.2034                   25443872.7774
        38.5004         29.5004
  -1351859.02046  -5539634.91044  23891344.8984                   23891336.1214
        37.5004         26.7504
 -17858225.34147 -13615435.38946  22282243.8054                   22282232.3914
        46.0004         37.2504
 -23287933.18448 -18011858.43549  21289989.1024                   21289980.1484
        49.7504         54.0004
  -4911570.09746  -3806391.63343  24766595.9304                   24766586.5084
        36.0004         18.5004
 -17703406.88147 -13766673.77648  21939944.6484                   21939934.4064
        46.2504         49.7504
 -14404366.44847 -10250193.17547  22601560.1954                   22601552.1214
        43.0004         42.7504
  -6036316.27045  -4966736.18045  24202846.2814                   24202838.9104
        35.2504         32.2504
 -23591369.66648 -20029978.55649  20677561.4144                   20677552.5784
        53.5004         55.0004
 23  1 11  1  4 30.0000000  0 10G22G08G23G21G10G12G31G01G25G32
 -22770880.48548 -12773496.61146  20748754.6254                   20748743.8554
        48.0004         41.5004
  -4146992.36756  -3202231.08855  25459211.6334                   25459202.6804
        36.0004         30.0004
  -1260162.87646  -5468183.45444  23908794.9844                   23908785.3284
        39.2504         24.7504
 -17881399.62847 -13633493.28546  22277833.6564                   22277822.3594
        47.2504         37.7504
 -23235998.68348 -17971390.02449  21299871.4304                   21299863.0634
        48.7504         54.0004
  -4953894.58246  -3839371.75243  24758543.0554                   24758532.3444
        36.5004         19.7504
 -17801326.70347 -13842974.91548  21921311.7504                   21921300.3364
        46.5004         49.7504
 -14478441.46146 -10307913.96047  22587462.9454                   22587455.5744
        41.5004         42.5004
  -6106078.60246  -5021096.42545  24189571.2194                   24189563.2034
        36.0004         32.7504
 -23566225.14348 -20010385.43249  20682346.4924                   20682337.5984
        53.0004         55.0004
 23  1 11  1  5  0.0000000  0 10G22G08G23G21G10G12G31G01G25G32
 -22795794.02347 -12792909.75346  20744014.0394                   20744002.9184
        47.7504         41.7504
  -4066360.71045  -3139401.31945  25474555.5634                   25474549.3634
        35.7504         32.2504
  -1168298.41846  -5396600.81443  23926275.3674                   23926265.9454
        38.0004         23.7504
 -17904104.68747 -13651185.54246  22273513.1414                   22273501.7274
        47.2504         37.5004
 -23183728.18248 -17930659.77948  21309817.9224                   21309809.6134
        48.2504         53.7504
  -4995757.85246  -3871992.46343  24750576.6334                   24750565.5124
        37.5004         19.2504
 -17898887.04447 -13918995.93848  21902746.3204                   21902735.4924
        46.5004         49.7504
 -14552048.38747 -10365270.00847  22573456.9694                   22573448.8954
        43.0004         42.7504
  -6175530.75145  -5075215.00145  24176354.3674                   24176347.8164
        35.5004         33.7504
 -23540774.54948 -19990553.79649  20687189.6954                   20687180.5664
        52.5004         54.7504
 23  1 11  1  5 30.0000000  0 10G22G08G23G21G10G12G31G01G25G32
 -22820382.88148 -12812069.89146  20739334.7734                   20739323.8284
        48.0004         41.5004
  -3985678.73645  -3076532.24145  25489907.3054                   25489903.2194
        34.0004         30.0004
  -1076265.16346  -5324886.66444  23943788.9694                   23943779.4884
        38.2504         25.5004
 -17926338.90747 -13668510.91246  22269281.8754                   22269271.2234
        47.5004         38.0004
 -23131120.59548 -17889666.87748  21319829.0864                   21319820.8364
        49.0004         53.7504
  -5037156.48146  -3904251.17643  24742698.4694                   24742687.8754
        36.5004         20.2504
 -17996084.03847 -13994733.84448  21884250.2344                   21884239.4064
        45.7504         50.0004
 -14625183.54747 -10422258.44247  22559539.7584                   22559532.0354
        42.0004         42.5004
  -6244668.39545  -5129088.47845  24163197.8364                   24163191.2274
        34.5004         33.5004
 -23515017.82248 -19970483.63449  20692090.9144                   20692081.9024
        53.5004         54.7504
 23  1 11  1  6  0.0000000  0 10G22G08G23G21G10G12G31G01G25G32
 -22844648.09248 -12830977.84446  20734717.4694                   20734706.5824
        48.0004         41.7504
  -3904950.02145  -3013626.61545  25505272.6484                   25505264.3404
        34.5004         32.5004
   -984064.69846  -5253042.20943  23961334.4614                   23961325.5664
        38.7504         23.7504
 -17948102.41747 -13685469.50446  22265141.2894                   22265129.6994
        46.5004         37.5004
 -23078176.50848 -17848411.76748  21329904.1094                   21329895.8594
        49.0004         53.5004
  -5078088.72446  -3936146.43643  24734910.3914                   24734898.8594
        37.0004         20.7504
 -18092915.61747 -14070187.01048  21865823.9384                   21865812.9924
        46.0004         50.0004
 -14697845.10346 -10478877.82947  22545712.5634                   22545704.8404
        41.7504         42.2504
  -6313489.14145  -5182715.01245  24150102.3054                   24150095.3444
        34.7504         32.2504
 -23488956.70948 -19950176.28549  20697049.9534                   20697041.6454
        52.0004         55.0004
 23  1 11  1  6 30.0000000  0 10G22G08G23G21G10G12G31G01G25G32
 -22868590.71847 -12849634.43346  20730161.5084                   20730150.5044
        46.2504         41.7504
  -3824177.18245  -2950686.77945  25520642.1254                   25520633.9344
        35.7504         31.5004
   -891698.00446  -5181068.25243  23978910.6174                   23978901.8404
        37.2504         22.7504
 -17969394.31847 -13702060.60546  22261089.4534                   22261077.8634
        45.7504         37.5004
 -23024896.88048 -17806895.19848  21340042.8674                   21340034.2664
        48.0004         53.5004
  -5118552.83246  -3967676.88543  24727210.7274                   24727199.4884
        38.0004         21.2504
 -18189379.01947 -14145353.28048  21847467.2034                   21847456.6684
        46.0004         50.0004
 -14770030.77747 -10535126.42447  22531976.6414                   22531968.0394
        42.2504         42.2504
  -6381990.10845  -5236092.37745  24137066.4304                   24137059.8794
        35.5004         33.5004
 -23462592.54648 -19929632.78549  20702066.9924                   20702057.8634
        52.0004         54.7504
 23  1 11  1  7  0.0000000  0 10G22G08G23G21G10G12G31G01G25G32
 -22892209.95048 -12868039.02846  20725666.5164                   20725655.9224
        48.0004         41.7504
  -3743363.28845  -2887714.83045  25536018.8364                   25536012.0514
        33.7504         30.0004
   -799165.05146  -5108964.70943  23996519.5554                   23996510.7194
        38.0004         22.2504
 -17990212.97448 -13718282.95246  22257127.5314                   22257116.2344
        48.2504         37.5004
 -22971280.36148 -17765116.11448  21350245.8984                   21350237.1804
        48.5004         53.5004
  -5158545.60346  -3998840.08043  24719599.1334                   24719589.4184
        37.0004         21.5004
 -18285470.35447 -14220229.62848  21829181.9144                   21829170.6764
        46.2504         50.2504
 -14841737.12746 -10591001.48547  22518330.3444                   22518323.2074
        41.0004         42.7504
  -6450167.27845  -5289217.42545  24124092.7504                   24124086.4344
        35.0004         33.2504
 -23435925.49748 -19908853.27349  20707141.9224                   20707132.6764
        52.0004         54.7504
 23  1 11  1  7 30.0000000  0 10G22G08G23G21G10G12G31G01G25G32
 -22915506.43447 -12886192.12247  20721233.5864                   20721222.5234
        47.2504         42.0004
  -3662510.40145  -2824712.63745  25551404.9774                   25551397.6644
        35.0004         30.5004
   -706467.15246  -5036732.64443  24014159.6024                   24014150.1804
        38.2504         22.2504
 -18010558.44447 -13734136.57546  22253256.1484                   22253244.7344
        46.5004         37.7504
 -22917327.75148 -17723075.13748  21360512.4304                   21360504.2384
        48.0004         53.5004
  -5198065.15946  -4029634.55943  24712079.7664                   24712068.6454
        37.7504         20.0004
 -18381187.34847 -14294814.28648  21810967.5234                   21810956.5784
        46.0004         50.2504
 -14912962.13247 -10646501.49347  22504777.6414                   22504768.9804
        43.0004         42.2504
  -6518017.99345  -5342088.10445  24111181.5314                   24111174.0434
        35.5004         33.5004
 -23408957.15048 -19887838.97449  20712273.4224                   20712264.4104
        51.7504         55.0004
 23  1 11  1  8  0.0000000  0 10G22G08G23G21G10G12G31G01G25G32
 -22938481.29947 -12904094.61746  20716861.3754                   20716850.7234
        47.7504         41.5004
  -3581622.37546  -2761682.84945  25566799.5704                   25566793.1954
        37.2504         33.5004
   -613605.19346  -4964372.76543  24031831.6254                   24031821.6764
        38.7504         22.5004
 -18030430.21947 -13749621.08046  22249474.3444                   22249463.1644
        47.2504         37.5004
 -22863039.21048 -17680772.40448  21370843.3834                   21370835.2504
        48.2504         53.5004
  -5237109.28146  -4060058.55643  24704649.8834                   24704638.8794
        37.2504         21.5004
 -18476527.52147 -14369105.32248  21792824.5314                   21792813.5864
        46.0004         50.5004
 -14983703.37847 -10701624.57347  22491315.6564                   22491307.6414
        42.7504         42.2504
  -6585539.23945  -5394702.03245  24098332.4534                   24098325.0824
        35.7504         33.2504
 -23381688.58648 -19866590.74349  20717462.3054                   20717453.6454
        51.0004         55.0004
 23  1 11  1  8 30.0000000  0 10G22G08G23G21G10G12G31G01G25G32
 -22961127.41048 -12921740.92146  20712552.2734                   20712541.5044
        48.0004         41.5004
                                  25582200.008
        37.500
   -520572.51446  -4891879.82943  24049534.1564                   24049525.3794
        37.5004         22.2504
 -18049819.91048 -13764729.93746  22245784.5004                   22245773.4964
        48.0004         38.0004
 -22808407.71148 -17638202.42348  21381240.0004                   21381231.2234
        49.5004         53.5004
  -5275668.82246  -4090104.94843  24697310.8834                   24697301.6954
        36.7504         22.0004
 -18571480.80647 -14443094.87148  21774755.7664                   21774745.5234
        46.0004         50.2504
 -15053950.88147 -10756362.88147  22477947.9224                   22477940.2584
        42.0004         42.5004
  -6652720.44045  -5447051.01545  24085548.0004                   24085541.4494
        35.0004         33.5004
 -23354113.42848 -19845103.61649  20722709.8674                   20722700.7974
        51.0004         54.7504
 23  1 11  1  9  0.0000000  0 10G22G08G23G21G10G12G31G01G25G32
 -22983468.76947 -12939149.77146  20708300.8134                   20708289.6334
        46.5004         41.7504
    585832.16555  -2664343.60855  25597600.1564                   25597594.9534
        33.5004         32.7504
   -427393.53746  -4819272.93043  24067265.4534                   24067256.7344
        38.0004         22.0004
 -18068750.37347 -13779480.95246  22242182.6024                   22242171.0704
        46.7504         37.7504
 -22753456.63248 -17595383.42048  21391696.5314                   21391687.8714
        48.5004         53.2504
  -5313764.75346  -4119790.05443  24690062.6804                   24690052.1454
        37.5004         21.7504
 -18666067.55047 -14516798.82048  21756756.3674                   21756745.7154
        45.7504         50.5004
 -15123725.82847 -10810732.98147  22464669.8594                   22464661.6094
        42.0004         42.5004
  -6719582.12045  -5499151.01645  24072823.7034                   24072817.7974
        34.0004         33.5004
 -23326256.38548 -19823396.83849  20728010.8444                   20728002.0664
        51.5004         54.7504
 23  1 11  1  9 30.0000000  0 10G22G08G23G21G10G12G31G01G25G32
 -23005479.78047 -12956301.19846  20704112.0234                   20704100.7854
        47.0004         41.7504
    666810.67946  -2601243.54945  25613011.0704                   25613003.8754
        36.0004         30.7504
   -334042.75046  -4746532.12843  24085030.4844                   24085020.6524
        38.0004         22.0004
 -18087194.66747 -13793853.14046  22238673.2034                   22238661.3794
        47.5004         38.2504
 -22698159.99048 -17552295.14448  21402219.0314                   21402210.6644
        48.2504         53.2504
  -5351368.59446  -4149091.76543  24682906.2274                   24682896.3954
        36.7504         21.5004
 -18760258.75547 -14590194.54748  21738832.4774                   21738821.8244
        46.2504         50.7504
 -15192999.31047 -10864712.32747  22451487.9224                   22451479.7304
        42.5004         42.7504
  -6786094.85545  -5550979.11945  24060166.9844                   24060160.9024
        35.0004         33.2504
 -23298092.09148 -19801450.63149  20733370.3674                   20733361.5314
        51.0004         55.0004
 23  1 11  1 10  0.0000000  0 10G22G08G23G21G10G12G31G01G25G32
 -23027171.88948 -12973204.13646  20699983.9844                   20699973.2154
        48.0004         41.5004
    747812.07956  -2538125.60154  25628426.6414                   25628419.6214
        37.7504         28.5004
   -240532.05446  -4673666.72343  24102824.3834                   24102815.4884
        37.2504         22.5004
 -18105162.96748 -13807854.42346  22235253.4614                   22235242.5164
        48.0004         37.7504
 -22642528.93148 -17508946.28448  21412805.3834                   21412797.0164
        49.2504         53.2504
  -5388489.39346  -4178017.02543  24675842.5474                   24675831.9534
        37.0004         21.7504
 -18854062.65547 -14663288.47948  21720981.8834                   21720971.4654
        46.0004         50.7504
 -15261779.99546 -10918307.67847  22438399.2344                   22438391.8054
        41.5004         43.0004
  -6852266.62145  -5602541.52145  24047575.6414                   24047568.8554
        35.2504         33.0004
 -23269632.73248 -19779274.50749  20738786.0004                   20738777.0474
        50.5004         55.0004
 23  1 11  1 10 30.0000000  0 10G22G08G23G21G10G12G31G01G25G32
 -23048544.43947 -12989858.06946  20695917.0554                   20695906.2854
        47.5004         41.5004
    828834.59346  -2474990.93845  25643844.5704                   25643833.3324
        38.5004         30.0004
   -146861.24846  -4600676.57543  24120650.2584                   24120640.1334
        38.2504         22.0004
 -18122654.27847 -13821484.02246  22231924.6884                   22231913.8014
        47.5004         38.0004
 -22586562.85648 -17465336.38048  21423455.1094                   21423446.8594
        48.7504         53.2504
  -5425124.14146  -4206563.57443  24668871.4384                   24668860.2584
        36.5004         20.5004
 -18947475.82647 -14736077.95348  21703206.2894                   21703195.5204
        46.5004         51.0004
 -15330064.36846 -10971516.28347  22425405.1644                   22425397.2074
        41.5004         43.0004
  -6918093.26645  -5653835.00445  24035049.1024                   24035042.0824
        35.2504         33.5004
 -23240878.29848 -19756868.46149  20744257.6804                   20744248.8444
        50.5004         55.0004
 23  1 11  1 11  0.0000000  0 10G22G08G23G21G10G12G31G01G25G32
 -23069596.82447 -13006262.52046  20691911.0234                   20691900.1954
        46.5004         41.5004
    909876.16346  -2411841.69945  25659266.6254                   25659257.4964
        38.2504         33.7504
    -53030.38646  -4527561.69143  24138504.5394                   24138495.9964
        37.5004         22.5004
 -18139666.81447 -13834740.54646  22228687.7344                   22228676.0864
        47.0004         38.0004
 -22530260.52648 -17421464.46748  21434169.3674                   21434160.6484
        48.5004         53.2504
  -5461269.73446  -4234728.98943  24661993.0634                   24661981.9414
        36.7504         20.0004
 -19040494.34247 -14808559.89248  21685505.1724                   21685494.7544
        46.7504         51.2504
 -15397849.16547 -11024335.61447  22412506.0634                   22412497.9304
        42.0004         43.0004
  -6983570.90245  -5704856.53745  24022588.5634                   24022582.0124
        35.0004         33.5004
 -23211829.01248 -19734232.64849  20749785.7424                   20749776.8484
        50.5004         55.0004
 23  1 11  1 11 30.0000000  0 10G22G08G23G21G10G12G31G01G25G32
 -23090331.05647 -13022419.05646  20687965.4694                   20687954.4654
        47.7504         41.5004
    990932.35946  -2357695.11955  25674689.6254                   25674683.1334
        37.5004         32.0004
     40958.42346  -4454323.74843  24156389.8284                   24156381.6954
        36.5004         22.7504
 -18156201.61847 -13847624.81946  22225541.0314                   22225529.5594
        47.2504         37.7504
 -22473624.10948 -17377332.20648  21444947.0864                   21444938.6024
        48.2504         53.0004
  -5496925.46846  -4262512.67243  24655208.0704                   24655197.2424
        36.5004         20.2504
 -19133116.66247 -14880733.11848  21667880.1024                   21667868.8634
        46.7504         51.5004
 -15465133.25947 -11076764.78847  22399703.3754                   22399695.3014
        42.5004         44.0004
  -7048697.79945  -5755604.77245  24010196.0784                   24010188.8834
        34.7504         33.2504
 -23182487.27548 -19711368.96049  20755369.3834                   20755360.3714
        50.2504         55.0004
 23  1 11  1 12  0.0000000  0 11G22G08G03G23G21G10G12G31G01G25G32
 -23110747.07548 -13038327.64046  20684080.4534                   20684069.6844
        48.0004         41.2504
   1072001.82245  -2294523.95445  25690113.7814                   25690109.7544
        34.2504         30.2504
    451411.10155    349957.10553  25549689.9534                   25549679.5944
        32.7504         23.5004
    135104.86946  -4380962.95443  24174306.4534                   24174296.8554
        37.0004         22.7504
 -18172256.88747 -13860135.42546  22222486.1484                   22222474.5004
        47.2504         37.7504
 -22416652.74148 -17332938.95448  21455788.1484                   21455780.0744
        48.2504         53.0004
  -5532088.81845  -4289912.68443  24648515.1414                   24648505.2504
        35.5004         20.0004
 -19225339.64247 -14952595.15448  21650330.2814                   21650319.9804
        46.5004         51.5004
 -15531913.77746 -11128801.55247  22386994.2274                   22386986.5044
        41.0004         43.5004
  -7113470.35545  -5806076.89145  23997869.2584                   23997863.5274
        34.5004         33.0004
 -23152853.55648 -19688277.74149  20761008.2424                   20760999.2894
        49.7504         55.0004
 23  1 11  1 12 30.0000000  0 11G22G08G03G23G21G10G12G31G01G25G32
 -23130845.82747 -13053988.99646  20680255.5784                   20680244.6914
        46.2504         41.0004
   1153080.88945  -2231345.44044  25705543.2114                   25705536.7194
        34.2504         29.2504
    351041.78755    271747.21854  25530589.9614                   25530582.1214
        31.7504         25.0004
    229407.68146  -4307480.32643  24192251.0004                   24192242.1054
        37.2504         22.0004
 -18187833.05247 -13872272.70846  22219522.0784                   22219510.4304
        46.2504         37.5004
 -22359347.47347 -17288285.52348  21466693.0944                   21466684.9024
        47.7504         53.0004
  -5566757.82746  -4316927.49243  24641919.3284                   24641907.7384
        37.2504         20.5004
 -19317161.10047 -15024144.32148  21632857.5394                   21632846.5354
        47.0004         51.5004
 -15598188.68447 -11180444.33847  22374383.9304                   22374374.6844
        43.0004         44.0004
  -7177885.95245  -5856270.84445  23985612.3754                   23985606.1174
        35.0004         34.0004
 -23122929.35548 -19664960.18049  20766702.7974                   20766693.9614
        50.0004         55.0004
 23  1 11  1 13  0.0000000  0 11G22G08G03G23G21G10G12G31G01G25G32
 -23150626.98948 -13069402.87646  20676491.5704                   20676480.5664
        48.7504         41.5004
   1234166.89445  -2168161.43744  25720971.7274                   25720966.7034
        32.5004         29.7504
    250633.25555    209223.15754  25511482.3444                   25511474.3874
        32.7504         29.2504
    323866.89546  -4233875.85243  24210226.2894                   24210216.9844
        37.5004         22.2504
 -18202928.10848 -13884035.09946  22216649.8524                   22216638.3794
        48.0004         37.7504
 -22301707.26448 -17243371.09048  21477661.3754                   21477653.3014
        48.2504         53.0004
  -5600929.89346  -4343555.06643  24635417.0084                   24635405.1844
        38.0004         20.5004
 -19408577.36247 -15095377.76248  21615461.4534                   21615450.7424
        47.5004         51.7504
 -15663954.62547 -11231690.55147  22361868.4534                   22361860.6724
        42.5004         44.0004
  -7241940.53745  -5906183.49745  23973423.6024                   23973416.4064
        34.7504         32.5004
 -23092714.82648 -19641416.38949  20772452.2974                   20772443.2854
        49.5004         54.7504
 23  1 11  1 13 30.0000000  0 11G22G08G03G23G21G10G12G31G01G25G32
 -23170092.45947 -13084570.76646  20672787.3364                   20672776.5084
        47.7504         41.2504
   1315255.96246  -2104975.15644  25736405.1024                   25736398.0234
        36.5004         29.0004
    150183.22444    130950.30244  25492367.0314                   25492358.9574
        29.2504         25.2504
    418480.16946  -4160151.29443  24228230.1884                   24228221.4694
        36.7504         22.0004
 -18217543.53848 -13895423.74946  22213868.2274                   22213856.5784
        48.0004         37.5004
 -22243734.01147 -17198197.14048  21488693.5394                   21488685.1724
        47.7504         52.7504
  -5634604.20646  -4369794.78843  24629008.1644                   24628998.1564
        37.0004         21.5004
 -19499587.07747 -15166294.40948  21598143.4224                   21598132.0084
        47.0004         51.7504
 -15729210.82947 -11282539.51347  22349450.2034                   22349442.3634
        42.0004         44.2504
  -7305632.67645  -5955813.75445  23961303.4064                   23961295.5084
        35.7504         33.5004
 -23062212.41348 -19617648.26549  20778256.6334                   20778247.8554
        49.2504         54.7504
 23  1 11  1 14  0.0000000  0 11G22G08G03G23G21G10G12G31G01G25G32
 -23189243.20048 -13099493.41246  20669143.0704                   20669132.0664
        48.5004         41.0004
   1396344.87245  -2041788.95945  25751835.3284                   25751829.5394
        35.7504         30.7504
     49693.07745     52646.37844  25473243.3754                   25473236.4734
        30.5004         27.7504
    513246.22646  -4086307.73343  24246263.6254                   24246254.3794
        37.0004         21.5004
 -18231679.05247 -13906438.44546  22211178.2584                   22211166.7854
        47.5004         37.2504
 -22185428.40047 -17152764.22748  21499788.5554                   21499780.4804
        47.5004         52.7504
  -5667779.55146  -4395645.71043  24622696.1484                   24622685.2034
        37.2504         21.0004
 -19590187.97447 -15236892.49948  21580902.0234                   21580891.0784
        47.7504         51.7504
 -15793955.23747 -11332989.73047  22337130.4454                   22337121.5514
        43.0004         44.5004
  -7368959.72746  -6005159.51345  23949253.3134                   23949245.4734
        37.2504         34.7504
 -23031423.72148 -19593657.06949  20784115.4454                   20784106.7274
        49.2504         55.0004
 23  1 11  1 14 30.0000000  0 11G22G08G03G23G21G10G12G31G01G25G32
 -23208076.23247 -13114168.49846  20665559.5704                   20665548.2734
        47.7504         41.2504
   1477434.06945  -1978602.45944  25767264.2974                   25767258.8014
        34.2504         26.5004
    -50832.80145    -25685.49744  25454114.0944                   25454107.5434
        32.7504         29.5004
    608167.65646  -4012343.04243  24264327.6644                   24264318.3594
        36.7504         21.7504
 -18245331.05347 -13917076.37746  22208580.2894                   22208568.9924
        47.5004         37.7504
 -22126786.93247 -17107069.59748  21510948.4224                   21510939.8794
        47.7504         52.7504
  -5700450.23146  -4421103.40543  24616479.7114                   24616467.2424
        38.0004         21.2504
 -19680373.90047 -15307167.22848  21563739.8984                   21563729.4224
        47.0004         51.7504
 -15858182.11346 -11383036.65347  22324907.0084                   22324899.9884
        41.7504         44.2504
  -7431915.19546  -6054215.72045  23937272.3054                   23937264.5234
        37.0004         34.0004
 -23000346.20748 -19569440.82449  20790029.3204                   20790020.5434
        49.5004         55.2504
 23  1 11  1 15  0.0000000  0 11G22G08G03G23G21G10G12G31G01G25G32
 -23226594.25547 -13128598.11946  20662034.8134                   20662023.7504
        47.7504         41.5004
   1558519.34645  -1915418.98344  25782695.5864                   25782687.3364
        33.5004         28.5004
   -151395.53845   -104046.08444  25434977.1174                   25434970.3914
        30.2504         28.5004
    703241.39246  -3938259.74643  24282419.2504                   24282410.7074
        36.0004         21.5004
 -18258500.63048 -13927338.39246  22206074.4384                   22206062.7304
        48.2504         37.5004
 -22067812.35047 -17061115.39048  21522170.0234                   21522162.1254
        47.5004         52.5004
  -5732616.86746  -4446168.31143  24610357.5864                   24610346.1134
        37.0004         20.2504
 -19770144.28247 -15377118.15448  21546657.6804                   21546646.7934
        47.5004         52.0004
 -15921891.39347 -11432680.23347  22312785.0784                   22312777.0634
        42.7504         44.7504
  -7494498.38845  -6102981.81845  23925362.9454                   23925356.3364
        35.2504         33.0004
 -22968983.23448 -19545002.13549  20795998.0084                   20795989.1134
        49.5004         55.0004
 23  1 11  1 15 30.0000000  0 11G22G08G03G23G21G10G12G31G01G25G32
 -23244797.56547 -13142782.50846  20658571.2584                   20658560.9574
        47.7504         41.5004
   1639597.50546  -1852241.21145  25798125.6024                   25798117.9384
        36.7504         30.2504
   -251993.82645   -182434.33144  25415833.9614                   25415827.0004
        30.7504         27.0004
    798466.88246  -3864058.17043  24300539.9614                   24300531.2424
        36.2504         22.0004
 -18271187.20148 -13937224.05346  22203660.5164                   22203648.3984
        48.0004         38.2504
 -22008504.19047 -17014901.27448  21533456.4924                   21533448.3014
        47.7504         52.5004
  -5764276.69546  -4470838.27343  24604333.3054                   24604321.4224
        38.2504         21.7504
 -19859496.31847 -15446743.10848  21529654.4614                   21529643.6914
        47.7504         52.0004
 -15985080.26547 -11481918.33447  22300760.0394                   22300751.7304
        42.5004         44.5004
  -7556705.79745  -6151455.15645  23913524.0314                   23913518.8284
        34.5004         33.5004
 -22937335.41848 -19520341.49049  20802019.7344                   20802011.1914
        49.7504         55.0004
 23  1 11  1 16  0.0000000  0 11G22G08G03G23G21G10G12G31G01G25G32
 -23262686.92448 -13156722.26246  20655167.0084                   20655156.3554
        48.0004         41.2504
   1720665.82945  -1789071.18844  25813550.4454                   25813544.7734
        33.5004         28.5004
   -352627.16045   -260849.94145  25396685.2974                   25396677.1054
        33.7504         30.5004
    893842.84046  -3789739.30043  24318689.8674                   24318680.3284
        36.0004         20.7504
 -18283390.95547 -13946733.48246  22201337.8524                   22201326.4384
        47.7504         37.5004
 -21948863.35447 -16968427.90348  21544805.8594                   21544797.4924
        47.7504         52.5004
  -5795428.21146  -4495112.17243  24598405.5394                   24598393.3634
        38.0004         21.0004
 -19948427.66147 -15516040.24148  21512731.0944                   21512720.5004
        47.5004         52.0004
 -16047746.95246 -11530749.51247  22288833.9844                   22288826.8484
        41.2504         44.5004
  -7618535.00645  -6199633.75845  23901759.2814                   23901752.3794
        35.2504         33.2504
 -22905404.19248 -19495460.02349  20808096.1024                   20808087.6764
        49.7504         55.2504
 23  1 11  1 16 30.0000000  0 11G22G08G03G23G21G10G12G31G01G25G32
 -23280263.39548 -13170418.20646  20651822.4614                   20651811.5744
        48.0004         41.2504
   1801721.20245  -1725911.04144  25828976.2194                   25828968.9064
        35.0004         28.7504
   -453294.43845   -339291.92344  25377528.6564                   25377520.8754
        33.2504         28.7504
    989368.43445  -3715303.91243  24336867.1174                   24336858.5744
        35.0004         22.0004
 -18295111.31647 -13955866.24146  22199107.7894                   22199095.8484
        47.7504         37.5004
 -21888890.07147 -16921695.49048  21556218.2114                   21556209.8444
        47.5004         52.2504
  -5826069.90746  -4518988.83843  24592572.5634                   24592562.9654
        36.7504         19.7504
 -20036935.40947 -15585007.30548  21495889.0084                   21495878.2384
        47.2504         52.0004
 -16109889.09047 -11579171.96147  22277010.1334                   22277002.5864
        43.0004         45.0004
  -7679982.98246  -6247515.28445  23890067.2584                   23890059.5944
        36.0004         34.0004
 -22873190.68648 -19470358.58549  20814226.3524                   20814217.7504
        50.0004         55.0004
 23  1 11  1 17  0.0000000  0 11G22G08G03G23G21G10G12G31G01G25G32
 -23297526.12648 -13183869.67646  20648537.6724                   20648526.5514
        48.0004         41.5004
   1882761.13645  -1662762.99945  25844397.5784                   25844391.5554
        35.0004         30.5004
   -553994.19045   -417759.24544  25358365.4774                   25358357.9884
        34.0004         28.5004
   1085043.22546  -3640752.24543  24355073.8914                   24355065.7584
        36.0004         21.2504
 -18306347.87247 -13964622.00746  22196969.1334                   22196957.6604
        47.7504         37.2504
 -21828584.21247 -16874703.93648  21567693.9454                   21567685.8134
        47.5004         52.5004
  -5856199.21646  -4542466.22543  24586841.4384                   24586828.7344
        38.5004         20.2504
 -20125016.69548 -15653642.05148  21479127.7344                   21479116.7304
        48.0004         52.0004
 -16171503.82246 -11627183.44847  22265284.3054                   22265276.9344
        41.2504         44.5004
  -7741046.11445  -6295096.96545  23878445.9534                   23878438.8754
        35.0004         32.7504
 -22840695.31648 -19445037.51749  20820409.9774                   20820401.5514
        50.0004         55.0004
 23  1 11  1 17 30.0000000  0 11G22G08G03G23G21G10G12G31G01G25G32
 -23314476.95748 -13197078.10946  20645312.1334                   20645301.1294
        48.0004         41.5004
   1963782.32546  -1599629.67444  25859817.0634                   25859807.6414
        37.7504         28.5004
   -654726.17545   -496251.71345  25339197.3754                   25339190.6484
        33.2504         31.5004
   1180865.53345  -3566085.61243  24373308.2664                   24373299.6644
        35.5004         21.5004
 -18317100.30047 -13973000.53746  22194922.6024                   22194911.7154
        46.5004         37.5004
 -21767946.49147 -16827453.78348  21579232.7894                   21579224.4804
        47.2504         52.0004
  -5885815.32046  -4565543.69043  24581204.2664                   24581192.8524
        37.2504         20.7504
 -20212669.44447 -15721942.89448  21462447.7974                   21462436.6764
        47.2504         52.0004
 -16232589.92646 -11674782.99247  22253660.5554                   22253651.8364
        41.5004         44.0004
  -7801722.39646  -6342377.22345  23866900.3984                   23866893.7304
        36.0004         34.5004
 -22807920.03348 -19419498.33449  20826646.9304                   20826638.3284
        50.5004         55.2504
 23  1 11  1 18  0.0000000  0 11G22G08G03G23G21G10G12G31G01G25G32
 -23331115.61548 -13210043.29346  20642145.9844                   20642134.7464
        48.5004         41.5004
   2044782.60455  -1536512.47854  25875229.1254                   25875221.9884
        34.5004         28.0004
   -755488.69545   -574767.89344  25320022.2584                   25320015.7074
        33.5004         29.7504
   1276835.15845  -3491304.22243  24391570.9774                   24391562.2584
        35.7504         22.5004
 -18327367.51847 -13981000.97546  22192969.0864                   22192957.4384
        47.5004         37.5004
 -21706976.75547 -16779944.91648  21590835.1024                   21590827.0864
        47.0004         52.0004
  -5914915.56946  -4588219.20243  24575667.5084                   24575655.2154
        38.2504         20.5004
 -20299890.53247 -15789907.36748  21445850.5234                   21445839.3444
        47.5004         52.0004
 -16293144.24547 -11721968.20647  22242137.8524                   22242130.3054
        42.2504         44.5004
  -7862008.14245  -6389353.11145  23855427.9454                   23855420.8674
        35.5004         34.0004
 -22774865.08648 -19393741.23149  20832936.7114                   20832927.8754
        50.0004         55.0004
 23  1 11  1 18 30.0000000  0 11G22G08G03G23G21G10G12G31G01G25G32
 -23347442.34848 -13222765.41946  20639038.4064                   20639027.6374
        48.7504         41.7504
   2125759.77945  -1483509.28753  25890638.2974                   25890631.9224
        34.7504         23.5004
   -856280.37045   -653306.83444  25300843.5164                   25300834.6214
        34.5004         28.0004
   1372951.44745  -3416408.52843  24409861.2504                   24409852.8244
        35.0004         20.5004
 -18337149.21247 -13988623.08146  22191107.6254                   22191096.5634
        46.7504         37.5004
 -21645675.26147 -16732177.54548  21602500.6804                   21602492.6054
        47.5004         52.0004
  -5943497.41546  -4610490.73943  24570227.8524                   24570216.1454
        37.0004         19.5004
 -20386677.14448 -15857533.28248  21429335.0234                   21429324.1374
        48.2504         52.0004
 -16353164.40046 -11768737.13947  22230714.2194                   22230708.0204
        40.5004         44.0004
  -7921900.10845  -6436022.21045  23844030.8834                   23844025.0944
        34.7504         34.7504
 -22741531.28448 -19367766.83949  20839279.9844                   20839271.2074
        50.0004         55.0004
 23  1 11  1 19  0.0000000  0 11G22G08G03G23G21G10G12G31G01G25G32
 -23363458.48148 -13235245.51246  20635990.8984                   20635979.6604
        48.2504         41.7504
   2206710.52645  -1420430.84744  25906042.0084                   25906035.9264
        34.2504         26.5004
   -957100.75445   -731868.17645  25281656.5234                   25281649.9144
        33.0004         30.2504
   1469212.99245  -3341399.67543  24428179.4924                   24428171.0084
        35.2504         20.5004
 -18346445.60647 -13995867.02946  22189338.7504                   22189327.5704
        47.2504         37.5004
 -21584042.68647 -16684152.18048  21614228.9774                   21614220.4344
        47.5004         51.7504
  -5971560.29046  -4632357.93343  24564887.7584                   24564876.5204
        37.5004         20.2504
 -20473027.04647 -15924818.91448  21412902.6884                   21412892.3874
        47.0004         52.2504
 -16412648.60447 -11815088.46147  22219396.7274                   22219387.7734
        42.5004         44.5004
  -7981395.99346  -6482382.63145  23832711.0864                   23832702.8954
        37.0004         35.7504
 -22707920.19048 -19341576.38249  20845676.3524                   20845667.6914
        51.2504         55.0004
 23  1 11  1 19 30.0000000  0 11G22G08G03G23G21G10G12G31G01G25G32
 -23379163.11248 -13247482.88747  20633002.1644                   20632991.6884
        48.5004         42.0004
                                  25921439.7194                   25921434.0474
        26.2504         20.5004
  -1057947.59745   -810450.10945  25262466.5554                   25262460.0634
        33.5004         30.7504
   1565620.00445  -3266277.46043  24446525.2894                   24446516.6884
        34.7504         21.5004
 -18355255.35947 -14002731.78646  22187662.5004                   22187650.9694
        47.0004         37.5004
 -21522078.10747 -16635868.11748  21626020.0474                   21626012.2074
        47.0004         51.5004
  -5999101.05146  -4653818.20643  24559647.7034                   24559635.5274
        37.2504         19.7504
 -20558936.50648 -15991761.34348  21396555.2194                   21396544.2154
        48.0004         52.5004
 -16471593.59547 -11861019.64647  22208179.6334                   22208171.2074
        42.2504         44.5004
  -8040491.72545  -6528431.28845  23821463.5084                   23821456.8984
        35.2504         34.5004
 -22674031.67248 -19315169.75449  20852125.2504                   20852116.4734
        52.0004         55.0004
 23  1 11  1 20  0.0000000  0 10G22G03G23G21G10G12G31G01G25G32
 -23394559.39548 -13259479.97447  20630072.5944                   20630061.4734
        48.2504         42.0004
  -1158822.20645   -889053.68044  25243270.1884                   25243262.8754
        33.0004         29.0004
   1662169.18445  -3191044.48143  24464897.8444                   24464889.2424
        35.0004         20.7504
 -18363580.12847 -14009218.63146  22186078.2974                   22186067.0004
        47.5004         38.0004
 -21459784.13647 -16587327.38848  21637874.3444                   21637866.3284
        47.0004         51.5004
  -6026120.10446  -4674872.05643  24554507.1254                   24554493.2504
        38.5004         19.2504
 -20644405.54847 -16058360.57648  21380290.6174                   21380280.3164
        47.5004         52.5004
 -16529999.64146 -11906530.82647  22197064.4694                   22197057.2734
        41.2504         44.2504
  -8099186.69846  -6574167.64645  23810294.5864                   23810288.0354
        36.7504         34.5004
 -22639869.15948 -19288549.60449  20858626.0944                   20858617.3754
        51.0004         55.0004
 23  1 11  1 20 30.0000000  0 10G22G03G23G21G10G12G31G01G25G32
 -23409646.77348 -13271236.37347  20627201.6954                   20627190.9264
        48.5004         42.0004
  -1259722.47645   -967677.26944  25224070.0474                   25224062.0904
        32.7504         29.2504
   1758860.56745  -3115700.68843  24483297.2974                   24483289.3984
        34.7504         19.7504
 -18371418.90147 -14015326.77546  22184586.7034                   22184574.9964
        47.0004         38.0004
 -21397160.23647 -16538529.56348  21649791.4694                   21649783.2774
        47.0004         51.5004
  -6052615.03046  -4695517.46343  24549464.1484                   24549451.5634
        38.0004         19.7504
 -20729430.52047 -16124613.79048  21364110.7734                   21364100.3554
        47.5004         52.5004
 -16587863.48147 -11951619.54447  22186054.2274                   22186045.5084
        42.5004         45.0004
  -8157477.04045  -6619588.73345  23799202.3524                   23799194.1024
        35.5004         32.5004
 -22605432.66948 -19261715.98849  20865178.8984                   20865170.4734
        51.5004         54.7504
 23  1 11  1 21  0.0000000  0 10G22G03G23G21G10G12G31G01G25G32
 -23424425.83448 -13282752.52247  20624389.2814                   20624377.9844
        48.5004         42.2504
  -1360647.26445  -1046319.90544  25204865.3674                   25204857.8204
        33.5004         29.7504
   1855693.37645  -3040246.69243  24501724.6254                   24501716.5514
        35.0004         21.5004
 -18378771.50947 -14021056.08446  22183187.5314                   22183175.9414
        47.5004         37.5004
 -21334206.60947 -16489474.83348  21661771.0314                   21661763.0744
        46.5004         51.2504
  -6078584.20146  -4715753.17243  24544522.6484                   24544509.8284
        38.0004         19.5004
 -20814008.71948 -16190518.87448  21348016.7974                   21348005.9694
        48.0004         52.7504
 -16645182.90347 -11996284.03247  22175146.2664                   22175138.2504
        42.0004         44.5004
  -8215359.83446  -6664692.23945  23788189.2114                   23788181.4884
        37.0004         35.0004
 -22570723.18348 -19234669.64349  20871784.2894                   20871775.4534
        52.5004         55.0004
 23  1 11  1 21 30.0000000  0 10G22G03G23G21G10G12G31G01G25G32
 -23438896.93948 -13294028.69947  20621635.2974                   20621624.4104
        48.5004         42.0004
  -1461595.35545  -1124980.72244  25185654.3204                   25185647.1254
        33.2504         29.0004
   1952666.78745  -2964683.12443  24520179.0704                   24520169.8834
        34.2504         21.0004
 -18385637.24247 -14026406.01446  22181881.1804                   22181869.4144
        47.0004         38.0004
 -21270923.75947 -16440163.54848  21673813.3834                   21673805.1914
        46.7504         51.0004
  -6104025.49346  -4735577.53843  24539680.8204                   24539669.0554
        37.7504         20.5004
 -20898137.69547 -16256073.90948  21332007.5084                   21331996.6804
        47.5004         53.0004
 -16701955.73147 -12040522.58847  22164342.7344                   22164335.1884
        42.2504         45.2504
  -8272832.12345  -6709475.82545  23777249.7894                   23777244.0594
        34.5004         33.5004
 -22535741.58548 -19207411.26049  20878440.9144                   20878432.2544
        51.2504         55.0004
 23  1 11  1 22  0.0000000  0 10G22G03G23G21G10G12G31G01G25G32
 -23453060.40748 -13305065.16147  20618940.2734                   20618929.1524
        48.7504         42.0004
  -1562565.39745  -1203658.66444  25166441.8914                   25166433.5824
        33.7504         29.7504
   2049779.93445  -2889010.72343  24538657.7114                   24538650.2814
        33.5004         20.2504
 -18392016.30247 -14031376.71846  22180667.6414                   22180655.6414
        47.0004         37.7504
 -21207311.41347 -16390595.51748  21685918.3984                   21685910.1484
        46.7504         51.0004
  -6128937.12646  -4754989.26043  24534939.7734                   24534928.7114
        37.2504         18.2504
 -20981814.42147 -16321276.54348  21316084.0704                   21316073.1254
        47.5004         53.0004
 -16758179.63047 -12084333.42647  22153644.5234                   22153636.3324
        43.2504         45.5004
  -8329890.80546  -6753937.15645  23766393.8054                   23766386.3164
        36.5004         34.7504
 -22500488.73048 -19179941.50949  20885149.2814                   20885140.3284
        51.0004         55.0004
 23  1 11  1 22 30.0000000  0 10G22G03G23G21G10G12G31G01G25G32
 -23466916.99648 -13315862.49347  20616303.3284                   20616292.4414
        48.7504         42.0004
  -1663556.18545  -1282352.74945  25147223.0704                   25147216.2274
        33.5004         30.0004
   2147032.16645  -2813229.90743  24557165.1094                   24557156.9774
        35.0004         19.2504
 -18397907.23847 -14035967.07346  22179546.5164                   22179534.5744
        47.5004         37.5004
 -21143370.25247 -16340771.26648  21698085.5784                   21698077.7974
        46.2504         50.7504
  -6153316.79946  -4773986.38943  24530301.5944                   24530289.1844
        37.7504         20.0004
 -21065036.33148 -16386124.77548  21300247.6334                   21300236.8634
        48.0004         53.2504
 -16813852.37047 -12127714.77447  22143049.7114                   22143041.1094
        42.0004         45.5004
  -8386533.01945  -6798073.95145  23755613.9454                   23755608.5084
        34.7504         34.5004
 -22464965.51148 -19152261.08149  20891909.0784                   20891900.2424
        52.0004         55.0004
 23  1 11  1 23  0.0000000  0 10G22G03G23G21G10G12G31G01G25G32
 -23480466.69648 -13326420.69647  20613725.1334                   20613714.2464
        49.0004         42.0004
  -1764566.58445  -1361062.07245  25128002.4144                   25127993.6954
        33.7504         30.0004
   2244422.44845  -2737341.53543  24575697.9454                   24575688.8754
        33.7504         20.2504
 -18403310.50847 -14040177.41946  22178518.1024                   22178506.5124
        47.7504         37.7504
 -21079100.15447 -16290690.70648  21710316.2974                   21710308.3404
        46.5004         50.7504
  -6177163.79446  -4792568.45443  24525763.0004                   24525751.4694
        37.0004         19.7504
 -21147800.84047 -16450616.59548  21284497.8054                   21284487.0944
        47.7504         53.2504
 -16868971.83747 -12170665.00647  22132560.5554                   22132552.7154
        43.0004         45.7504
  -8442755.73146  -6841883.84445  23744915.4304                   23744908.3524
        36.5004         34.2504
 -22429172.85748 -19124370.70049  20898720.3364                   20898711.6174
        52.2504         55.0004
 23  1 11  1 23 30.0000000  0 10G22G03G23G21G10G12G31G01G25G32
 -23493712.28948 -13336741.93647  20611204.0634                   20611193.2344
        48.5004         42.2504
  -1865597.23145  -1439787.24845  25108776.4224                   25108768.2304
        33.2504         30.5004
   2341948.09445  -2661347.66543  24594256.5944                   24594247.7584
        35.0004         20.0004
 -18408227.51047 -14044008.85046  22177582.4064                   22177570.4064
        47.0004         38.5004
 -21014503.46547 -16240355.65248  21722608.3834                   21722600.4844
        46.2504         50.5004
  -6200478.09246  -4810735.46243  24521326.3444                   24521315.1054
        36.7504         19.2504
 -21230107.52748 -16514751.66348  21268835.7504                   21268824.6884
        48.0004         53.5004
 -16923537.75647 -12213183.91047  22122177.7734                   22122169.8164
        43.5004         46.0004
  -8498557.95646  -6885366.12545  23734297.4774                   23734289.4024
        36.2504         34.0004
 -22393113.61948 -19096272.59849  20905582.2194                   20905573.0314
        52.0004         55.0004
 23  1 11  1 24  0.0000000  0 10G22G03G23G21G10G12G31G01G25G32
 -23506650.67348 -13346823.78847  20608742.4304                   20608731.3674
        49.2504         42.5004
  -1966643.48145  -1518524.50944  25089546.4774                   25089539.9264
        33.5004         29.0004
                                  24612841.1174                   24612833.2194
        33.7504         20.0004
 -18412654.92947 -14047458.79946  22176739.6804                   22176728.5594
        47.5004         37.7504
 -20949577.35647 -16189763.91348  21734963.8834                   21734955.3984
        47.7504         50.5004
  -6223254.61846  -4828483.43543  24516990.9064                   24516980.5474
        36.0004         19.7504
 -21311950.24347 -16578525.21248  21253261.2584                   21253250.6644
        47.5004         53.5004
 -16977544.58747 -12255267.15047  22111899.7194                   22111892.2894
        42.5004         46.0004
  -8553933.49545  -6928515.87845  23723758.1804                   23723752.3914
        34.7504         34.0004
 -22356785.32048 -19067964.84349  20912495.1644                   20912486.3874
        52.0004         54.7504
 23  1 11  1 24 30.0000000  0 10G22G03G23G21G10G12G31G01G25G32
 -23519285.05348 -13356668.75147  20606338.2584                   20606327.2544
        49.0004         42.5004
  -2067706.86745  -1597275.13545  25070315.7504                   25070308.0864
        34.2504         30.7504
  -6915110.39645  -9874640.31543  24631451.4064                   24631443.6844
        33.5004         19.2504
 -18416595.26547 -14050529.20746  22175990.1484                   22175978.4414
        46.0004         38.0004
 -20884324.73547 -16138917.74648  21747381.2274                   21747373.0944
        46.7504         50.2504
  -6245494.26246  -4845813.00643  24512758.8674                   24512748.5084
        36.0004         19.7504
 -21393329.43148 -16641937.55448  21237775.3364                   21237764.2734
        48.0004         53.5004
 -17030993.12547 -12296915.35247  22101729.3754                   22101721.1844
        43.2504         46.0004
  -8608882.18746  -6971333.03045  23713302.2344                   23713296.0354
        36.0004         34.0004
 -22320191.67348 -19039450.31649  20919458.8984                   20919449.8874
        52.5004         54.7504
 23  1 11  1 25  0.0000000  0 10G22G03G23G21G10G12G31G01G25G32
 -23531612.83048 -13366274.80947  20603992.2034                   20603981.3164
        49.0004         42.7504
                                  25051081.6024                   25051073.4694
        32.2504         29.5004
  -6817175.73845  -9798327.78743  24650088.9774                   24650079.3794
        35.5004         19.5004
 -18420045.11547 -14053217.41346  22175333.4144                   22175321.8244
        45.2504         38.2504
 -20818742.32447 -16087814.59648  21759861.1484                   21759852.6054
        46.5004         50.2504
  -6267191.83745  -4862720.21643  24508630.3204                   24508619.8444
        35.5004         20.7504
 -21474238.88847 -16704983.87148  21222378.6174                   21222368.3164
        47.7504         53.7504
 -17083877.63447 -12338124.08347  22091666.3204                   22091657.7774
        43.5004         46.5004
  -8663397.77246  -7013812.70445  23702928.8594                   23702922.3094
        36.0004         35.0004
 -22283330.14348 -19010727.05649  20926472.9924                   20926464.3324
        52.0004         55.0004
 23  1 11  1 25 30.0000000  0 10G22G03G23G21G10G12G31G01G25G32
 -23543643.47048 -13375649.32947  20601702.9614                   20601692.1914
        49.0004         42.7504
  -3845298.78145  -2982411.62045  25031843.0084                   25031836.2234
        33.0004         30.5004
  -6719114.32945  -9721916.44343  24668749.6644                   24668740.2424
        35.2504         19.5004
 -18423012.58747 -14055529.73746  22174769.1724                   22174757.2894
        47.0004         37.7504
 -20752839.82647 -16036462.04148  21772401.8204                   21772393.5704
        46.5004         50.0004
  -6288355.58546  -4879211.50543  24504604.3364                   24504593.7424
        38.2504         21.5004
 -21554685.14248 -16767669.25948  21207070.3524                   21207059.6414
        48.0004         53.7504
 -17136205.36847 -12378898.94447  22081708.1804                   22081700.4574
        42.5004         46.2504
  -8717486.49046  -7055959.73045  23692636.0314                   23692629.7154
        36.2504         34.5004
 -22246210.83848 -18981802.93349  20933536.7274                   20933528.2424
        52.7504         55.0004
 23  1 11  1 26  0.0000000  0 10G22G03G23G21G10G12G31G01G25G32
 -23555368.84248 -13384785.99047  20599471.8754                   20599460.8134
        48.7504         42.5004
  -3946405.25745  -3061195.84645  25012603.8284                   25012595.9884
        33.0004         30.2504
  -6620918.41845  -9645400.29943  24687435.0864                   24687426.9534
        35.0004         19.2504
 -18425489.33747 -14057459.68346  22174297.6644                   22174286.2504
        46.5004         37.7504
 -20686608.88147 -15984853.53648  21785005.7114                   21784997.1094
        47.2504         50.2504
  -6308974.83446  -4895278.43943  24500679.8914                   24500670.2344
        36.2504         20.7504
 -21634657.28448 -16829985.20948  21191852.6564                   21191841.4774
        48.2504         53.7504
 -17187965.68947 -12419231.65747  22071858.2274                   22071850.3284
        42.5004         46.2504
  -8771136.98345  -7097765.28445  23682426.2814                   23682420.0234
        35.5004         34.5004
 -22208826.07548 -18952671.95649  20940651.0634                   20940642.0514
        52.2504         54.7504
 23  1 11  1 26 30.0000000  0 10G22G03G23G21G10G12G31G01G25G32
 -23566790.97148 -13393686.33747  20597298.2114                   20597287.3834
        49.0004         42.7504
  -4047522.40445  -3139988.39044  24993359.8134                   24993353.6134
        33.0004         29.7504
  -6522590.29545  -9568781.14943  24706146.7194                   24706137.7074
        35.5004         19.7504
 -18427477.01347 -14059008.53746  22173919.0474                   22173907.5164
        46.2504         38.5004
 -20620051.31447 -15932990.51148  21797670.6094                   21797662.4774
        46.5004         50.0004
  -6329049.43845  -4910921.02443  24496858.7974                   24496850.1374
        34.7504         20.2504
 -21714154.23448 -16891930.86948  21176724.7504                   21176713.5704
        48.0004         53.7504
 -17239157.77347 -12459121.60647  22062117.1954                   22062108.5354
        43.5004         46.2504
  -8824347.70946  -7139228.16045  23672301.2504                   23672294.1724
        36.2504         34.5004
 -22171178.10348 -18923335.87549  20947814.9694                   20947806.0164
        52.0004         54.7504
 23  1 11  1 27  0.0000000  0 10G22G03G23G21G10G12G31G01G25G32
 -23577912.08048 -13402352.13147  20595181.4534                   20595171.0944
        49.2504         42.7504
  -4148650.57455  -3218789.51055  24974118.2974                   24974109.8134
        35.2504         31.0004
  -6424132.59045  -9492060.99743  24724881.9774                   24724874.0204
        34.5004         20.0004
 -18428977.02047 -14060177.38246  22173633.5554                   22173622.3754
        47.5004         38.5004
 -20553169.24247 -15880874.64848  21810398.0164                   21810389.8834
        46.0004         50.0004
  -6348579.86246  -4926139.56043  24493143.0784                   24493133.5394
        36.7504         20.7504
 -21793175.37948 -16953505.77749  21161687.8134                   21161676.2234
        49.0004         54.0004
 -17289781.59647 -12498568.74947  22052483.2664                   22052475.6604
        42.7504         46.2504
  -8877117.79845  -7180347.66745  23662258.4454                   23662252.1294
        34.7504         33.7504
 -22133269.69748 -18893796.86649  20955028.8594                   20955020.1994
        52.2504         55.0004
 23  1 11  1 27 30.0000000  0 10G22G03G23G21G10G12G31G01G25G32
 -23588732.42948 -13410783.56447  20593122.3984                   20593111.6884
        49.2504         42.5004
  -4249788.28055  -3297598.08554  24954870.8594                   24954864.3094
        33.5004         29.5004
  -6325546.11245  -9415240.55843  24743642.7734                   24743634.5824
        34.7504         20.2504
 -18429988.70547 -14060965.72146  22173441.4844                   22173430.0704
        46.7504         38.5004
 -20485962.57147 -15828505.83448  21823187.3204                   21823178.7774
        46.5004         50.0004
  -6367564.15146  -4940932.48843  24489532.0314                   24489519.3874
        37.5004         18.5004
 -21871717.72448 -17014707.59849  21146741.1414                   21146730.3714
        48.0004         54.0004
 -17339834.81047 -12537571.24247  22042958.4774                   22042950.8134
        42.5004         46.2504
  -8929444.11145  -7221121.40045  23652301.8134                   23652294.7344
        35.5004         34.0004
 -22095101.50848 -18864055.42649  20962292.0704                   20962283.1764
        52.0004         54.7504
 23  1 11  1 28  0.0000000  0 10G22G03G23G21G10G12G31G01G25G32
 -23599252.41748 -13418980.96447  20591120.9774                   20591109.7384
        49.5004         42.7504
  -4350934.06645  -3376412.97245  24935623.6024                   24935616.8754
        33.2504         30.7504
  -6226831.53945  -9338320.28643  24762427.9924                   24762419.3324
        35.2504         19.2504
 -18430511.86147 -14061373.38746  22173342.0314                   22173330.3834
        47.5004         38.0004
 -20418431.90547 -15775884.54648  21836037.7584                   21836029.0984
        46.2504         50.0004
  -6386001.08746  -4955298.93243  24486023.2894                   24486012.5204
        36.5004         21.0004
 -21949778.87347 -17075534.44949  21131886.2894                   21131876.2814
        47.7504         54.0004
 -17389315.31247 -12576127.50447  22033543.1564                   22033534.8484
        43.2504         46.5004
  -8981323.72045  -7261547.05245  23642429.2424                   23642422.2234
        35.7504         34.0004
 -22056674.29748 -18834112.15249  20969604.7584                   20969595.7464
        52.0004         54.7504
 23  1 11  1 28 30.0000000  0 10G22G03G23G21G10G12G31G01G25G32
 -23609471.93148 -13426944.21947  20589176.3364                   20589165.2734
        49.5004         43.5004
  -4452086.02345  -3455232.63045  24916374.9614                   24916368.1174
        34.0004         31.0004
  -6127989.14145  -9261300.38743  24781237.2034                   24781228.8954
        34.7504         19.5004
 -18430546.31347 -14061400.24746  22173335.5474                   22173323.5474
        47.5004         38.5004
 -20350576.93947 -15723010.57648  21848949.5234                   21848941.8014
        46.2504         50.0004
  -6403888.50245  -4969237.20643  24482617.4844                   24482609.4104
        35.0004         21.5004
 -22027355.98948 -17135984.14149  21117124.5634                   21117113.6764
        49.7504         54.0004
 -17438220.62646 -12614235.54547  22024234.8914                   22024228.8674
        41.7504         46.0004
  -9032753.40645  -7301622.10245  23632642.8984                   23632635.5864
        35.2504         33.7504
 -22017988.41848 -18803967.32749  20976966.2344                   20976957.0474
        52.2504         54.7504
 23  1 11  1 29  0.0000000  0 10G22G03G23G21G10G12G31G01G25G32
 -23619393.19748 -13434675.06647  20587288.2114                   20587277.3834
        48.7504         42.7504
  -4553244.50545  -3534057.38145  24897124.2584                   24897118.1764
        33.2504         32.0004
  -6029021.56445  -9184182.95643  24800071.0234                   24800062.0124
        33.7504         18.2504
 -18430093.27347 -14061047.23946  22173421.8984                   22173409.6054
        47.0004         39.0004
 -20282399.61347 -15669885.41948  21861923.7194                   21861915.6454
        46.7504         50.0004
  -6421226.33746  -4982747.24543  24479320.7734                   24479309.5354
        38.0004         22.0004
 -22104448.09148 -17196055.89349  21102454.2194                   21102443.0984
        49.0004         54.0004
 -17486550.41847 -12651895.11347  22015038.8754                   22015032.2074
        42.0004         46.0004
  -9083731.96846  -7341345.62845  23622941.3914                   23622934.8404
        36.2504         34.0004
 -21979046.40348 -18773622.91149  20984376.5084                   20984367.6134
        52.5004         54.7504
 23  1 11  1 29 30.0000000  0 10G22G03G23G21G10G12G31G01G25G32
 -23629016.47248 -13442173.72647  20585456.7114                   20585446.2344
        49.5004         43.0004
  -4654407.82045  -3612885.92545  24877875.4304                   24877867.3554
        35.0004         32.5004
  -5929929.39545  -9106968.45843  24818927.9224                   24818918.9694
        35.5004         19.0004
 -18429152.49047 -14060314.16446  22173600.7344                   22173588.9104
        47.0004         38.5004
 -20213900.19747 -15616509.26948  21874959.0234                   21874950.5984
        46.2504         50.0004
  -6438012.97145  -4995827.73643  24476124.3674                   24476113.8324
        35.5004         20.0004
 -22181052.70048 -17255747.79149  21087876.6174                   21087865.8484
        49.5004         54.0004
 -17534302.50447 -12689104.53547  22005953.6094                   22005945.1844
        43.5004         46.5004
  -9134256.43445  -7380715.32545  23613326.8054                   23613321.0164
        34.7504         34.2504
 -21939848.92148 -18743079.43149  20991835.6644                   20991826.5944
        52.7504         54.7504
 23  1 11  1 30  0.0000000  0 10G22G03G23G21G10G12G31G01G25G32
 -23638340.71448 -13449439.36747  20583682.4774                   20583671.7664
        49.5004         43.0004
  -4755573.36845  -3691716.18845  24858623.7194                   24858615.8794
        34.7504         32.2504
  -5830712.27245  -9029656.59843  24837806.5474                   24837799.7034
        34.7504         19.5004
 -18427722.92047 -14059200.22746  22173872.8754                   22173861.1684
        47.7504         38.5004
 -20145077.52847 -15562881.24148  21888055.1884                   21888046.8794
        46.2504         50.0004
  -6454245.82946  -5008476.67842  24473035.8364                   24473023.0744
        38.0004         17.7504
 -22257165.68548 -17315056.59349  21073392.9534                   21073381.8914
        49.2504         54.0004
 -17581473.62047 -12725861.26847  21996975.7814                   21996968.6454
        43.0004         46.5004
  -9184322.74346  -7419728.01145  23603800.3594                   23603792.7544
        36.2504         34.2504
 -21900395.42248 -18712336.44549  20999343.3204                   20999334.5434
        52.7504         55.0004
 23  1 11  1 30 30.0000000  0 10G22G03G23G21G10G12G31G01G25G32
 -23647367.78848 -13456473.43947  20581964.9144                   20581953.9104
        49.2504         43.2504
  -4856740.92245  -3770548.00845  24839372.4304                   24839364.1214
        35.2504         33.0004
  -5731372.34245  -8952249.06443  24856711.2974                   24856703.4574
        35.0004         19.0004
 -18425805.05247 -14057705.79246  22174238.2114                   22174226.0354
        46.7504         38.7504
 -20075933.22547 -15509002.59848  21901213.5634                   21901205.0204
        47.5004         50.0004
  -6469924.81246  -5020694.07543  24470053.1564                   24470041.3324
        39.2504         22.0004
 -22332786.17748 -17373981.65249  21059002.9304                   21058991.8674
        50.0004         54.0004
 -17628063.20847 -12762164.81947  21988109.9844                   21988102.4964
        42.2504         46.2504
  -9233929.31245  -7458382.47345  23594359.5634                   23594353.0704
        35.0004         33.7504
 -21860688.15648 -18681395.73549  21006899.3204                   21006890.6024
        53.0004         54.7504
 23  1 11  1 31  0.0000000  0 10G22G03G23G21G10G12G31G01G25G32
 -23656098.97448 -13463276.96647  20580303.5474                   20580292.2504
        49.7504         43.0004
  -4957909.70345  -3849380.79745  24820119.4304                   24820112.4104
        33.5004         33.0004
  -5631910.93246  -8874746.80043  24875638.5084                   24875630.4344
        36.0004         19.5004
 -18423399.51347 -14055831.35446  22174695.5234                   22174683.7584
        47.5004         38.7504
 -20006468.40747 -15454874.19348  21914431.8984                   21914423.5314
        47.0004         50.0004
  -6485049.05546  -5032479.21643  24467174.6024                   24467163.8914
        38.0004         20.5004
 -22407912.41948 -17432521.57749  21044706.6094                   21044695.7814
        49.5004         54.0004
 -17674069.83647 -12798014.14047  21979355.9304                   21979347.7974
        43.0004         46.5004
  -9283074.17446  -7496677.12345  23585008.9064                   23585002.1804
        36.2504         34.7504
 -21820728.42148 -18650258.29049  21014503.4694                   21014494.4574
        53.2504         54.7504
 23  1 11  1 31 30.0000000  0 10G22G03G23G21G10G12G31G01G25G32
 -23664533.96648 -13469849.68447  20578698.2504                   20578687.3054
        50.0004         43.2504
  -5059077.72745  -3928212.98445  24800869.4384                   24800861.4224
        35.5004         34.0004
  -5532328.46045  -8797150.26343  24894588.2894                   24894580.5084
        35.5004         18.5004
 -18420506.46247 -14053577.05046  22175246.4144                   22175234.4734
        47.7504         39.0004
 -19936682.82447 -15400495.84848  21927711.4774                   21927703.1094
        47.2504         49.7504
  -6499616.89146  -5043830.76642  24464402.8284                   24464389.5394
        38.7504         17.7504
 -22482541.48348 -17490674.08649  21030505.1094                   21030494.3404
        50.2504         54.2504
 -17719491.00347 -12833407.27147  21970712.7814                   21970704.3554
        44.0004         46.7504
  -9331753.74046  -7534609.25845  23575745.4224                   23575738.3444
        36.5004         34.7504
 -21780516.54348 -18618924.36649  21022155.6954                   21022146.4494
        53.2504         54.7504
 23  1 11  1 32  0.0000000  0 10G22G03G23G21G10G12G31G01G25G32
 -23672673.49048 -13476192.16947  20577149.2194                   20577138.3324
        49.5004         43.0004
  -5160243.56745  -4007043.49745  24781617.1024                   24781609.6134
        35.7504         32.5004
  -5432625.92645  -8719460.12543  24913561.1174                   24913553.5704
        34.7504         19.7504
 -18417125.40548 -14050942.46046  22175889.4534                   22175877.9224
        48.0004         39.0004
 -19866576.99947 -15345867.96048  21941052.4614                   21941044.4454
        47.5004         50.0004
  -6513626.85646  -5054747.61043  24461736.8984                   24461723.5514
        39.0004         20.0004
 -22556670.94548 -17548437.29549  21016399.3364                   21016388.1564
        51.0004         54.5004
 -17764325.10047 -12868342.91847  21962180.4304                   21962173.1764
        43.7504         46.7504
  -9379965.76045  -7572177.05445  23566569.5864                   23566562.4494
        34.5004         33.5004
 -21740053.50848 -18587394.75049  21029855.3754                   21029846.4804
        52.7504         54.7504
 23  1 11  1 32 30.0000000  0 10G22G03G23G21G10G12G31G01G25G32
 -23680517.42748 -13482304.32247  20575656.3834                   20575645.9654
        50.0004         43.0004
  -5261405.82545  -4085871.17845  24762366.1724                   24762358.9184
        34.7504         33.0004
  -5332803.85745  -8641676.89843  24932556.4304                   24932548.8244
        34.5004         19.2504
 -18413256.14048 -14047927.45846  22176625.4064                   22176613.9344
        48.2504         39.0004
 -19796151.16348 -15290990.71848  21954454.0004                   21954445.5744
        48.0004         49.7504
  -6527077.26146  -5065228.47143  24459177.4144                   24459165.4144
        39.5004         21.0004
 -22630298.29848 -17605809.24249  21002388.0864                   21002377.0234
        51.0004         54.2504
 -17808569.99447 -12902819.46447  21953761.5784                   21953753.7384
        45.2504         47.0004
  -9427707.03745  -7609378.04645  23557484.3524                   23557478.4454
        34.0004         33.5004
 -21699339.83348 -18555669.81649  21037603.0944                   21037594.0234
        53.0004         54.7504
 23  1 11  1 33  0.0000000  0 10G22G03G23G21G10G12G31G01G25G32
 -23688067.79448 -13488187.72947  20574219.8984                   20574208.8364
        49.2504         43.0004
  -5362563.69246  -4164695.48845  24743117.2584                   24743109.0084
        36.5004         33.7504
  -5232864.38545  -8563802.19443  24951574.2194                   24951566.7304
        34.5004         19.0004
 -18408900.00448 -14044533.08446  22177454.5164                   22177443.3954
        48.5004         39.0004
 -19725406.58847 -15235865.10148  21967916.3594                   21967908.1684
        47.5004         49.7504
  -6539968.04246  -5075273.26543  24456722.9774                   24456713.4964
        38.0004         21.2504
 -22703422.12748 -17662788.83449  20988473.0234                   20988462.0784
        50.7504         54.5004
 -17852224.88047 -12936836.26847  21945453.8524                   21945446.0124
        44.2504         47.0004
  -9474976.09245  -7646211.05345  23548489.9924                   23548482.9734
        34.5004         33.7504
 -21658377.43148 -18523751.07249  21045398.0784                   21045389.1254
        52.5004         54.7504
 23  1 11  1 33 30.0000000  0 11G22G03G23G17G21G10G12G31G01G25G32
 -23695324.19848 -13493842.06447  20572838.9694                   20572827.9064
        49.2504         43.0004
  -5463715.36546  -4243514.92445  24723868.5084                   24723860.9024
        36.5004         33.2504
  -5132807.63345  -8485836.05543  24970614.9534                   24970607.6994
        34.7504         19.5004
   -553613.19054   -400975.86352  25861598.8054                   25861590.0864
        29.7504         15.5004
 -18404056.26848 -14040758.75246  22178376.7344                   22178364.7934
        48.0004         39.0004
 -19654343.39747 -15180491.21648  21981439.6414                   21981431.9184
        47.0004         49.5004
  -6552297.20446  -5084880.43743  24454377.6724                   24454368.0164
        37.7504         20.5004
 -22776039.58348 -17719373.86249  20974654.5554                   20974643.7274
        51.0004         54.7504
 -17895287.35447 -12970391.44147  21937259.4694                   21937251.4534
        44.5004         47.0004
  -9521769.51645  -7682673.47645  23539585.2034                   23539578.7114
        35.0004         34.0004
 -21617166.48848 -18491638.65949  21053239.7274                   21053230.8324
        52.0004         54.7504
 23  1 11  1 34  0.0000000  0 11G22G03G23G17G21G10G12G31G01G25G32
 -23702289.04848 -13499269.22447  20571513.5864                   20571502.4654
        49.5004         43.2504
  -5564861.57446  -4322330.14445  24704622.3834                   24704613.0204
        38.7504         34.0004
  -5032636.88545  -8407781.15543  24989677.8444                   24989669.8284
        34.7504         18.2504
   -569267.13345   -413173.69642  25858619.5394                   25858610.2934
        30.2504         15.5004
 -18398727.34548 -14036606.35446  22179390.4694                   22179378.8794
        48.5004         39.0004
 -19582964.10948 -15124871.03248  21995021.9144                   21995013.4884
        48.2504         49.2504
  -6564065.82746  -5094050.75443  24452138.4064                   24452126.2894
        37.5004         18.2504
 -22848150.82848 -17775564.42249  20960932.1174                   20960920.9964
        50.5004         54.5004
 -17937757.96647 -13003485.42047  21929177.8284                   21929169.8134
        45.5004         47.2504
  -9568087.11945  -7718765.12045  23530772.4144                   23530765.2194
        35.5004         34.0004
 -21575710.19448 -18459335.05549  21061128.7664                   21061119.7544
        53.0004         54.7504
 23  1 11  1 34 30.0000000  0 11G22G03G23G17G21G10G12G31G01G25G32
 -23708960.72948 -13504467.94147  20570244.1174                   20570233.1724
        50.0004         43.2504
  -5665997.90746  -4401137.64245  24685374.6254                   24685367.7234
        36.7504         33.5004
  -4932350.04455  -8329635.72253  25008760.3674                   25008754.0514
        33.5004         19.2504
   -584452.63145   -425006.57442  25855729.8914                   25855721.3484
        30.5004         14.7504
 -18392910.36348 -14032073.65446  22180497.4924                   22180485.9024
        48.5004         39.0004
 -19511266.28247 -15069002.63048  22008665.9454                   22008657.8714
        47.5004         49.0004
  -6575270.14546  -5102781.37843  24450005.6884                   24449994.0984
        39.0004         19.0004
 -22919750.41448 -17831356.30149  20947307.7034                   20947295.9384
        51.2504         54.7504
 -17979631.95647 -13036114.50347  21921209.4774                   21921201.5784
        46.0004         47.5004
  -9613923.15646  -7754481.51645  23522050.7584                   23522042.7424
        36.0004         34.5004
 -21534006.33248 -18426838.55549  21069065.1094                   21069055.8634
        52.0004         54.7504
 23  1 11  1 35  0.0000000  0 11G22G03G23G17G21G10G12G31G01G25G32
 -23715340.20848 -13509438.95847  20569029.8984                   20569019.0124
        50.0004         43.2504
  -5767123.90546  -4479937.08745  24666132.2504                   24666123.8834
        39.0004         34.0004
  -4831949.01545  -8251401.33143  25027864.8204                   25027860.0314
        31.7504         18.2504
   -599170.69645   -436475.13942  25852929.6414                   25852921.5084
        30.2504         13.7504
 -18386606.33948 -14027161.43446  22181697.3204                   22181685.2624
        48.0004         39.0004
 -19439251.24047 -15012887.05348  22022370.2274                   22022361.6844
        47.7504         49.0004
  -6585909.47146  -5111071.83843  24447979.6884                   24447970.2074
        36.7504         18.5004
 -22990837.01948 -17886748.45349  20933779.2584                   20933769.1334
        50.7504         54.7504
 -18020908.59547 -13068278.12547  21913354.5944                   21913346.7544
        45.2504         47.5004
  -9659276.11245  -7789821.46145  23513418.9924                   23513411.7974
        35.2504         34.0004
 -21492056.73748 -18394150.57849  21077047.5634                   21077038.3164
        52.0004         54.7504
 23  1 11  1 35 30.0000000  0 11G22G03G23G17G21G10G12G31G01G25G32
 -23721429.17348 -13514183.60747  20567871.3524                   20567860.4654
        48.7504         43.5004
  -5868239.05246  -4558728.11245  24646888.7114                   24646881.4574
        37.2504         33.5004
  -4731435.89845  -8173079.67342  25046994.1564                   25046986.8444
        33.0004         17.7504
   -613422.08645   -447580.11742  25850218.2344                   25850209.7504
        30.7504         14.7504
 -18379816.35248 -14021870.54546  22182988.8674                   22182977.2194
        48.7504         39.7504
 -19366920.56047 -14956525.51448  22036134.1644                   22036125.4454
        47.2504         49.0004
  -6595984.14346  -5118922.22643  24446062.6174                   24446053.6054
        36.0004         20.7504
 -23061409.66148 -17941740.11549  20920350.1644                   20920339.3954
        51.2504         54.7504
 -18061587.35347 -13099975.86347  21905613.8284                   21905605.8134
        44.7504         47.7504
  -9704144.53145  -7824783.87945  23504880.9454                   23504874.2774
        35.7504         34.2504
 -21449863.41848 -18361272.67449  21085076.7504                   21085068.0314
        52.0004         54.7504
 23  1 11  1 36  0.0000000  0 11G22G03G23G17G21G10G12G31G01G25G32
 -23727227.06048 -13518701.42947  20566768.2344                   20566757.1724
        49.5004         43.2504
  -5969340.96246  -4637508.77845  24627650.8054                   24627643.8444
        37.0004         34.2504
  -4630810.41845  -8094670.47843  25066143.2034                   25066135.5984
        34.7504         18.2504
   -627205.31044   -458320.26442  25847595.2274                   25847587.0944
        29.7504         13.7504
 -18372539.68248 -14016200.42646  22184373.8914                   22184362.4774
        48.5004         40.0004
 -19294273.74347 -14899917.64348  22049958.3524                   22049949.8674
        47.0004         48.5004
  -6605491.39046  -5126330.50243  24444253.3754                   24444245.1844
        37.0004         21.2504
 -23131464.90648 -17996328.60349  20907019.1954                   20907008.1334
        50.0004         54.7504
 -18101665.45547 -13131205.55147  21897987.5634                   21897979.3714
        45.5004         47.7504
  -9748524.68045  -7859365.80545  23496435.0554                   23496428.8554
        35.0004         34.0004
 -21407426.07948 -18328204.62649  21093152.4384                   21093143.3674
        51.7504         54.7504
 23  1 11  1 36 30.0000000  0 11G22G03G23G17G21G10G12G31G01G25G32
 -23732736.28148 -13522994.33447  20565719.2504                   20565708.5984
        48.7504         43.5004
  -6070429.96346  -4716279.40145  24608415.7894                   24608406.1914
        37.5004         33.7504
  -4530075.64345  -8016175.99843  25085311.9384                   25085304.7424
        32.5004         19.0004
   -640521.80545   -468696.78842  25845061.1954                   25845053.0044
        30.2504         14.7504
 -18364778.58448 -14010152.82146  22185850.4224                   22185838.9494
        48.7504         39.5004
 -19221313.33147 -14843065.39548  22063842.0944                   22063833.7854
        46.2504         48.5004
  -6614432.74546  -5133297.76843  24442553.6644                   24442543.8324
        37.2504         20.7504
 -23201002.53148 -18050513.75649  20893786.4534                   20893775.7424
        50.5004         54.7504
 -18141143.20847 -13161967.44348  21890475.4534                   21890466.6764
        44.5004         48.0004
  -9792416.16745  -7893566.95545  23488081.7894                   23488075.8244
        35.0004         33.0004
 -21364747.50348 -18294948.60749  21101273.4614                   21101265.0354
        51.2504         55.0004
 23  1 11  1 37  0.0000000  0 11G22G03G23G17G21G10G12G31G01G25G32
 -23737954.49248 -13527060.47747  20564726.6414                   20564715.3444
        49.0004         43.5004
  -6171501.96645  -4795036.76645  24589180.7424                   24589172.7274
        35.0004         33.2504
  -4429229.65945  -7937594.97843  25104502.8134                   25104495.6174
        33.5004         19.2504
   -653368.42244   -478707.03442  25842616.6254                   25842609.3714
        29.7504         13.7504
 -18356530.71848 -14003725.92246  22187419.9454                   22187408.6484
        48.5004         39.5004
 -19148036.75647 -14785966.81048  22077786.0864                   22077778.0124
        46.7504         48.2504
  -6622804.16746  -5139820.93243  24440959.9774                   24440949.7934
        36.2504         21.2504
 -23270017.62648 -18104291.74449  20880653.3524                   20880642.4654
        50.5004         55.0004
 -18180016.24047 -13192258.12848  21883077.3134                   21883070.0594
        44.5004         48.0004
  -9835813.58145  -7927383.10945  23479824.6644                   23479817.4104
        35.5004         33.5004
 -21321825.79648 -18261503.13149  21109441.6724                   21109432.6604
        51.2504         54.7504
 23  1 11  1 37 30.0000000  0 11G22G03G23G17G21G10G12G31G01G25G32
 -23742886.07948 -13530903.27147  20563787.9454                   20563777.2344
        49.5004         43.5004
  -6272558.92246  -4873782.44545  24569951.2664                   24569943.1334
        38.5004         34.5004
  -4328277.11345  -7858930.80543  25123711.8914                   25123706.2774
        31.7504         18.5004
   -665748.807 5                  25840259.461
        31.000
 -18347799.47948 -13996922.37346  22189081.6884                   22189070.3324
        48.0004         39.5004
 -19074448.31547 -14728625.20048  22091789.9304                   22091781.4454
        47.2504         48.2504
  -6630608.20846  -5145902.02743  24439475.2734                   24439465.2664
        37.2504         21.5004
 -23338511.79448 -18157663.80549  20867619.1024                   20867608.4494
        50.0004         54.7504
 -18218286.57447 -13222079.16348  21875794.8834                   21875786.9264
        44.2504         48.0004
  -9878718.07946  -7960815.18345  23471660.1884                   23471653.4024
        37.2504         34.7504
 -21278665.35348 -18227871.62549  21117654.7344                   21117646.0744
        51.0004         55.0004
 23  1 11  1 38  0.0000000  0 11G22G03G23G17G21G10G12G31G01G25G32
 -23747529.67048 -13534521.65947  20562904.3284                   20562893.7934
        48.7504         43.5004
  -6373597.50045  -4952513.76645  24550722.9774                   24550715.4304
        35.7504         33.5004
  -4227216.97745  -7780182.95243  25142943.9064                   25142938.7034
        34.5004         18.5004
   -677660.918 5                  25837993.984
        31.000
 -18338583.29048 -13989740.93446  22190835.1884                   22190823.8914
        48.5004         39.5004
 -19000546.57747 -14671039.46648  22105852.9384                   22105844.3954
        47.0004         48.2504
  -6637842.03046  -5151538.78843  24438098.5084                   24438089.1454
        37.5004         21.2504
 -23406480.98448 -18210626.80149  20854685.4384                   20854674.2584
        49.5004         55.0004
 -18255950.77147 -13251427.89448  21868627.6884                   21868619.6134
        44.0004         48.0004
  -9921125.26946  -7993859.75845  23463590.9774                   23463583.8404
        37.0004         34.7504
 -21235265.17048 -18194053.31249  21125913.2194                   21125904.7344
        50.0004         54.7504
 23  1 11  1 38 30.0000000  0 11G22G03G23G17G21G10G12G31G01G25G32
 -23751886.02248 -13537916.21647  20562075.7274                   20562064.4884
        48.0004         43.7504
  -6474616.49146  -5031229.83045  24531501.2114                   24531492.0824
        38.2504         35.0004
  -4126050.64245  -7701352.27343  25162196.5554                   25162190.0634
        33.0004         18.2504
   -689104.395 5                  25835816.563
        31.500
 -18328882.92547 -13982182.21546  22192681.1484                   22192669.7344
        47.7504         39.5004
 -18926332.66647 -14613210.47648  22119975.5704                   22119966.9694
        46.5004         48.0004
  -6644504.64545  -5156730.45643  24436830.1644                   24436820.2734
        35.5004         20.5004
 -23473923.29948 -18263179.25149  20841851.2814                   20841840.2194
        50.0004         54.7504
 -18293007.59347 -13280303.33848  21861575.7194                   21861567.7034
        44.0004         48.0004
  -9963033.02046  -8026515.15445  23455615.8674                   23455609.3754
        37.5004         34.7504
 -21191626.37448 -18160049.06249  21134217.4384                   21134208.6604
        50.5004         55.0004
 23  1 11  1 39  0.0000000  0 11G22G03G23G17G21G10G12G31G01G25G32
 -23755955.70548 -13541087.38947  20561300.9454                   20561289.7664
        48.2504         43.7504
  -6575614.48146  -5109929.54145  24512280.7344                   24512273.3634
        37.7504         34.2504
  -4024778.98545  -7622439.45943  25181466.5474                   25181460.9344
        33.0004         18.5004
   -700079.361 5                  25833727.859
        30.750
 -18318698.53348 -13974246.33946  22194619.6174                   22194607.9694
        48.2504         39.5004
 -18851807.01747 -14555138.58147  22134157.1024                   22134148.4414
        47.0004         47.7504
  -6650595.87646  -5161476.91243  24435671.9304                   24435660.9844
        36.2504         21.0004
 -23540836.72848 -18315319.57149  20829118.3054                   20829107.3014
        50.0004         54.7504
 -18329455.64547 -13308704.41748  21854640.0314                   21854632.1334
        44.0004         48.0004
 -10004439.11546  -8058779.61245  23447736.1884                   23447730.5164
        37.5004         34.5004
 -21147749.89448 -18125859.60449  21142566.8674                   21142558.0904
        50.5004         54.7504
 23  1 11  1 39 30.0000000  0 11G22G03G23G17G21G10G12G31G01G25G32
 -23759739.40748 -13544035.73647  20560581.2974                   20560570.0594
        48.0004         43.7504
  -6676589.75146  -5188611.53545  24493067.1804                   24493057.8754
        39.2504         34.2504
  -3923403.02646  -7543445.56943  25200761.2584                   25200752.7154
        37.7504         18.2504
   -710585.548 5                  25831728.063
        30.500
 -18308030.47147 -13965933.57046  22196649.6484                   22196637.9414
        47.5004         39.7504
 -18776970.03147 -14496824.08747  22148398.5634                   22148389.9614
        46.2504         47.7504
  -6656114.29846  -5165777.00343  24434621.9614                   24434610.5474
        37.0004         20.5004
 -23607219.18248 -18367046.16249  20816486.4454                   20816475.2664
        50.7504         55.0004
 -18365293.24747 -13336629.82648  21847820.6804                   21847813.0744
        43.7504         48.0004
 -10045340.86046  -8090651.10645  23439953.4774                   23439945.8134
        38.2504         34.7504
 -21103636.41348 -18091485.47949  21150961.3594                   21150952.8754
        50.0004         54.7504
 23  1 11  1 40  0.0000000  0 11G22G03G23G17G21G10G12G31G01G25G32
 -23763238.19048 -13546762.06747  20559915.3134                   20559904.0164
        48.2504         43.7504
  -6777541.53646  -5267275.24945  24473855.9534                   24473847.4104
        37.2504         34.7504
  -3821924.47645  -7464371.55443  25220069.5784                   25220063.3794
        34.0004         19.0004
   -720623.50715                  25829818.594
        30.500
 -18296879.82648 -13957244.77046  22198771.1564                   22198760.2704
        48.5004         39.5004
 -18701823.36847 -14438268.28147  22162697.9774                   22162689.7854
        47.0004         47.7504
  -6661059.75446  -5169630.60243  24433680.6174                   24433669.3794
        38.2504         21.5004
 -23673069.47948 -18418358.06649  20803955.1024                   20803944.2734
        49.0004         55.0004
 -18400519.73847 -13364079.05248  21841116.7034                   21841109.5084
        43.7504         48.0004
 -10085736.75046  -8122128.41445  23432266.2114                   23432258.6644
        37.7504         34.5004
 -21059287.53648 -18056927.92649  21159401.0084                   21159392.4064
        50.5004         55.0004
 23  1 11  1 40 30.0000000  0 11G22G03G23G17G21G10G12G31G01G25G32
 -23766451.35647 -13549265.82447  20559303.7664                   20559292.7624
        47.7504         43.7504
  -6878467.32946  -5345918.68445  24454650.3914                   24454642.6684
        38.7504         35.0004
  -3720343.29545  -7385217.61343  25239400.6484                   25239393.9224
        35.0004         18.2504
   -730191.98815                  25827997.875
        31.000
 -18285245.60848 -13948179.15846  22200985.1954                   22200974.6604
        48.5004         39.5004
 -18626366.13147 -14379470.47947  22177056.9844                   22177048.9104
        46.2504         47.5004
  -6665429.78646  -5173035.82243  24432849.0944                   24432838.3244
        37.5004         22.0004
 -23738384.36348 -18469252.77549  20791526.8444                   20791515.1954
        50.5004         55.0004
 -18435132.58247 -13391050.09847  21834529.7814                   21834522.5864
        42.7504         47.7504
 -10125623.24246  -8153208.79245  23424675.7034                   23424669.0354
        37.5004         34.5004
 -21014702.99248 -18022186.73149  21167885.3204                   21167876.3674
        50.5004         54.7504
 23  1 11  1 41  0.0000000  0 11G22G03G23G17G21G10G12G31G01G25G32
 -23769380.76847 -13551548.49447  20558746.4224                   20558735.0084
        47.7504         44.0004
  -6979366.74346  -5424541.58645  24435449.4924                   24435441.0664
        38.0004         34.0004
  -3618661.74145  -7305985.39743  25258750.3594                   25258743.6914
        35.5004         18.2504
   -739292.178 5                  25826265.938
        32.000
 -18273129.93647 -13938738.38846  22203290.3834                   22203279.7304
        47.7504         39.5004
 -18550600.49647 -14320432.37047  22191474.7034                   22191466.3364
        45.5004         47.5004
  -6669225.60546  -5175993.66243  24432127.1024                   24432116.9184
        37.5004         22.0004
 -23803163.16448 -18519729.75949  20779199.2894                   20779188.2854
        49.0004         54.7504
 -18469131.80947 -13417543.01448  21828060.5704                   21828052.9064
        43.5004         48.0004
 -10164999.42146  -8183891.50845  23417182.1564                   23417176.1334
        37.2504         34.5004
 -20969884.97448 -17987263.61349  21176413.4534                   21176404.7934
        49.0004         54.7504
 23  1 11  1 41 30.0000000  0 11G22G03G23G17G21G10G12G31G01G25G32
 -23772026.27448 -13553609.92147  20558243.1954                   20558231.9574
        49.5004         44.0004
  -7080237.28546  -5503141.98045  24416254.0944                   24416246.4884
        36.5004         33.7504
  -3516879.68446  -7226675.06442  25278119.1564                   25278112.3134
        36.0004         17.2504
   -747922.591 5                  25824623.578
        32.500
 -18260532.20647 -13928921.98846  22205687.8984                   22205676.6024
        47.2504         39.2504
 -18474526.06347 -14261153.62847  22205951.2894                   22205942.9224
        45.7504         47.2504
  -6672445.34346  -5178502.55643  24431514.2664                   24431503.4964
        36.5004         20.2504
 -23867402.75948 -18569786.56449  20766974.5004                   20766964.0234
        49.0004         54.7504
 -18502514.84047 -13443555.77348  21821707.7734                   21821700.6374
        43.5004         48.0004
 -10203861.89646  -8214173.95445  23409787.2424                   23409780.7504
        37.0004         34.5004
 -20924833.21448 -17952158.36149  21184986.6024                   21184977.7074
        49.5004         55.0004
 23  1 11  1 42  0.0000000  0 11G22G03G23G17G21G10G12G31G01G25G32
 -23774390.31948 -13555452.03647  20557793.1414                   20557782.0784
        48.2504         44.0004
  -7181079.09746  -5581719.99345  24397065.2114                   24397057.6054
        37.0004         35.5004
  -3415000.05645  -7147288.50942  25297506.4774                   25297499.5164
        34.5004         17.7504
   -756085.434 5                  25823070.359
        33.250
 -18247454.12047 -13918731.28946  22208176.2424                   22208165.4144
        46.7504         39.7504
 -18398144.90947 -14201635.89147  22220486.1484                   22220478.0744
        45.7504         47.2504
  -6675089.80446  -5180563.22843  24431011.3834                   24431000.4964
        37.2504         21.5004
 -23931103.16248 -18619423.22949  20754854.1644                   20754841.9304
        50.2504         54.7504
 -18535282.16447 -13469088.76048  21815472.7974                   21815464.7234
        44.5004         48.0004
 -10242210.08746  -8244055.64845  23402489.6414                   23402482.9734
        36.0004         34.0004
 -20879550.31448 -17916873.00649  21193603.5784                   21193594.8594
        49.5004         54.7504
 23  1 11  1 42 30.0000000  0 11G22G03G23G17G21G10G12G31G01G25G32
 -23776472.19848 -13557074.28247  20557397.1804                   20557385.7074
        48.0004         44.5004
  -7281889.64546  -5660273.64645  24377880.8754                   24377872.6844
        36.5004         33.7504
  -3313022.68045  -7067825.85643  25316910.8754                   25316905.4964
        33.5004         18.2504
   -763779.627 5                  25821605.938
        34.250
 -18233895.53347 -13908166.16246  22210756.5394                   22210745.4184
        47.0004         39.2504
 -18321456.88847 -14141879.03447  22235079.4774                   22235071.5784
        45.5004         47.2504
  -6677157.09146  -5182174.13043  24430617.6884                   24430608.3834
        38.5004         21.7504
 -23994261.34148 -18668637.40349  20742834.3594                   20742823.4144
        49.2504         55.0004
 -18567431.45147 -13494140.16648  21809355.0314                   21809347.2504
        43.2504         48.2504
 -10280040.73746  -8273534.06545  23395290.9924                   23395284.2664
        38.2504         34.7504
 -20834036.12748 -17881407.40949  21202264.7894                   21202256.3634
        50.0004         54.7504
 23  1 11  1 43  0.0000000  0 11G22G03G23G17G21G10G12G31G01G25G32
 -23778272.09148 -13558476.79647  20557054.4064                   20557043.4024
        48.2504         44.2504
  -7382667.07046  -5738801.48345  24358704.0634                   24358696.0474
        37.7504         35.5004
  -3210948.40045  -6988287.70843  25336337.0234                   25336330.0634
        35.5004         18.5004
   -771004.658 5                  25820231.508
        34.000
 -18219856.17947 -13897226.42046  22213428.7194                   22213416.9534
        46.2504         39.0004
 -18244462.18747 -14081883.22747  22249731.2734                   22249723.1994
        46.0004         47.0004
  -6678646.56146  -5183334.81743  24430333.1024                   24430323.5044
        36.0004         20.2504
 -24056875.01948 -18717427.24449  20730919.0864                   20730908.4344
        49.2504         54.7504
 -18598961.12447 -13518708.74748  21803354.5314                   21803347.6294
        43.0004         48.0004
 -10317351.37446  -8302607.29445  23388192.0314                   23388184.8954
        38.2504         34.7504
 -20788291.18048 -17845762.01449  21210969.6644                   21210961.0634
        49.7504         54.7504
 23  1 11  1 43 30.0000000  0 11G22G03G23G17G21G10G12G31G01G25G32
 -23779791.77748 -13559660.96747  20556765.3834                   20556753.9694
        48.5004         44.2504
  -7483411.00745  -5817303.22745  24339532.2274                   24339525.0314
        35.5004         34.2504
  -3108779.50745  -6908675.66942  25355779.4454                   25355772.6024
        35.5004         16.7504
   -777761.912 5                  25818944.867
        33.750
 -18205338.22747 -13885913.74246  22216191.2114                   22216179.5634
        47.2504         39.5004
 -18167162.88847 -14021650.05047  22264441.0394                   22264432.5554
        46.0004         47.0004
  -6679558.34746  -5184045.30743  24430161.4384                   24430149.9064
        37.5004         20.0004
 -24118943.70048 -18765792.46249  20719109.3984                   20719096.7544
        51.5004         55.0004
 -18629871.15647 -13542794.48548  21797472.5634                   21797465.0744
        42.7504         48.2504
 -10354140.96046  -8331274.48545  23381190.9534                   23381184.1684
        37.5004         35.0004
 -20742317.52648 -17809938.40649  21219718.2504                   21219709.7074
        49.5004         54.7504
 23  1 11  1 44  0.0000000  0 11G22G03G23G17G21G10G12G31G01G25G32
 -23781031.56648 -13560627.04147  20556529.1334                   20556518.4804
        49.2504         44.5004
  -7584119.36746  -5895777.23645  24320368.5864                   24320360.5704
        36.0004         34.2504
  -3006516.16645  -6828990.29142  25375236.9064                   25375233.0554
        31.7504         17.7504
   -784050.968 5                  25817748.477
        35.250
 -18190341.49947 -13874227.99446  22219044.9774                   22219033.9734
        47.0004         39.7504
 -18089559.17347 -13961179.65847  22279208.3134                   22279200.5314
        45.2504         47.0004
  -6679891.51746  -5184304.98243  24430097.3524                   24430087.4024
        37.5004         20.7504
 -24180464.66848 -18813730.87549  20707400.1564                   20707390.0904
        49.0004         54.7504
 -18660159.73047 -13566395.97448  21791709.6804                   21791701.3134
        45.0004         48.5004
 -10390406.68946  -8359533.48945  23374289.6414                   23374282.5044
        37.7504         34.7504
 -20696115.45648 -17773936.80649  21228510.3204                   21228501.9534
        49.0004         55.0004
 23  1 11  1 44 30.0000000  0 11G22G03G23G17G21G10G12G31G01G25G32
 -23781992.03748 -13561375.46047  20556346.5474                   20556335.1914
        49.5004         44.2504
  -7684790.55345  -5974222.32145  24301211.6414                   24301203.8014
        35.0004         34.5004
  -2904160.06546  -6763406.59353  25394717.2424                   25394709.4024
        36.0004         20.5004
   -789871.468 5                  25816640.297
        34.500
 -18174866.43847 -13862169.52146  22221989.8364                   22221978.3634
        47.5004         39.2504
 -18011651.74847 -13900472.62747  22294033.6724                   22294025.9494
        45.0004         46.7504
  -6679645.39746  -5184113.19343  24430144.9534                   24430132.7194
        38.0004         20.2504
 -24241436.65848 -18861241.48449  20695798.8914                   20695787.7704
        51.2504         55.0004
 -18689825.80547 -13589512.41448  21786064.5394                   21786055.9384
        44.7504         48.5004
 -10426146.68946  -8387382.84545  23367488.8524                   23367481.0124
        38.0004         34.7504
 -20649685.93548 -17737757.96449  21237345.7114                   21237336.9344
        50.5004         54.7504
 23  1 11  1 45  0.0000000  0 11G22G03G23G17G21G10G12G31G01G25G32
 -23782673.54348 -13561906.51847  20556217.0234                   20556205.7854
        49.5004         44.5004
  -7785422.97445  -6052637.14245  24282061.5084                   24282054.1954
        35.2504         35.0004
  -2801711.53955  -6697759.90953  25414211.0314                   25414206.5354
        34.0004         20.0004
   -795223.289 5                  25815622.758
        34.500
 -18158913.30347 -13849738.52246  22225025.4384                   22225014.0824
        47.7504         39.0004
 -17933440.94247 -13839529.19547  22308916.6564                   22308908.2894
        45.5004         46.5004
  -6678819.50846  -5183469.65243  24430303.1024                   24430290.9264
        38.2504         22.0004
 -24301857.20048 -18908322.44049  20684301.4614                   20684289.9304
        50.5004         55.0004
 -18718867.94447 -13612142.66048  21780537.0394                   21780529.6684
        43.2504         48.5004
 -10461358.42846  -8414820.57545  23360787.9844                   23360781.0824
        37.0004         35.2504
 -20603029.55148 -17701402.35549  21246224.2194                   21246215.4414
        50.5004         55.0004
 23  1 11  1 45 30.0000000  0 11G22G03G23G17G21G10G12G31G01G25G32
 -23783075.53648 -13562219.76347  20556140.6414                   20556129.4024
        48.0004         44.5004
  -7886013.83145  -6131019.60345  24262920.1024                   24262911.3244
        35.0004         34.5004
                                  25433720.8444                   25433722.6174
        28.2504         20.5004
   -800106.077 5                  25814693.117
        34.750
 -18142482.33447 -13836935.18446  22228152.2894                   22228140.6994
        47.7504         39.0004
 -17854926.72747 -13778349.33447  22323857.8834                   22323849.3404
        45.7504         46.5004
  -6677412.16446  -5182373.08043  24430569.0474                   24430559.5084
        36.5004         21.5004
 -24361723.87648 -18954971.77049  20672907.8364                   20672897.0664
        49.2504         54.7504
 -18747283.98747 -13634285.02348  21775129.1724                   21775122.7384
        43.5004         48.5004
 -10496038.86846  -8441844.27745  23354186.9774                   23354182.1294
        36.0004         35.0004
 -20556146.09048 -17664869.80549  21255145.8674                   21255137.0314
        51.2504         54.7504
 23  1 11  1 46  0.0000000  0 11G22G03G23G17G21G10G12G31G01G25G32
 -23783200.79148 -13562317.36347  20556116.6414                   20556105.4024
        48.0004         44.5004
  -7986563.70745  -6209370.15145  24243785.6954                   24243778.2664
        34.7504         34.0004
                                  25453257.133
        38.000
   -804521.689 5                  25813853.359
        34.500
 -18125575.58747 -13823761.10346  22231369.5084                   22231358.2704
        47.2504         39.0004
 -17776111.64547 -13716935.02047  22338855.2424                   22338847.5784
        45.0004         46.2504
  -6675424.23346  -5180824.05143  24430946.9924                   24430935.9884
        36.7504         19.5004
 -24421036.85348 -19001189.65649  20661622.3204                   20661610.7894
        50.7504         54.7504
 -18775074.95547 -13655940.32148  21769841.5554                   21769833.6564
        43.7504         48.7504
 -10530187.98446  -8468453.95745  23347689.1414                   23347683.1764
        36.5004         34.7504
 -20509038.58348 -17628162.67649  21264110.1564                   21264100.9104
        51.0004         54.7504
 23  1 11  1 46 30.0000000  0 11G22G03G23G17G21G10G12G31G01G25G32
 -23783049.88748 -13562199.78947  20556145.5084                   20556134.1524
        48.7504         44.5004
  -8087070.99845  -6287687.51145  24224660.2584                   24224652.2424
        35.0004         34.0004
                                  25472802.375
        36.500
   -808470.338 5                  25813102.039
        33.750
 -18108193.68348 -13810216.77346  22234677.7734                   22234666.1844
        48.5004         39.2504
 -17696996.99447 -13655287.29647  22353910.7894                   22353902.6564
        45.5004         46.2504
  -6672856.27846  -5178823.04243  24431436.4144                   24431425.3524
        37.0004         20.2504
 -24479794.28948 -19046974.67849  20650440.6564                   20650429.7114
        49.7504         54.7504
 -18802239.73047 -13677107.69648  21764672.7664                   21764664.7504
        44.2504         49.0004
 -10563803.68846  -8494648.03545  23341293.5704                   23341286.5514
        37.0004         35.5004
 -20461707.78048 -17591281.55249  21273116.4774                   21273107.8754
        50.7504         54.7504
 23  1 11  1 47  0.0000000  0 11G22G03G23G17G21G10G12G31G01G25G32
 -23782621.56347 -13561866.03047  20556226.8284                   20556215.7664
        47.5004         44.2504
  -8187532.15945  -6365968.89845  24205541.9064                   24205534.7114
        33.2504         34.5004
                                  25492361.547
        30.250
   -811950.215 5                  25812439.414
        35.000
 -18090335.22247 -13796301.09646  22238075.6644                   22238064.3674
        47.5004         39.0004
 -17617581.02247 -13593404.76747  22369022.6564                   22369014.9924
        45.5004         45.7504
  -6669705.36846  -5176367.81043  24432036.3054                   24432024.5394
        39.0004         21.5004
 -24537992.77848 -19092324.11549  20639364.9384                   20639354.6954
        48.0004         55.0004
 -18828775.29447 -13697784.77248  21759622.6884                   21759615.2584
        44.2504         49.0004
 -10596881.91046  -8520423.27345  23334998.1804                   23334991.5704
        37.2504         34.7504
 -20414152.55148 -17554225.54549  21282166.4384                   21282157.3674
        51.5004         54.7504
 23  1 11  1 47 30.0000000  0 11G22G03G23G17G21G10G12G31G01G25G32
 -23781919.49747 -13561318.96947  20556360.2894                   20556348.9924
        47.5004         44.5004
  -8287948.66745  -6444215.50645  24186434.9774                   24186426.7274
        35.7504         34.5004
  -2288122.144 5                  25511943.234
        32.500
   -814964.538 5                  25811866.328
        33.500
 -18072004.26547 -13782017.24446  22241564.0004                   22241552.5274
        47.0004         39.0004
 -17537867.86147 -13531290.65847  22384191.8364                   22384183.9964
        44.5004         45.5004
  -6665974.23846  -5173460.45543  24432746.0314                   24432734.2664
        37.0004         19.5004
 -24595633.55648 -19137239.01449  20628397.6334                   20628385.6914
        49.5004         54.7504
 -18854683.77047 -13717973.19648  21754691.5474                   21754684.9384
        43.5004         49.0004
 -10629423.92146  -8545780.68145  23328806.1174                   23328799.3324
        36.7504         35.0004
 -20366376.88648 -17516997.77349  21291257.5784                   21291248.9774
        51.0004         54.7504
 23  1 11  1 48  0.0000000  0 11G22G03G23G17G21G10G12G31G01G25G32
 -23780941.40548 -13560556.82747  20556546.2664                   20556535.2624
        48.7504         44.2504
  -8388315.84845  -6522423.68945  24167334.8984                   24167327.0004
        35.0004         34.0004
  -2185143.97516                  25531542.719
        36.250
   -817510.597 5                  25811382.125
        33.000
 -18053199.55147 -13767364.23446  22245142.0944                   22245130.9734
        46.2504         38.7504
 -17457855.31247 -13468943.26947  22399418.0634                   22399410.0474
        44.2504         45.5004
  -6661659.34546  -5170098.20843  24433566.2974                   24433555.5864
        36.7504         20.5004
 -24652711.95348 -19181715.68449  20617534.9614                   20617524.5434
        49.2504         55.0004
 -18879961.17447 -13737669.86948  21749881.5394                   21749874.6374
        44.5004         49.0004
 -10661424.60946  -8570716.29445  23322717.0004                   23322709.2194
        36.7504         35.0004
 -20318378.65048 -17479596.56649  21300391.8134                   21300382.9774
        50.5004         55.0004
 23  1 11  1 48 30.0000000  0 10G22G03G17G21G10G12G31G01G25G32
 -23779691.09147 -13559582.56847  20556784.3134                   20556773.2504
        47.0004         44.2504
  -8488635.35845  -6600594.70945  24148244.7974                   24148236.5474
        35.2504         34.2504
   -819591.715 5                  25810985.805
        32.500
 -18033922.89747 -13752343.48146  22248810.3054                   22248799.2424
        46.7504         38.5004
 -17377547.01347 -13406365.42347  22414700.3284                   22414692.1954
        45.0004         45.2504
  -6656763.60245  -5166283.33143  24434497.5004                   24434486.7894
        35.2504         19.0004
 -24709229.50348 -19225755.30149  20606779.7894                   20606769.3714
        48.0004         54.7504
 -18904609.65447 -13756876.47548  21745192.0784                   21745184.5314
        44.0004         49.2504
 -10692885.18946  -8595231.04745  23316729.6724                   23316722.0084
        36.7504         35.5004
 -20270161.79348 -17442025.01149  21309567.0234                   21309558.1884
        51.2504         54.7504
 23  1 11  1 49  0.0000000  0 11G22G03G23G17G21G10G12G31G01G25G32
 -23778164.64847 -13558393.13447  20557075.2194                   20557064.0394
        47.2504         44.2504
  -8588901.07145  -6678723.81945  24129164.3754                   24129157.0634
        35.0004         35.0004
                                  25570782.8754                   25570776.0904
        36.5004         18.2504
   -821203.826 5                  25810678.609
        32.000
 -18014171.38847 -13736952.70746  22252568.6954                   22252557.6914
        47.0004         38.7504
 -17296939.80447 -13343554.64947  22430039.1484                   22430031.0744
        45.5004         45.5004
  -6651281.58546  -5162011.67543  24435541.0784                   24435530.8364
        36.5004         20.0004
 -24765180.29248 -19269353.32049  20596134.0084                   20596121.8914
        49.5004         55.0004
 -18928623.86847 -13775588.85948  21740622.4844                   21740614.8794
        44.5004         49.5004
 -10723799.32746  -8619320.00545  23310846.1024                   23310839.1414
        36.5004         34.7504
 -20221722.73748 -17404280.30949  21318784.3054                   21318775.8794
        51.2504         54.7504
 23  1 11  1 49 30.0000000  0 11G22G03G23G17G21G10G12G31G01G25G32
 -23776366.34147 -13556991.86847  20557417.1094                   20557405.8714
        47.0004         44.2504
  -8689115.27946  -6756812.78845  24110096.2664                   24110086.6094
        36.0004         35.2504
                                  25590427.461
        37.250
   -822351.142 5                  25810460.539
        32.000
 -17993950.62447 -13721196.28446  22256416.9924                   22256405.6954
        45.7504         39.0004
 -17216037.89547 -13280514.26147  22445434.7894                   22445426.3634
        44.7504         45.2504
  -6645217.77445  -5157286.67143  24436694.6024                   24436685.8834
        35.7504         19.2504
 -24820566.58748 -19312511.48049  20585593.2584                   20585582.1374
        49.7504         54.7504
 -18952006.83147 -13793809.37048  21736172.6484                   21736164.6914
        44.7504         49.5004
 -10754168.97245  -8642984.67445  23305066.7814                   23305059.9384
        35.7504         34.5004
 -20173066.20748 -17366366.15849  21328043.5394                   21328034.8794
        50.0004         55.0004
 23  1 11  1 50  0.0000000  0 11G22G03G23G17G21G10G12G31G01G25G32
 -23774295.36348 -13555378.12247  20557811.1484                   20557800.0864
        48.2504         44.2504
  -8789274.78846  -6834859.16045  24091034.4454                   24091026.7814
        36.2504         34.7504
    171267.15345  -6230547.88452  25610083.5554                   25610079.1174
        31.0004         15.5004
   -823032.440 5                  25810331.102
        32.250
 -17973258.63047 -13705072.65846  22260354.8134                   22260343.3404
        46.2504         38.2504
 -17134841.02647 -13217244.01147  22460886.0004                   22460877.2814
        45.5004         45.0004
  -6638570.42946  -5152106.89443  24437960.1024                   24437950.3284
        37.0004         18.5004
 -24875385.32148 -19355227.34849  20575161.7504                   20575150.9224
        49.5004         55.0004
 -18974756.12747 -13811536.09948  21731843.4614                   21731835.8554
        45.2504         49.5004
 -10783990.78246  -8666222.44945  23299392.4534                   23299385.3754
        37.5004         35.2504
 -20124191.55648 -17328282.03049  21337344.3134                   21337335.5354
        51.0004         54.7504
 23  1 11  1 50 30.0000000  0 10G22G03G17G21G10G12G31G01G25G32
 -23771953.54247 -13553553.33547  20558256.9384                   20558245.8754
        47.5004         44.5004
  -8889378.91246  -6912862.33045  24071985.6564                   24071978.1684
        36.5004         34.5004
   -823248.673 5                  25810290.070
        32.000
 -17952097.73947 -13688583.66346  22264381.7344                   22264370.1454
        46.2504         38.5004
 -17053351.06847 -13153745.39047  22476392.5784                   22476384.7384
        44.5004         45.0004
  -6631339.69846  -5146472.57143  24439336.7584                   24439326.1644
        37.0004         21.5004
 -24929635.93948 -19397500.56949  20564838.8054                   20564827.6844
        50.5004         55.0004
 -18996871.80747 -13828769.10248  21727634.6174                   21727627.5394
        45.0004         49.2504
 -10813263.77746  -8689032.59645  23293822.5864                   23293815.4494
        37.5004         35.2504
 -20075100.49348 -17290029.27149  21346685.8444                   21346677.1254
        51.5004         54.7504
 23  1 11  1 51  0.0000000  0 10G22G03G17G21G10G12G31G01G25G32
 -23769340.49348 -13551517.19347  20558754.3134                   20558743.0744
        48.0004         44.0004
  -8989425.21846  -6990820.49045  24052947.4694                   24052939.5124
        36.7504         35.5004
   -822999.967 5                  25810337.078
        31.750
 -17930467.90147 -13671729.25946  22268497.3914                   22268485.8594
        46.0004         38.0004
 -16971567.80047 -13090018.23747  22491955.3834                   22491947.3094
        44.5004         44.7504
  -6623524.63846  -5140382.95843  24440824.2814                   24440813.7464
        38.0004         19.2504
 -24983316.00848 -19439329.18649  20554623.2664                   20554612.4964
        50.5004         54.7504
 -19018352.36947 -13845507.19848  21723547.0394                   21723539.7274
        45.2504         49.5004
 -10841985.28746  -8711413.00345  23288357.1644                   23288349.9104
        37.7504         35.5004
 -20025793.09248 -17251607.93549  21356068.9844                   21356060.4414
        51.7504         55.2504
 23  1 11  1 51 30.0000000  0 10G22G03G17G21G10G12G31G01G25G32
 -23766456.93148 -13549270.27147  20559303.1174                   20559291.8204
        48.5004         44.2504
  -9089411.87746  -7068732.14645  24033919.8914                   24033912.7544
        37.0004         35.7504
   -822285.880 5                  25810473.359
        33.500
 -17908369.64847 -13654509.85146  22272702.3284                   22272691.1484
        45.5004         38.0004
 -16889491.70647 -13026062.88747  22507574.1724                   22507565.9224
        46.2504         44.7504
  -6615125.02146  -5133837.75143  24442421.9384                   24442410.9344
        36.5004         18.2504
 -25036424.04548 -19480712.05749  20544517.2274                   20544505.9304
        49.2504         54.7504
 -19039196.73347 -13861749.56348  21719581.1174                   21719573.4534
        45.2504         49.7504
 -10870153.34546  -8733362.15245  23282996.2894                   23282989.6214
        37.7504         35.0004
 -19976270.01448 -17213018.55749  21365492.9384                   21365484.1604
        52.5004         54.7504
 23  1 11  1 52  0.0000000  0 10G22G03G17G21G10G12G31G01G25G32
 -23763303.62848 -13546813.15447  20559902.8754                   20559891.7544
        48.2504         44.0004
  -9189337.65946  -7146596.38246  24014905.2424                   24014897.6954
        37.7504         36.5004
   -821107.436 5                  25810697.664
        32.000
 -17885804.86547 -13636926.91446  22276995.9924                   22276985.2814
        46.5004         38.0004
 -16807124.62147 -12961880.79347  22523247.9454                   22523239.7544
        45.0004         44.5004
  -6606140.77446  -5126837.05643  24444130.8834                   24444120.8754
        36.7504         19.0004
 -25088958.79848 -19521648.23049  20534520.2034                   20534509.1994
        50.7504         55.0004
 -19059404.65147 -13877495.99648  21715735.9144                   21715727.8984
        46.7504         50.0004
 -10897766.69446  -8754879.06545  23277743.2114                   23277734.7854
        38.5004         35.2504
 -19926532.55448 -17174262.11749  21374957.3674                   21374949.0004
        51.5004         54.7504
 23  1 11  1 52 30.0000000  0 10G22G03G17G21G10G12G31G01G25G32
 -23759881.57747 -13544146.61847  20560553.8444                   20560542.8404
        46.5004         44.0004
  -9289201.01346  -7224411.94045  23995901.5554                   23995893.7734
        37.5004         35.0004
   -819465.516 5                  25811009.547
        33.500
 -17862773.51747 -13618980.42446  22281378.9384                   22281367.9344
        46.5004         38.0004
 -16724467.28047 -12897472.53047  22538977.2584                   22538968.9494
        44.5004         44.2504
  -6596572.06845  -5119380.93543  24445952.0864                   24445941.7854
        35.5004         18.5004
 -25140919.10848 -19562136.79349  20524632.6254                   20524621.3874
        49.5004         55.0004
 -19078975.48047 -13892746.00748  21712011.4924                   21712003.8874
        45.0004         50.0004
 -10924823.60846  -8775962.39045  23272592.9384                   23272585.8594
        38.0004         35.5004
 -19876581.62048 -17135339.33249  21384462.6484                   21384454.2234
        52.0004         54.7504
 23  1 11  1 53  0.0000000  0 10G22G03G17G21G10G12G31G01G25G32
 -23756191.03447 -13541270.87647  20561256.1564                   20561245.2704
        47.5004         43.7504
  -9389000.00846  -7302177.40146  23976910.7664                   23976903.4534
        38.2504         36.2504
   -817359.90745   -204771.53052  25811410.3754                   25811398.3164
        32.7504         16.7504
 -17839276.76547 -13600671.27646  22285850.5164                   22285839.0434
        46.5004         37.5004
 -16641520.45647 -12832838.69847  22554760.9534                   22554753.3484
        43.7504         44.2504
  -6586418.89446  -5111469.38243  24447883.7114                   24447874.2304
        36.0004         19.0004
 -25192303.28748 -19602176.41149  20514854.3914                   20514843.4454
        50.0004         55.0004
 -19097908.34647 -13907498.89748  21708407.9774                   21708400.5474
        45.0004         50.0004
 -10951322.20646  -8796610.66545  23267551.3364                   23267544.1414
        38.5004         35.2504
 -19826417.85448 -17096250.71649  21394008.5394                   21394000.1724
        51.5004         55.0004
